{"type": "FeatureCollection", "features": [{"type": "Feature", "geometry": {"type": "Point", "coordinates": [13.3431711, 52.4958963]}, "properties": {"id": "268915249", "name": "ev. Kita Viktoria-Luise", "street": "Viktoria-Luise-Platz 1", "zip-code": 10777.0, "city": "Berlin", "planning-area-id": 7100101}}, {"type": "Feature", "geometry": {"type": "Point", "coordinates": [13.4471204, 52.4737847]}, "properties": {"id": "268915924", "name": "EKT - Puck e.V.", "street": "Zwiestädter Straße 2", "zip-code": 12055.0, "city": "Berlin", "planning-area-id": 8100416}}, {"type": "Feature", "geometry": {"type": "Point", "coordinates": [13.433799, 52.483402]}, "properties": {"id": "268916030", "name": "Kinderladen Yong (EKT)", "street": "Donaustraße 114", "zip-code": 12043.0, "city": "Berlin", "planning-area-id": 8100314}}, {"type": "Feature", "geometry": {"type": "Point", "coordinates": [13.4264393, 52.534826]}, "properties": {"id": "268916196", "name": "Ev. Kita Winsstraße", "street": "Winsstraße 24", "zip-code": 10405.0, "city": "Berlin", "planning-area-id": 3701658}}, {"type": "Feature", "geometry": {"type": "Point", "coordinates": [13.4491094, 52.475111]}, "properties": {"id": "268917015", "name": "Kita Böhmische Straße", "street": "Böhmische Straße 39", "zip-code": "", "city": "", "planning-area-id": 8100416}}, {"type": "Feature", "geometry": {"type": "Point", "coordinates": [13.4340584, 52.4608843]}, "properties": {"id": "475325547", "name": "Sprache verbindet e. V., Kita Kinderplaneten", "street": "Germaniapromenade 8", "zip-code": 12347.0, "city": "Berlin", "planning-area-id": 8200624}}, {"type": "Feature", "geometry": {"type": "Point", "coordinates": [13.3252488, 52.5146307]}, "properties": {"id": "489927889", "name": "Kita an der Technischen Universität Berlin", "street": "Marchstraße 8", "zip-code": 10587.0, "city": "Berlin", "planning-area-id": 4300622}}, {"type": "Feature", "geometry": {"type": "Point", "coordinates": [13.3659264, 52.553616]}, "properties": {"id": "832835232", "name": "Umpa Lumpa", "street": "Reinickendorfer Straße 63", "zip-code": 13347.0, "city": "Berlin", "planning-area-id": 1401049}}, {"type": "Feature", "geometry": {"type": "Point", "coordinates": [13.2054719, 52.5674245]}, "properties": {"id": "1118738985", "name": "", "street": "Helen-Keller-Weg 12", "zip-code": 13587.0, "city": "Berlin", "planning-area-id": 5100101}}, {"type": "Feature", "geometry": {"type": "Point", "coordinates": [13.3791987, 52.4595639]}, "properties": {"id": "2285961891", "name": "Kita Tiponi II", "street": "Friedrich-Franz-Straße 39", "zip-code": 12103.0, "city": "Berlin", "planning-area-id": 7400825}}, {"type": "Feature", "geometry": {"type": "Point", "coordinates": [13.3678814, 52.5500594]}, "properties": {"id": "2303808176", "name": "Kita Bienchen", "street": "Reinickendorfer Straße 81", "zip-code": "", "city": "", "planning-area-id": 1401043}}, {"type": "Feature", "geometry": {"type": "Point", "coordinates": [13.4116452, 52.5879864]}, "properties": {"id": "2641528075", "name": "Pankower Nest", "street": "Beuthstraße 27 B", "zip-code": 13156.0, "city": "Berlin", "planning-area-id": 3200207}}, {"type": "Feature", "geometry": {"type": "Point", "coordinates": [13.4476531, 52.4379625]}, "properties": {"id": "2821286100", "name": "Kita Erdmännchen I", "street": "Fritz-Reuter-Allee 173", "zip-code": 12359.0, "city": "Berlin", "planning-area-id": 8200727}}, {"type": "Feature", "geometry": {"type": "Point", "coordinates": [13.2081129, 52.5612499]}, "properties": {"id": "2867833113", "name": "Kita Elfenbein", "street": "Streitstraße 59", "zip-code": 13587.0, "city": "Berlin", "planning-area-id": 5100105}}, {"type": "Feature", "geometry": {"type": "Point", "coordinates": [13.3583103, 52.5737444]}, "properties": {"id": "2952352723", "name": "Kita Luftballon", "street": "Lindauer Allee 4", "zip-code": 13407.0, "city": "Berlin", "planning-area-id": 12100205}}, {"type": "Feature", "geometry": {"type": "Point", "coordinates": [13.3569877, 52.5680837]}, "properties": {"id": "2952353394", "name": "Kita Die kleinen Füchse", "street": "Genfer Straße 33", "zip-code": 13407.0, "city": "Berlin", "planning-area-id": 12100204}}, {"type": "Feature", "geometry": {"type": "Point", "coordinates": [13.4242216, 52.5175592]}, "properties": {"id": "3213713658", "name": "Kinderhaus Berlin-Mitte", "street": "Neue Blumenstraße 22", "zip-code": 10179.0, "city": "Berlin", "planning-area-id": 1100311}}, {"type": "Feature", "geometry": {"type": "Point", "coordinates": [13.5175499, 52.5704222]}, "properties": {"id": "3310059976", "name": "Leos Hütte", "street": "Grevesmühlener Straße 43", "zip-code": 13059.0, "city": "Berlin", "planning-area-id": 11100205}}, {"type": "Feature", "geometry": {"type": "Point", "coordinates": [13.4801226, 52.5058318]}, "properties": {"id": "3602681045", "name": "Fine Turbine", "street": "", "zip-code": "", "city": "", "planning-area-id": 11400927}}, {"type": "Feature", "geometry": {"type": "Point", "coordinates": [13.3145519, 52.4409953]}, "properties": {"id": "3919485004", "name": "", "street": "", "zip-code": "", "city": "", "planning-area-id": 6300633}}, {"type": "Feature", "geometry": {"type": "Point", "coordinates": [13.3568407, 52.5524769]}, "properties": {"id": "4095932189", "name": "Kita Plapperfisch", "street": "Seestraße 62", "zip-code": 13347.0, "city": "Berlin", "planning-area-id": 1401048}}, {"type": "Feature", "geometry": {"type": "Point", "coordinates": [13.3779418, 52.5575415]}, "properties": {"id": "4139409989", "name": "Wir werden immer größer", "street": "Koloniestraße 139", "zip-code": 13359.0, "city": "Berlin", "planning-area-id": 1300730}}, {"type": "Feature", "geometry": {"type": "Point", "coordinates": [13.4479672, 52.5129132]}, "properties": {"id": "4223494992", "name": "Kita Playground", "street": "Gubener Straße 51", "zip-code": 10243.0, "city": "", "planning-area-id": 2400624}}, {"type": "Feature", "geometry": {"type": "Point", "coordinates": [13.451178, 52.5125605]}, "properties": {"id": "4223507993", "name": "Kita Junior 1", "street": "Grünberger Straße 26", "zip-code": 10245.0, "city": "", "planning-area-id": 2400624}}, {"type": "Feature", "geometry": {"type": "Point", "coordinates": [13.4627077, 52.517966]}, "properties": {"id": "4251827103", "name": "Kita Rumpelbande", "street": "", "zip-code": "", "city": "", "planning-area-id": 2500728}}, {"type": "Feature", "geometry": {"type": "Point", "coordinates": [13.4912422, 52.636253]}, "properties": {"id": "4341056691", "name": "Moorwiese", "street": "", "zip-code": "", "city": "", "planning-area-id": 3100101}}, {"type": "Feature", "geometry": {"type": "Point", "coordinates": [13.3968516, 52.5669682]}, "properties": {"id": "4831523451", "name": "Kinderladen PiwiNest", "street": "Wollankstraße 11", "zip-code": 13187.0, "city": "Berlin", "planning-area-id": 3400721}}, {"type": "Feature", "geometry": {"type": "Point", "coordinates": [13.4196963, 52.5525925]}, "properties": {"id": "4912977844", "name": "Kita SEHsternTaler", "street": "Greifenhagener Straße 33", "zip-code": 10437.0, "city": "Berlin", "planning-area-id": 3601243}}, {"type": "Feature", "geometry": {"type": "Point", "coordinates": [13.4967466, 52.5089424]}, "properties": {"id": "4920611563", "name": "Kita Vitale Großstadtmäuse III", "street": "Eitelstraße 85", "zip-code": 10317.0, "city": "Berlin", "planning-area-id": 11400929}}, {"type": "Feature", "geometry": {"type": "Point", "coordinates": [13.3552293, 52.5744518]}, "properties": {"id": "5233009250", "name": "Kita Kinderinsel Alt-Reinickendorf", "street": "", "zip-code": "", "city": "", "planning-area-id": 12100205}}, {"type": "Feature", "geometry": {"type": "Point", "coordinates": [13.4615017, 52.5187]}, "properties": {"id": "5239562224", "name": "Kita Salabanda 24", "street": "Bänschstraße 24", "zip-code": 10247.0, "city": "Berlin", "planning-area-id": 2500727}}, {"type": "Feature", "geometry": {"type": "Point", "coordinates": [13.1975091, 52.5200132]}, "properties": {"id": "5289857023", "name": "Silberflöte", "street": "", "zip-code": 13595.0, "city": "Berlin", "planning-area-id": 5200630}}, {"type": "Feature", "geometry": {"type": "Point", "coordinates": [13.1973577, 52.5183142]}, "properties": {"id": "5289857024", "name": "Pichelsdorfer Zwerge", "street": "Pichelsdorfer Straße 53", "zip-code": 13595.0, "city": "Berlin", "planning-area-id": 5200630}}, {"type": "Feature", "geometry": {"type": "Point", "coordinates": [13.3719986, 52.4857096]}, "properties": {"id": "5407416269", "name": "Lok18", "street": "", "zip-code": "", "city": "", "planning-area-id": 7200414}}, {"type": "Feature", "geometry": {"type": "Point", "coordinates": [13.4392656, 52.4782552]}, "properties": {"id": "5983770228", "name": "Mosaikraupen", "street": "", "zip-code": "", "city": "", "planning-area-id": 8100415}}, {"type": "Feature", "geometry": {"type": "Point", "coordinates": [13.4088191, 52.5718191]}, "properties": {"id": "6111118987", "name": "Kita Pankepiraten", "street": "Ossietzkystraße 6-8", "zip-code": 13187.0, "city": "Berlin", "planning-area-id": 3400724}}, {"type": "Feature", "geometry": {"type": "Point", "coordinates": [13.4137913, 52.4888335]}, "properties": {"id": "6115240482", "name": "Kinder Werk Stadt", "street": "Fichtestraße 19A", "zip-code": 10967.0, "city": "Berlin", "planning-area-id": 2200212}}, {"type": "Feature", "geometry": {"type": "Point", "coordinates": [13.3899883, 52.5233753]}, "properties": {"id": "6123191672", "name": "Kita an der Humboldt-Universität „Die Lupe“", "street": "Ziegelstraße 5-9", "zip-code": 10117.0, "city": "Berlin", "planning-area-id": 1100309}}, {"type": "Feature", "geometry": {"type": "Point", "coordinates": [13.416, 52.5600125]}, "properties": {"id": "6284831003", "name": "Junges Gemüse", "street": "Elsa-Brändström-Straße 15", "zip-code": 13189.0, "city": "Berlin", "planning-area-id": 3400829}}, {"type": "Feature", "geometry": {"type": "Point", "coordinates": [13.4321168, 52.5342616]}, "properties": {"id": "7095755744", "name": "Kita Schnick & Schnack", "street": "Pasteurstraße 5", "zip-code": 10407.0, "city": "Berlin", "planning-area-id": 3701660}}, {"type": "Feature", "geometry": {"type": "Point", "coordinates": [13.3634353, 52.5483371]}, "properties": {"id": "7450070792", "name": "Kita Tipi", "street": "Prinz-Eugen-Straße 16", "zip-code": "", "city": "", "planning-area-id": 1401043}}, {"type": "Feature", "geometry": {"type": "Point", "coordinates": [13.43958, 52.4732269]}, "properties": {"id": "7683113440", "name": "Kita Paradiesvögel", "street": "", "zip-code": "", "city": "", "planning-area-id": 8100208}}, {"type": "Feature", "geometry": {"type": "Point", "coordinates": [13.3655333, 52.5835082]}, "properties": {"id": "7746191694", "name": "Pankebären", "street": "", "zip-code": "", "city": "", "planning-area-id": 3400620}}, {"type": "Feature", "geometry": {"type": "Point", "coordinates": [13.3612696, 52.5877593]}, "properties": {"id": "7746191886", "name": "Wilhelmsruher Kinder", "street": "", "zip-code": "", "city": "", "planning-area-id": 3400619}}, {"type": "Feature", "geometry": {"type": "Point", "coordinates": [13.4275382, 52.4636108]}, "properties": {"id": "7803708935", "name": "kita jomme Lisa nest", "street": "", "zip-code": "", "city": "", "planning-area-id": 8100105}}, {"type": "Feature", "geometry": {"type": "Point", "coordinates": [13.2095465, 52.5651332]}, "properties": {"id": "8615958079", "name": "Kinder Vision", "street": "", "zip-code": "", "city": "", "planning-area-id": 5100103}}, {"type": "Feature", "geometry": {"type": "Point", "coordinates": [13.6110748, 52.4560784]}, "properties": {"id": "8913626618", "name": "Kita Glückszelle", "street": "", "zip-code": "", "city": "", "planning-area-id": 9501736}}, {"type": "Feature", "geometry": {"type": "Point", "coordinates": [13.3538361, 52.5403131]}, "properties": {"id": "8968938732", "name": "", "street": "", "zip-code": "", "city": "", "planning-area-id": 1401046}}, {"type": "Feature", "geometry": {"type": "Point", "coordinates": [13.3823512, 52.4830204]}, "properties": {"id": "8989819195", "name": "Inselreich", "street": "Manfred-von-Richthofen-Straße 15", "zip-code": 12101.0, "city": "Berlin", "planning-area-id": 7400720}}, {"type": "Feature", "geometry": {"type": "Point", "coordinates": [13.532992, 52.5265626]}, "properties": {"id": "9107506889", "name": "Kita Wirbelwind", "street": "", "zip-code": 12681.0, "city": "Berlin", "planning-area-id": 10100311}}, {"type": "Feature", "geometry": {"type": "Point", "coordinates": [13.4323749, 52.4722114]}, "properties": {"id": "9187654266", "name": "Mini Mumm", "street": "Thomasstraße 61", "zip-code": 12053.0, "city": "Berlin", "planning-area-id": 8100208}}, {"type": "Feature", "geometry": {"type": "Point", "coordinates": [13.463351, 52.5497108]}, "properties": {"id": "9405048071", "name": "Kindertagespflege am Weissen See", "street": "Bizetstraße 124", "zip-code": 13088.0, "city": "Berlin", "planning-area-id": 3500936}}, {"type": "Feature", "geometry": {"type": "Point", "coordinates": [13.3221821, 52.4963699]}, "properties": {"id": "9509419310", "name": "El Caracol", "street": "", "zip-code": "", "city": "", "planning-area-id": 4501044}}, {"type": "Feature", "geometry": {"type": "Point", "coordinates": [13.447151, 52.475421]}, "properties": {"id": "9974872231", "name": "Kindertagesstätte Königskinder", "street": "Hertzbergstraße 29", "zip-code": 12055.0, "city": "Berlin", "planning-area-id": 8100416}}, {"type": "Feature", "geometry": {"type": "Point", "coordinates": [13.3012226, 52.5231435]}, "properties": {"id": "10177798094", "name": "Kindergarten Kükenbande", "street": "Mierendorffstraße 9", "zip-code": 10589.0, "city": "Berlin", "planning-area-id": 4300517}}, {"type": "Feature", "geometry": {"type": "Point", "coordinates": [13.2998612, 52.5232674]}, "properties": {"id": "10177809036", "name": "Hauptstadtfüchse", "street": "Tegeler Weg 2", "zip-code": 10589.0, "city": "Berlin", "planning-area-id": 4300517}}, {"type": "Feature", "geometry": {"type": "Point", "coordinates": [13.3979473, 52.5300888]}, "properties": {"id": "10294862861", "name": "Emil Kirschkern", "street": "Ackerstraße 3a", "zip-code": 10115.0, "city": "Berlin", "planning-area-id": 1100415}}, {"type": "Feature", "geometry": {"type": "Point", "coordinates": [13.4313053, 52.5359877]}, "properties": {"id": "10591768326", "name": "Kita Sternenwiese", "street": "Chodowieckistraße 2", "zip-code": 10405.0, "city": "Berlin", "planning-area-id": 3701658}}, {"type": "Feature", "geometry": {"type": "Point", "coordinates": [13.326632, 52.5267191]}, "properties": {"id": "10686885225", "name": "Kita Safina II", "street": "", "zip-code": "", "city": "", "planning-area-id": 1200518}}, {"type": "Feature", "geometry": {"type": "Point", "coordinates": [13.3345127, 52.5313543]}, "properties": {"id": "10735906212", "name": "Kinder-Tagesbetreuung Nika", "street": "Emdener Straße 22", "zip-code": 10551.0, "city": "Berlin", "planning-area-id": 1200519}}, {"type": "Feature", "geometry": {"type": "Point", "coordinates": [13.5165077, 52.5317455]}, "properties": {"id": "11029941827", "name": "KITA Rhinspatzen Berlin", "street": "Rhinstraße 143a", "zip-code": 10315.0, "city": "Berlin", "planning-area-id": 11300721}}, {"type": "Feature", "geometry": {"type": "Point", "coordinates": [13.3063657, 52.5153408]}, "properties": {"id": "11134391970", "name": "Kita Schlumpfhausen", "street": "", "zip-code": "", "city": "", "planning-area-id": 4300621}}, {"type": "Feature", "geometry": {"type": "Point", "coordinates": [13.403919, 52.5713587]}, "properties": {"id": "11159218305", "name": "Kita Paradiesvögel", "street": "", "zip-code": 13187.0, "city": "", "planning-area-id": 3400722}}, {"type": "Feature", "geometry": {"type": "Point", "coordinates": [13.5600893, 52.555632]}, "properties": {"id": "11263576953", "name": "Kita Händchenklein", "street": "", "zip-code": "", "city": "", "planning-area-id": 10100208}}, {"type": "Feature", "geometry": {"type": "Point", "coordinates": [13.4498469, 52.4740515]}, "properties": {"id": "11266544273", "name": "", "street": "Schudomastraße 46", "zip-code": 12055.0, "city": "Berlin", "planning-area-id": 8100417}}, {"type": "Feature", "geometry": {"type": "Point", "coordinates": [13.3638827, 52.5450608]}, "properties": {"id": "11406274410", "name": "Kita Wunderland", "street": "Gerichtstraße 40", "zip-code": 13347.0, "city": "Berlin", "planning-area-id": 1401043}}, {"type": "Feature", "geometry": {"type": "Point", "coordinates": [13.3652326, 52.5489176]}, "properties": {"id": "11406312584", "name": "Kita Die kleinen Grünschnäbel", "street": "Maxstraße 24", "zip-code": 13347.0, "city": "Berlin", "planning-area-id": 1401043}}, {"type": "Feature", "geometry": {"type": "Point", "coordinates": [13.4057974, 52.5655378]}, "properties": {"id": "11434724951", "name": "", "street": "", "zip-code": "", "city": "", "planning-area-id": 3400721}}, {"type": "Feature", "geometry": {"type": "Point", "coordinates": [13.3848803, 52.5572246]}, "properties": {"id": "11549923655", "name": "Kita Burg-Spatzen", "street": "", "zip-code": "", "city": "", "planning-area-id": 1300730}}, {"type": "Feature", "geometry": {"type": "Point", "coordinates": [13.349446, 52.5020226]}, "properties": {"id": "11583952292", "name": "Kiddies", "street": "Courbièrestraße 3", "zip-code": 10787.0, "city": "Berlin", "planning-area-id": 7100102}}, {"type": "Feature", "geometry": {"type": "Point", "coordinates": [13.5437496, 52.4348308]}, "properties": {"id": "11693543911", "name": "Philipp & Lilli", "street": "Weerthstraße 7", "zip-code": 12489.0, "city": "Berlin", "planning-area-id": 9200716}}, {"type": "Feature", "geometry": {"type": "Point", "coordinates": [13.3188638, 52.5076594]}, "properties": {"id": "11736954399", "name": "KiTa Pestalozzistraße", "street": "", "zip-code": "", "city": "", "planning-area-id": 4300624}}, {"type": "Feature", "geometry": {"type": "Point", "coordinates": [13.5476596, 52.4359635]}, "properties": {"id": "11740844408", "name": "Großstadtmäuse", "street": "Friedenstraße 14", "zip-code": 12489.0, "city": "Berlin", "planning-area-id": 9200716}}, {"type": "Feature", "geometry": {"type": "Point", "coordinates": [13.4609025, 52.5059679]}, "properties": {"id": "11763059718", "name": "Klainohrhase", "street": "", "zip-code": "", "city": "", "planning-area-id": 2500834}}, {"type": "Feature", "geometry": {"type": "Point", "coordinates": [13.3170318, 52.4407536]}, "properties": {"id": "11763141752", "name": "Fröbel-Kindergarten Zwergenwiese", "street": "Hindenburgdamm 30", "zip-code": 12203.0, "city": "Berlin", "planning-area-id": 6300630}}]}