{"type": "FeatureCollection", "features": [{"type": "Feature", "geometry": {"type": "Point", "coordinates": [13.5001666, 52.4396916]}, "properties": {"id": "669088712", "name": "Ärztehaus Johannisthal", "street": "Sterndamm 152", "zip-code": 12487.0, "city": "Berlin", "planning-area-id": 9100407}}, {"type": "Feature", "geometry": {"type": "Point", "coordinates": [13.4909414, 52.5151416]}, "properties": {"id": "694302689", "name": "Ärztehaus am Roedeliusplatz", "street": "Schottstraße 4", "zip-code": 10365.0, "city": "Berlin", "planning-area-id": 11300724}}, {"type": "Feature", "geometry": {"type": "Point", "coordinates": [13.4198597, 52.4988453]}, "properties": {"id": "872223518", "name": "Ärztehaus", "street": "", "zip-code": "", "city": "", "planning-area-id": 2300417}}, {"type": "Feature", "geometry": {"type": "Point", "coordinates": [13.4132967, 52.5027923]}, "properties": {"id": "874357625", "name": "MVZ am Moritzplatz", "street": "Oranienstraße 158", "zip-code": 10969.0, "city": "Berlin", "planning-area-id": 2100104}}, {"type": "Feature", "geometry": {"type": "Point", "coordinates": [13.4169764, 52.5721447]}, "properties": {"id": "911925361", "name": "Ärztehaus Damerowstraße", "street": "Damerowstraße 7", "zip-code": 13187.0, "city": "Berlin", "planning-area-id": 3400723}}, {"type": "Feature", "geometry": {"type": "Point", "coordinates": [13.2152977, 52.4392932]}, "properties": {"id": "933513566", "name": "Ärztehaus am Schlachtensee", "street": "Breisgauer Straße 1-3", "zip-code": 14129.0, "city": "Berlin", "planning-area-id": 6400838}}, {"type": "Feature", "geometry": {"type": "Point", "coordinates": [13.4352588, 52.4227868]}, "properties": {"id": "1168212013", "name": "MVZ-Vitalis", "street": "Alt-Buckow 9-11", "zip-code": 12349.0, "city": "Berlin", "planning-area-id": 8200832}}, {"type": "Feature", "geometry": {"type": "Point", "coordinates": [13.2385141, 52.4441457]}, "properties": {"id": "1217659471", "name": "Nierenzentrum Zehlendorf", "street": "Fischerhüttenstraße 111", "zip-code": 14163.0, "city": "Berlin", "planning-area-id": 6400838}}, {"type": "Feature", "geometry": {"type": "Point", "coordinates": [13.4511418, 52.5151646]}, "properties": {"id": "1272472319", "name": "DTZ Berlin - Ärztehaus Kadiner Straße", "street": "Kadiner Straße 23", "zip-code": 10243.0, "city": "Berlin", "planning-area-id": 2400624}}, {"type": "Feature", "geometry": {"type": "Point", "coordinates": [13.2044575, 52.5369549]}, "properties": {"id": "1336685638", "name": "Ärztehaus", "street": "", "zip-code": "", "city": "", "planning-area-id": 5100316}}, {"type": "Feature", "geometry": {"type": "Point", "coordinates": [13.5758681, 52.4472814]}, "properties": {"id": "1618861746", "name": "Ärzte Zentrum Köpenick", "street": "", "zip-code": "", "city": "", "planning-area-id": 9401534}}, {"type": "Feature", "geometry": {"type": "Point", "coordinates": [13.2912619, 52.4444506]}, "properties": {"id": "1724523076", "name": "Tagesklinik unter den Eichen", "street": "Unter den Eichen 93", "zip-code": 12205.0, "city": "Berlin", "planning-area-id": 6300629}}, {"type": "Feature", "geometry": {"type": "Point", "coordinates": [13.3581741, 52.5466232]}, "properties": {"id": "1732901969", "name": "Medico Leopoldplatz", "street": "Müllerstraße 151", "zip-code": 13353.0, "city": "Berlin", "planning-area-id": 1400942}}, {"type": "Feature", "geometry": {"type": "Point", "coordinates": [13.402647, 52.5809237]}, "properties": {"id": "1734428743", "name": "Ärztehaus", "street": "Hermann-Hesse-Straße 4", "zip-code": 13156.0, "city": "Berlin", "planning-area-id": 3200206}}, {"type": "Feature", "geometry": {"type": "Point", "coordinates": [13.5419927, 52.527514]}, "properties": {"id": "2021436781", "name": "Sana Gesundheitszentrum Marzahn \"Ernst Ludwig Heim\"", "street": "Helene-Weigel-Platz 10", "zip-code": 12681.0, "city": "Berlin", "planning-area-id": 10100312}}, {"type": "Feature", "geometry": {"type": "Point", "coordinates": [13.3860897, 52.4555574]}, "properties": {"id": "2105895889", "name": "Ärztehaus am Tempelhofer Hafen", "street": "Tempelhofer Damm 227", "zip-code": 12099.0, "city": "Berlin", "planning-area-id": 7400927}}, {"type": "Feature", "geometry": {"type": "Point", "coordinates": [13.2837171, 52.5913935]}, "properties": {"id": "2126141390", "name": "Ärztehaus", "street": "Schloßstraße 5", "zip-code": 13507.0, "city": "Berlin", "planning-area-id": 12200515}}, {"type": "Feature", "geometry": {"type": "Point", "coordinates": [13.4551298, 52.5122055]}, "properties": {"id": "2335086445", "name": "Sana Gesundheitszentrum Friedrichshain", "street": "Grünberger Straße 43-45", "zip-code": 10245.0, "city": "Berlin", "planning-area-id": 2500833}}, {"type": "Feature", "geometry": {"type": "Point", "coordinates": [13.3946085, 52.506748]}, "properties": {"id": "2435045640", "name": "Rückenzentrum am Markgrafenpark", "street": "Markgrafenstraße 19", "zip-code": 10969.0, "city": "Berlin", "planning-area-id": 2100102}}, {"type": "Feature", "geometry": {"type": "Point", "coordinates": [13.4332296, 52.4644914]}, "properties": {"id": "2509419045", "name": "Ärztehaus Neubritzer Tor", "street": "Hermannstraße 147", "zip-code": 12051.0, "city": "Berlin", "planning-area-id": 8100209}}, {"type": "Feature", "geometry": {"type": "Point", "coordinates": [13.3441342, 52.5250616]}, "properties": {"id": "2557712726", "name": "Magnet MVZ Berlin", "street": "Alt-Moabit 90", "zip-code": 10559.0, "city": "Berlin", "planning-area-id": 1200626}}, {"type": "Feature", "geometry": {"type": "Point", "coordinates": [13.3060017, 52.5076863]}, "properties": {"id": "2821025302", "name": "Nierenzentrum Charlottenburg", "street": "Wilmersdorfer Straße 57", "zip-code": 10627.0, "city": "Berlin", "planning-area-id": 4300623}}, {"type": "Feature", "geometry": {"type": "Point", "coordinates": [13.3133427, 52.4766498]}, "properties": {"id": "2851155103", "name": "Zahnklinik/Zahnärztlicher Notfalldienst", "street": "Aßmannshauser Straße 4-6", "zip-code": 14197.0, "city": "Berlin", "planning-area-id": 4400834}}, {"type": "Feature", "geometry": {"type": "Point", "coordinates": [13.288331, 52.583891]}, "properties": {"id": "2935287105", "name": "Gesundheitszentrum", "street": "", "zip-code": "", "city": "", "planning-area-id": 12200515}}, {"type": "Feature", "geometry": {"type": "Point", "coordinates": [13.4238384, 52.580674]}, "properties": {"id": "3310721906", "name": "Ärztehaus Galenusstraße", "street": "Galenusstraße 59", "zip-code": 13187.0, "city": "Berlin", "planning-area-id": 3400725}}, {"type": "Feature", "geometry": {"type": "Point", "coordinates": [13.7156322, 52.431545]}, "properties": {"id": "3371705079", "name": "Ärztehaus Rahnsdorf", "street": "Fürstenwalder Allee 318", "zip-code": 12589.0, "city": "Berlin", "planning-area-id": 9501838}}, {"type": "Feature", "geometry": {"type": "Point", "coordinates": [13.343078, 52.5425166]}, "properties": {"id": "3374664253", "name": "Frauenheilkunde und Geburtsmedizin", "street": "", "zip-code": "", "city": "", "planning-area-id": 1400938}}, {"type": "Feature", "geometry": {"type": "Point", "coordinates": [13.3441244, 52.5414754]}, "properties": {"id": "3374664287", "name": "Klinik für Anästhesiologie und operative Intensivmedizin", "street": "", "zip-code": "", "city": "", "planning-area-id": 1400938}}, {"type": "Feature", "geometry": {"type": "Point", "coordinates": [13.3425037, 52.5414126]}, "properties": {"id": "3374664288", "name": "Klinik für Augenheilkunde", "street": "", "zip-code": "", "city": "", "planning-area-id": 1400938}}, {"type": "Feature", "geometry": {"type": "Point", "coordinates": [13.3452139, 52.5417163]}, "properties": {"id": "3374664289", "name": "Klinik für Neurologie", "street": "", "zip-code": "", "city": "", "planning-area-id": 1400938}}, {"type": "Feature", "geometry": {"type": "Point", "coordinates": [13.3412877, 52.5411876]}, "properties": {"id": "3374664291", "name": "Klinik für Psychiatrie, Psychosomatik und Psychotherapie des Kindes- und Jugendalters", "street": "", "zip-code": "", "city": "", "planning-area-id": 1400938}}, {"type": "Feature", "geometry": {"type": "Point", "coordinates": [13.3418703, 52.5424245]}, "properties": {"id": "3374665793", "name": "Kliniken für Kinderheilkunde und Kinderchirurgie", "street": "", "zip-code": "", "city": "", "planning-area-id": 1400938}}, {"type": "Feature", "geometry": {"type": "Point", "coordinates": [13.3452252, 52.5398016]}, "properties": {"id": "3374665794", "name": "Institut für Tropenmedizin und Internationale Gesundheit", "street": "", "zip-code": "", "city": "", "planning-area-id": 1400938}}, {"type": "Feature", "geometry": {"type": "Point", "coordinates": [13.4739664, 52.6116633]}, "properties": {"id": "3442710834", "name": "Ärztehaus Karow", "street": "", "zip-code": "", "city": "", "planning-area-id": 3300412}}, {"type": "Feature", "geometry": {"type": "Point", "coordinates": [13.5263205, 52.4825509]}, "properties": {"id": "3566078016", "name": "Ärztehaus Karlshorst", "street": "Ehrenfelsstraße 47", "zip-code": 10318.0, "city": "Berlin", "planning-area-id": 11501340}}, {"type": "Feature", "geometry": {"type": "Point", "coordinates": [13.3306476, 52.5007524]}, "properties": {"id": "3676000336", "name": "", "street": "Joachimsthaler Straße 21", "zip-code": 10719.0, "city": "Berlin", "planning-area-id": 4501042}}, {"type": "Feature", "geometry": {"type": "Point", "coordinates": [13.3456098, 52.5416884]}, "properties": {"id": "3772788958", "name": "Hals-, Nasen-, Ohrenheilkunde", "street": "", "zip-code": "", "city": "", "planning-area-id": 1400938}}, {"type": "Feature", "geometry": {"type": "Point", "coordinates": [13.3443105, 52.5401501]}, "properties": {"id": "3772788960", "name": "Strahlentherapie Ambulantes Gesundheitszentrum", "street": "", "zip-code": "", "city": "", "planning-area-id": 1400938}}, {"type": "Feature", "geometry": {"type": "Point", "coordinates": [13.3444199, 52.5402208]}, "properties": {"id": "3772788961", "name": "Nuklearmedizin Funktionsdiagnostik", "street": "", "zip-code": "", "city": "", "planning-area-id": 1400938}}, {"type": "Feature", "geometry": {"type": "Point", "coordinates": [13.3452304, 52.5397442]}, "properties": {"id": "3772788962", "name": "Pharmakovigilanz- und Beratungszentrum für Embryonaltoxikologie", "street": "", "zip-code": "", "city": "", "planning-area-id": 1400938}}, {"type": "Feature", "geometry": {"type": "Point", "coordinates": [13.3442093, 52.5407789]}, "properties": {"id": "3772789057", "name": "Klinik für Nuklearmedizin", "street": "", "zip-code": "", "city": "", "planning-area-id": 1400938}}, {"type": "Feature", "geometry": {"type": "Point", "coordinates": [13.3452272, 52.5402731]}, "properties": {"id": "3772789058", "name": "Medizinische Klinik m.S. Infektiologie", "street": "", "zip-code": "", "city": "", "planning-area-id": 1400938}}, {"type": "Feature", "geometry": {"type": "Point", "coordinates": [13.3451095, 52.5426569]}, "properties": {"id": "3772789059", "name": "Medizinische Kliniken", "street": "", "zip-code": "", "city": "", "planning-area-id": 1400938}}, {"type": "Feature", "geometry": {"type": "Point", "coordinates": [13.3452938, 52.5415223]}, "properties": {"id": "3772789060", "name": "Mund, Kiefer, Gesichtschirurgie", "street": "", "zip-code": "", "city": "", "planning-area-id": 1400938}}, {"type": "Feature", "geometry": {"type": "Point", "coordinates": [13.3440723, 52.541304]}, "properties": {"id": "3772789061", "name": "Unfall- und Wiederherstellungschirurgie", "street": "", "zip-code": "", "city": "", "planning-area-id": 1400938}}, {"type": "Feature", "geometry": {"type": "Point", "coordinates": [13.3444675, 52.5407931]}, "properties": {"id": "3772804457", "name": "Klinik für Strahlenheilkunde", "street": "", "zip-code": "", "city": "", "planning-area-id": 1400938}}, {"type": "Feature", "geometry": {"type": "Point", "coordinates": [13.3109098, 52.5115837]}, "properties": {"id": "3869328066", "name": "MVZ Dr. Kaleth & Kollegen", "street": "Bismarckstraße 95,96", "zip-code": 10625.0, "city": "Berlin", "planning-area-id": 4300623}}, {"type": "Feature", "geometry": {"type": "Point", "coordinates": [13.306612, 52.4986743]}, "properties": {"id": "3923385926", "name": "Avicenna Klinik", "street": "Paulsborner Straße 2", "zip-code": 10709.0, "city": "Berlin", "planning-area-id": 4500938}}, {"type": "Feature", "geometry": {"type": "Point", "coordinates": [13.3802666, 52.5121683]}, "properties": {"id": "4136419292", "name": "Ärztehaus Mitte Medizinisches Versorgungszentrum", "street": "In den Ministergärten 1", "zip-code": 10117.0, "city": "Berlin", "planning-area-id": 1100205}}, {"type": "Feature", "geometry": {"type": "Point", "coordinates": [13.4652878, 52.5143227]}, "properties": {"id": "4180948090", "name": "Ärztehaus", "street": "Frankfurter Allee 54", "zip-code": 10247.0, "city": "Berlin", "planning-area-id": 2500831}}, {"type": "Feature", "geometry": {"type": "Point", "coordinates": [13.2630571, 52.4517261]}, "properties": {"id": "4317979052", "name": "MVZ Zehlendorf", "street": "Am Waldfriedhof 23", "zip-code": 14169.0, "city": "Berlin", "planning-area-id": 6400842}}, {"type": "Feature", "geometry": {"type": "Point", "coordinates": [13.3802138, 52.5529651]}, "properties": {"id": "4436482371", "name": "MVZ Gesundbrunnen", "street": "Badstraße 32", "zip-code": 13357.0, "city": "Berlin", "planning-area-id": 1401045}}, {"type": "Feature", "geometry": {"type": "Point", "coordinates": [13.3149552, 52.5674668]}, "properties": {"id": "4448386321", "name": "Gesundheitszentrum", "street": "General-Woyna-Straße 1", "zip-code": 13403.0, "city": "Berlin", "planning-area-id": 12200309}}, {"type": "Feature", "geometry": {"type": "Point", "coordinates": [13.3365873, 52.431273]}, "properties": {"id": "4450678325", "name": "copv.berlin", "street": "Kaiser-Wilhelm-Straße 24-26", "zip-code": 12247.0, "city": "Berlin", "planning-area-id": 6200314}}, {"type": "Feature", "geometry": {"type": "Point", "coordinates": [13.3688768, 52.5415844]}, "properties": {"id": "4553683090", "name": "Medio Berlin Ärztehaus Mitte", "street": "Fennstraße 3", "zip-code": 13347.0, "city": "Berlin", "planning-area-id": 1300836}}, {"type": "Feature", "geometry": {"type": "Point", "coordinates": [13.4570707, 52.5112958]}, "properties": {"id": "4773307930", "name": "Covid19 Center", "street": "Simon-Dach-Straße 40", "zip-code": 10245.0, "city": "Berlin", "planning-area-id": 2500833}}, {"type": "Feature", "geometry": {"type": "Point", "coordinates": [13.4061683, 52.5697088]}, "properties": {"id": "4834609482", "name": "MVZ Pankow Innere Medizin", "street": "Breite Straße 33", "zip-code": 13187.0, "city": "Berlin", "planning-area-id": 3400723}}, {"type": "Feature", "geometry": {"type": "Point", "coordinates": [13.5318884, 52.4789995]}, "properties": {"id": "4966305021", "name": "Hebammenpraxis Lichtblick", "street": "Stolzenfelsstraße 17", "zip-code": 10318.0, "city": "", "planning-area-id": 11501340}}, {"type": "Feature", "geometry": {"type": "Point", "coordinates": [13.1952319, 52.5358521]}, "properties": {"id": "5030326571", "name": "MVZ am Bahnhof Spandau", "street": "Galenstraße 3", "zip-code": 13597.0, "city": "Berlin", "planning-area-id": 5100316}}, {"type": "Feature", "geometry": {"type": "Point", "coordinates": [13.6238856, 52.450855]}, "properties": {"id": "5037228530", "name": "Ärzte Zentrum am Markt", "street": "Bölschestraße 113", "zip-code": 12587.0, "city": "Berlin", "planning-area-id": 9501737}}, {"type": "Feature", "geometry": {"type": "Point", "coordinates": [13.3324816, 52.4862047]}, "properties": {"id": "5049915761", "name": "B18 Gesundheitszentrum", "street": "Badensche Straße 18", "zip-code": 10715.0, "city": "Berlin", "planning-area-id": 4501153}}, {"type": "Feature", "geometry": {"type": "Point", "coordinates": [13.3197406, 52.4565402]}, "properties": {"id": "5056974011", "name": "Privatklinik Schlossstraße - Fachklinik für Brustvergrößerung und Brustformung", "street": "", "zip-code": "", "city": "", "planning-area-id": 6100101}}, {"type": "Feature", "geometry": {"type": "Point", "coordinates": [13.2992922, 52.5056232]}, "properties": {"id": "5186166876", "name": "MVZ Windscheidstraße", "street": "Windscheidstraße 18", "zip-code": 10627.0, "city": "Berlin", "planning-area-id": 4300416}}, {"type": "Feature", "geometry": {"type": "Point", "coordinates": [13.413617, 52.5410308]}, "properties": {"id": "5223291551", "name": "Ärztehaus Danziger Tor", "street": "", "zip-code": "", "city": "", "planning-area-id": 3601347}}, {"type": "Feature", "geometry": {"type": "Point", "coordinates": [13.3262841, 52.427323]}, "properties": {"id": "5318240550", "name": "Ärztehaus am Kranoldplatz", "street": "Oberhofer Weg 2", "zip-code": 12209.0, "city": "Berlin", "planning-area-id": 6200422}}, {"type": "Feature", "geometry": {"type": "Point", "coordinates": [13.6121077, 52.511099]}, "properties": {"id": "5325121987", "name": "Ärztehaus Mahlsdorf", "street": "Treskowstraße 73", "zip-code": "", "city": "", "planning-area-id": 10400939}}, {"type": "Feature", "geometry": {"type": "Point", "coordinates": [13.3316596, 52.4969763]}, "properties": {"id": "5337915341", "name": "OP-Zentrum Spichernstraße", "street": "Spichernstraße 11", "zip-code": 10777.0, "city": "Berlin", "planning-area-id": 4501045}}, {"type": "Feature", "geometry": {"type": "Point", "coordinates": [13.4800578, 52.5238219]}, "properties": {"id": "5418942204", "name": "Nierenzentrum Lichtenberg", "street": "Möllendorffstraße 45", "zip-code": 10367.0, "city": "Berlin", "planning-area-id": 11300620}}, {"type": "Feature", "geometry": {"type": "Point", "coordinates": [13.4128467, 52.5492046]}, "properties": {"id": "5451412274", "name": "Ärzte Schönhauser", "street": "Schönhauser Allee 118", "zip-code": 10437.0, "city": "Berlin", "planning-area-id": 3601142}}, {"type": "Feature", "geometry": {"type": "Point", "coordinates": [13.1806609, 52.4978999]}, "properties": {"id": "5779019383", "name": "Biberburg Med-Service GmbH", "street": "Gatower Straße 241", "zip-code": "", "city": "", "planning-area-id": 5400942}}, {"type": "Feature", "geometry": {"type": "Point", "coordinates": [13.3321631, 52.5619433]}, "properties": {"id": "5890341827", "name": "Hausärztlich-Internistisches Versorgungszentrum", "street": "Scharnweberstraße 1", "zip-code": 13405.0, "city": "Berlin", "planning-area-id": 12100204}}, {"type": "Feature", "geometry": {"type": "Point", "coordinates": [13.4591399, 52.5503338]}, "properties": {"id": "5903202921", "name": "HELIOS Medical Center Berlin-Weißensee", "street": "Berliner Allee 105", "zip-code": 13088.0, "city": "Berlin", "planning-area-id": 3500933}}, {"type": "Feature", "geometry": {"type": "Point", "coordinates": [13.4787739, 52.5270136]}, "properties": {"id": "6347320701", "name": "CPC", "street": "Weißenseer Weg 111", "zip-code": 10369.0, "city": "Berlin", "planning-area-id": 11300617}}, {"type": "Feature", "geometry": {"type": "Point", "coordinates": [13.3062719, 52.507043]}, "properties": {"id": "6441944584", "name": "Ärztehaus", "street": "Wilmersdorfer Straße 62", "zip-code": 10627.0, "city": "Berlin", "planning-area-id": 4300623}}, {"type": "Feature", "geometry": {"type": "Point", "coordinates": [13.3757999, 52.5263283]}, "properties": {"id": "6513517778", "name": "Psychiatrische Institutsambulanz", "street": "Bonhoefferweg 3", "zip-code": "", "city": "", "planning-area-id": 1100308}}, {"type": "Feature", "geometry": {"type": "Point", "coordinates": [13.4662422, 52.5520135]}, "properties": {"id": "6710135969", "name": "Medizinisches Versorgungszentrum am Alexianer St. Joseph-​Krankenhaus Berlin-​Weißensee", "street": "Berliner Allee 158", "zip-code": 13088.0, "city": "Berlin", "planning-area-id": 3501038}}, {"type": "Feature", "geometry": {"type": "Point", "coordinates": [13.5071286, 52.6269511]}, "properties": {"id": "7232410182", "name": "Hochschulambulanz Charité Buch", "street": "", "zip-code": "", "city": "", "planning-area-id": 3100103}}, {"type": "Feature", "geometry": {"type": "Point", "coordinates": [13.3012964, 52.488605]}, "properties": {"id": "7613394448", "name": "Ärztehaus Hohenzollerndamm", "street": "Hohenzollerndamm 47a", "zip-code": 10713.0, "city": "Berlin", "planning-area-id": 4500939}}, {"type": "Feature", "geometry": {"type": "Point", "coordinates": [13.3422716, 52.4767301]}, "properties": {"id": "7640755741", "name": "Ästhetikwelt-Berlin", "street": "Hauptstraße 93", "zip-code": 12159.0, "city": "Berlin", "planning-area-id": 7300618}}, {"type": "Feature", "geometry": {"type": "Point", "coordinates": [13.3276218, 52.4793847]}, "properties": {"id": "7680987922", "name": "MVZ psychische Gesundheit", "street": "Bundesplatz 4", "zip-code": 10715.0, "city": "Berlin", "planning-area-id": 4501151}}, {"type": "Feature", "geometry": {"type": "Point", "coordinates": [13.3930716, 52.5292555]}, "properties": {"id": "7831880615", "name": "ZAR Berlin", "street": "Gartenstraße 5", "zip-code": 10115.0, "city": "Berlin", "planning-area-id": 1100415}}, {"type": "Feature", "geometry": {"type": "Point", "coordinates": [13.2958406, 52.497613]}, "properties": {"id": "7994883600", "name": "Ärztehaus", "street": "", "zip-code": "", "city": "", "planning-area-id": 4500938}}, {"type": "Feature", "geometry": {"type": "Point", "coordinates": [13.3215078, 52.4867077]}, "properties": {"id": "8000598805", "name": "Ärztehaus", "street": "Berliner Straße 37", "zip-code": 10715.0, "city": "Berlin", "planning-area-id": 4501147}}, {"type": "Feature", "geometry": {"type": "Point", "coordinates": [13.3068305, 52.5037383]}, "properties": {"id": "8022296119", "name": "MT31 Corona Teststation", "street": "", "zip-code": "", "city": "", "planning-area-id": 4501040}}, {"type": "Feature", "geometry": {"type": "Point", "coordinates": [13.3323975, 52.4862355]}, "properties": {"id": "8245997146", "name": "Panomarana Klinik", "street": "Badensche Straße 18", "zip-code": 10715.0, "city": "Berlin", "planning-area-id": 4501153}}, {"type": "Feature", "geometry": {"type": "Point", "coordinates": [13.3410049, 52.5043567]}, "properties": {"id": "8358306416", "name": "Ärztehaus am Europacenter", "street": "Nürnberger Straße 67", "zip-code": 10787.0, "city": "Berlin", "planning-area-id": 7100101}}, {"type": "Feature", "geometry": {"type": "Point", "coordinates": [13.50974, 52.4977918]}, "properties": {"id": "8378417924", "name": "Ärztehaus", "street": "Balatonstraße 20", "zip-code": 10319.0, "city": "Berlin", "planning-area-id": 11401136}}, {"type": "Feature", "geometry": {"type": "Point", "coordinates": [13.3066377, 52.4971645]}, "properties": {"id": "8435708025", "name": "Zentrales Schlaflabor", "street": "Paderborner Straße 2/2A", "zip-code": 10709.0, "city": "Berlin", "planning-area-id": 4500939}}, {"type": "Feature", "geometry": {"type": "Point", "coordinates": [13.4768042, 52.533436]}, "properties": {"id": "8491450219", "name": "Ärztehaus", "street": "Landsberger Allee 201", "zip-code": 13055.0, "city": "Berlin", "planning-area-id": 11200514}}, {"type": "Feature", "geometry": {"type": "Point", "coordinates": [13.448904, 52.5116602]}, "properties": {"id": "8662563074", "name": "Perspektive Daheim", "street": "Gubener Straße 44", "zip-code": 10243.0, "city": "Berlin", "planning-area-id": 2400624}}, {"type": "Feature", "geometry": {"type": "Point", "coordinates": [13.3945755, 52.4240216]}, "properties": {"id": "8850856433", "name": "Ärztehaus am Birnhornweg", "street": "Birnhornweg 5", "zip-code": 12107.0, "city": "Berlin", "planning-area-id": 7501135}}, {"type": "Feature", "geometry": {"type": "Point", "coordinates": [13.2863591, 52.5105869]}, "properties": {"id": "9178079418", "name": "Ärztehaus", "street": "", "zip-code": "", "city": "", "planning-area-id": 4300414}}, {"type": "Feature", "geometry": {"type": "Point", "coordinates": [13.3534183, 52.5493363]}, "properties": {"id": "9257846271", "name": "MVZ Wedding", "street": "Müllerstraße 139", "zip-code": 13353.0, "city": "Berlin", "planning-area-id": 1400942}}, {"type": "Feature", "geometry": {"type": "Point", "coordinates": [13.5379663, 52.4282314]}, "properties": {"id": "9292210614", "name": "MVZ Adlershof Vivantes Kardiologie", "street": "", "zip-code": "", "city": "", "planning-area-id": 9200715}}, {"type": "Feature", "geometry": {"type": "Point", "coordinates": [13.3519124, 52.5266285]}, "properties": {"id": "9523939998", "name": "MVZ Medizin der Mitte", "street": "Turmstraße 9", "zip-code": "", "city": "", "planning-area-id": 1200625}}, {"type": "Feature", "geometry": {"type": "Point", "coordinates": [13.389756, 52.513277]}, "properties": {"id": "9971870799", "name": "Meoclinic", "street": "Friedrichstraße 71", "zip-code": 10117.0, "city": "Berlin", "planning-area-id": 1100206}}, {"type": "Feature", "geometry": {"type": "Point", "coordinates": [13.3506944, 52.4243716]}, "properties": {"id": "10116298591", "name": "Hausärztlich-internistische Praxis Lankwitz", "street": "Gallwitzallee 131", "zip-code": 12249.0, "city": "Berlin", "planning-area-id": 6200315}}, {"type": "Feature", "geometry": {"type": "Point", "coordinates": [13.3747037, 52.5278444]}, "properties": {"id": "10231199971", "name": "Charité Comprehensive Cancer Center", "street": "Invalidenstraße 80", "zip-code": 10115.0, "city": "Berlin", "planning-area-id": 1100308}}, {"type": "Feature", "geometry": {"type": "Point", "coordinates": [13.3285989, 52.5067455]}, "properties": {"id": "10292325696", "name": "MRT-Akademie", "street": "Fasanenstraße 85", "zip-code": 10623.0, "city": "Berlin", "planning-area-id": 4300622}}, {"type": "Feature", "geometry": {"type": "Point", "coordinates": [13.3884974, 52.4930758]}, "properties": {"id": "10680229526", "name": "Lasermed Augenarzt Kreuzberg", "street": "Gneisenaustraße 115", "zip-code": 10961.0, "city": "Berlin", "planning-area-id": 2200210}}, {"type": "Feature", "geometry": {"type": "Point", "coordinates": [13.4391681, 52.540939]}, "properties": {"id": "10829070905", "name": "Spreemedizin Berlin MVZ", "street": "Storkower Straße 2", "zip-code": 10409.0, "city": "", "planning-area-id": 3601449}}, {"type": "Feature", "geometry": {"type": "Point", "coordinates": [13.3948073, 52.5076578]}, "properties": {"id": "10975186174", "name": "Ärztezentrum Axel-Springer-Passage", "street": "", "zip-code": "", "city": "", "planning-area-id": 2100102}}, {"type": "Feature", "geometry": {"type": "Point", "coordinates": [13.5006735, 52.5093177]}, "properties": {"id": "11021391904", "name": "open.med Berlin-Lichtenberg", "street": "Irenenstraße 20", "zip-code": 10317.0, "city": "", "planning-area-id": 11400929}}, {"type": "Feature", "geometry": {"type": "Point", "coordinates": [13.3894666, 52.514121]}, "properties": {"id": "11034214308", "name": "Endokrinologie Berlin", "street": "Friedrichstraße 76", "zip-code": 10117.0, "city": "", "planning-area-id": 1100206}}, {"type": "Feature", "geometry": {"type": "Point", "coordinates": [13.3851923, 52.4469507]}, "properties": {"id": "11098046274", "name": "MVZ Mariendorf", "street": "", "zip-code": "", "city": "", "planning-area-id": 7501030}}, {"type": "Feature", "geometry": {"type": "Point", "coordinates": [13.6021753, 52.537904]}, "properties": {"id": "11148267382", "name": "Ärztezentrum Haus B", "street": "", "zip-code": "", "city": "", "planning-area-id": 10200421}}, {"type": "Feature", "geometry": {"type": "Point", "coordinates": [13.4939833, 52.6356366]}, "properties": {"id": "11160773805", "name": "Schlaf-Atem-Zentrum", "street": "Wiltbergstraße 19-23", "zip-code": 13125.0, "city": "", "planning-area-id": 3100103}}, {"type": "Feature", "geometry": {"type": "Point", "coordinates": [13.4500858, 52.5084415]}, "properties": {"id": "11601418469", "name": "Orthomed Berlin", "street": "Revaler Straße 100", "zip-code": 10243.0, "city": "", "planning-area-id": 2400624}}]}