{"type": "FeatureCollection", "features": [{"type": "Feature", "geometry": {"type": "Point", "coordinates": [13.6120626, 52.51314]}, "properties": {"id": "266630320", "name": "Buergeramt Mahlsdorf", "street": "Hönower Straße 91", "zip-code": 12623.0, "city": "Berlin", "planning-area-id": 10400938}}, {"type": "Feature", "geometry": {"type": "Point", "coordinates": [13.3415438, 52.5310025]}, "properties": {"id": "268915262", "name": "Karame e.V.", "street": "Wilhelmshavener Straße 22", "zip-code": 10551.0, "city": "Berlin", "planning-area-id": 1200520}}, {"type": "Feature", "geometry": {"type": "Point", "coordinates": [13.4193079, 52.4888821]}, "properties": {"id": "268915306", "name": "Biberzahn", "street": "Jahnstraße 5", "zip-code": 10967.0, "city": "Berlin", "planning-area-id": 2200212}}, {"type": "Feature", "geometry": {"type": "Point", "coordinates": [13.3489832, 52.5238851]}, "properties": {"id": "268915454", "name": "K3 Kiez-Kids-Klub", "street": "Kirchstraße 4", "zip-code": 10557.0, "city": "Berlin", "planning-area-id": 1200626}}, {"type": "Feature", "geometry": {"type": "Point", "coordinates": [13.3096797, 52.504397]}, "properties": {"id": "268917395", "name": "Schwulenberatung Berlin", "street": "Niebuhrstraße 59/60", "zip-code": 10629.0, "city": "Berlin", "planning-area-id": 4501040}}, {"type": "Feature", "geometry": {"type": "Point", "coordinates": [13.3760831, 52.5426247]}, "properties": {"id": "270742541", "name": "Max und Marek", "street": "Neue Hochstraße 24", "zip-code": 13347.0, "city": "Berlin", "planning-area-id": 1300836}}, {"type": "Feature", "geometry": {"type": "Point", "coordinates": [13.2133169, 52.436796]}, "properties": {"id": "270919303", "name": "Stamm Kimbern", "street": "Kaiserstuhlstraße 25", "zip-code": 14129.0, "city": "Berlin", "planning-area-id": 6400737}}, {"type": "Feature", "geometry": {"type": "Point", "coordinates": [13.2192364, 52.5565128]}, "properties": {"id": "302942536", "name": "Medienpoint Spandau", "street": "Hugo-Cassirer-Straße 4", "zip-code": 13587.0, "city": "Berlin", "planning-area-id": 5100104}}, {"type": "Feature", "geometry": {"type": "Point", "coordinates": [13.4217379, 52.518601]}, "properties": {"id": "323241391", "name": "WG Solidarität Mitgliedertreff", "street": "", "zip-code": "", "city": "", "planning-area-id": 1100311}}, {"type": "Feature", "geometry": {"type": "Point", "coordinates": [13.4788778, 52.5401363]}, "properties": {"id": "352783755", "name": "BFC Dynamo Vereinsheim", "street": "", "zip-code": 13053.0, "city": "Berlin", "planning-area-id": 11200512}}, {"type": "Feature", "geometry": {"type": "Point", "coordinates": [13.5704821, 52.4015333]}, "properties": {"id": "401864244", "name": "Kulturküche Bohnsdorf", "street": "", "zip-code": "", "city": "", "planning-area-id": 9301025}}, {"type": "Feature", "geometry": {"type": "Point", "coordinates": [13.3896483, 52.487144]}, "properties": {"id": "411724432", "name": "DTK-Wasserturm", "street": "", "zip-code": "", "city": "", "planning-area-id": 2200211}}, {"type": "Feature", "geometry": {"type": "Point", "coordinates": [13.4701477, 52.5122632]}, "properties": {"id": "573381068", "name": "einLaden", "street": "Weichselstraße 29", "zip-code": 10247.0, "city": "Berlin", "planning-area-id": 2500832}}, {"type": "Feature", "geometry": {"type": "Point", "coordinates": [13.4501349, 52.4798006]}, "properties": {"id": "615607326", "name": "Open Tiny", "street": "", "zip-code": "", "city": "", "planning-area-id": 8100418}}, {"type": "Feature", "geometry": {"type": "Point", "coordinates": [13.4657857, 52.5009791]}, "properties": {"id": "638750039", "name": "Jugendclub E-Lok", "street": "Laskerstraße 6-8", "zip-code": 10245.0, "city": "Berlin", "planning-area-id": 2500835}}, {"type": "Feature", "geometry": {"type": "Point", "coordinates": [13.4496581, 52.4477346]}, "properties": {"id": "653797109", "name": "Seniorenfreizeitstätte Bruno-Taut", "street": "", "zip-code": "", "city": "", "planning-area-id": 8200726}}, {"type": "Feature", "geometry": {"type": "Point", "coordinates": [13.3273403, 52.5443562]}, "properties": {"id": "660820001", "name": "Schwimm-Club Wedding", "street": "", "zip-code": "", "city": "", "planning-area-id": 1400937}}, {"type": "Feature", "geometry": {"type": "Point", "coordinates": [13.4397016, 52.4936415]}, "properties": {"id": "665072785", "name": "Weltraum Kiezladen für nachhaltige Alltagskultur", "street": "Ratiborstraße 4", "zip-code": 10999.0, "city": "Berlin", "planning-area-id": 2300418}}, {"type": "Feature", "geometry": {"type": "Point", "coordinates": [13.4907784, 52.5148305]}, "properties": {"id": "687038533", "name": "aufatmen", "street": "Schottstraße 2", "zip-code": 10365.0, "city": "Berlin", "planning-area-id": 11300724}}, {"type": "Feature", "geometry": {"type": "Point", "coordinates": [13.407098, 52.5049903]}, "properties": {"id": "775814877", "name": "Bona Peiser", "street": "Oranienstraße 72", "zip-code": 10969.0, "city": "Berlin", "planning-area-id": 2100104}}, {"type": "Feature", "geometry": {"type": "Point", "coordinates": [13.449925, 52.5139341]}, "properties": {"id": "791236061", "name": "Regenbogenhaus", "street": "", "zip-code": "", "city": "", "planning-area-id": 2400624}}, {"type": "Feature", "geometry": {"type": "Point", "coordinates": [13.4165594, 52.4986179]}, "properties": {"id": "799000082", "name": "Aquarium", "street": "Skalitzer Straße 6", "zip-code": 10999.0, "city": "Berlin", "planning-area-id": 2100106}}, {"type": "Feature", "geometry": {"type": "Point", "coordinates": [13.4497773, 52.5127904]}, "properties": {"id": "803941786", "name": "xHain", "street": "Grünberger Straße 16", "zip-code": 10243.0, "city": "Berlin", "planning-area-id": 2400624}}, {"type": "Feature", "geometry": {"type": "Point", "coordinates": [13.4185606, 52.5019625]}, "properties": {"id": "874307702", "name": "Ora 34", "street": "Oranienstraße 34", "zip-code": 10999.0, "city": "Berlin", "planning-area-id": 2300314}}, {"type": "Feature", "geometry": {"type": "Point", "coordinates": [13.4214087, 52.5016984]}, "properties": {"id": "876244330", "name": "Naunyn 65", "street": "", "zip-code": "", "city": "", "planning-area-id": 2300314}}, {"type": "Feature", "geometry": {"type": "Point", "coordinates": [13.4227444, 52.5010192]}, "properties": {"id": "876249655", "name": "Schokofabrik", "street": "Naunynstraße 72", "zip-code": 10997.0, "city": "Berlin", "planning-area-id": 2300314}}, {"type": "Feature", "geometry": {"type": "Point", "coordinates": [13.4707961, 52.4625692]}, "properties": {"id": "930202350", "name": "Jugendtreff TheCorner", "street": "Neuköllnische Allee 129", "zip-code": 12057.0, "city": "Berlin", "planning-area-id": 8100521}}, {"type": "Feature", "geometry": {"type": "Point", "coordinates": [13.4240706, 52.4776993]}, "properties": {"id": "990218933", "name": "Stadtteil- & Infoladen Lunte", "street": "Weisestraße 53", "zip-code": "", "city": "", "planning-area-id": 8100102}}, {"type": "Feature", "geometry": {"type": "Point", "coordinates": [13.4078199, 52.496875]}, "properties": {"id": "1092142199", "name": "Statthaus-Böcklerpark", "street": "Prinzenstraße 1", "zip-code": 10969.0, "city": "Berlin", "planning-area-id": 2100106}}, {"type": "Feature", "geometry": {"type": "Point", "coordinates": [13.450862, 52.5199801]}, "properties": {"id": "1172686632", "name": "Beatbox", "street": "Mühsamstraße 48", "zip-code": 10249.0, "city": "Berlin", "planning-area-id": 2400522}}, {"type": "Feature", "geometry": {"type": "Point", "coordinates": [13.3593081, 52.542353]}, "properties": {"id": "1252447304", "name": "Konfliktagentur im Sprengelkiez", "street": "Sparrstraße 19", "zip-code": "", "city": "", "planning-area-id": 1401047}}, {"type": "Feature", "geometry": {"type": "Point", "coordinates": [13.2766078, 52.5874353]}, "properties": {"id": "1254190259", "name": "Seniorentreffpunkt Tegel", "street": "", "zip-code": "", "city": "", "planning-area-id": 12200515}}, {"type": "Feature", "geometry": {"type": "Point", "coordinates": [13.444885, 52.5147567]}, "properties": {"id": "1256403115", "name": "Begegnungszentrum INTEGRAL e.V.", "street": "", "zip-code": "", "city": "", "planning-area-id": 2400624}}, {"type": "Feature", "geometry": {"type": "Point", "coordinates": [13.3922587, 52.5062673]}, "properties": {"id": "1293994860", "name": "Seniorenfreizeitstätte Charlottenstraße 85", "street": "Charlottenstraße 85", "zip-code": 10969.0, "city": "Berlin", "planning-area-id": 2100102}}, {"type": "Feature", "geometry": {"type": "Point", "coordinates": [13.3605167, 52.5015972]}, "properties": {"id": "1425304968", "name": "Nachbarschaftshaus", "street": "", "zip-code": "", "city": "", "planning-area-id": 1100103}}, {"type": "Feature", "geometry": {"type": "Point", "coordinates": [13.4621999, 52.425368]}, "properties": {"id": "1445349887", "name": "Gemeinschaftshaus Gropiusstadt", "street": "Bat-Yam-Platz 1", "zip-code": 12353.0, "city": "Berlin", "planning-area-id": 8300935}}, {"type": "Feature", "geometry": {"type": "Point", "coordinates": [13.4249634, 52.5443776]}, "properties": {"id": "1471943097", "name": "BGFF", "street": "Ahlbecker Straße 17", "zip-code": 10437.0, "city": "Berlin", "planning-area-id": 3601348}}, {"type": "Feature", "geometry": {"type": "Point", "coordinates": [13.2770771, 52.5841064]}, "properties": {"id": "1505584114", "name": "Ruder-Riege Turnverein Waidmannslust", "street": "Eisenhammerweg 22-24", "zip-code": 13507.0, "city": "Berlin", "planning-area-id": 12200515}}, {"type": "Feature", "geometry": {"type": "Point", "coordinates": [13.4274014, 52.5265613]}, "properties": {"id": "1555601455", "name": "Satellit", "street": "Weinstraße 11", "zip-code": 10249.0, "city": "Berlin", "planning-area-id": 2400520}}, {"type": "Feature", "geometry": {"type": "Point", "coordinates": [13.4368178, 52.4823741]}, "properties": {"id": "1647185508", "name": "Altes Finanzamt", "street": "Schönstedtstraße 7", "zip-code": 12043.0, "city": "Berlin", "planning-area-id": 8100314}}, {"type": "Feature", "geometry": {"type": "Point", "coordinates": [13.3881073, 52.5392346]}, "properties": {"id": "1650642850", "name": "Quartiersmanagement Brunnenviertel - Ackerstraße", "street": "Jasmunder Straße 16", "zip-code": 13355.0, "city": "Berlin", "planning-area-id": 1300835}}, {"type": "Feature", "geometry": {"type": "Point", "coordinates": [13.2058211, 52.538242]}, "properties": {"id": "1654365784", "name": "Gemeindesaal Ev. Kirchengemeinde St. Nikolai", "street": "", "zip-code": "", "city": "", "planning-area-id": 5100316}}, {"type": "Feature", "geometry": {"type": "Point", "coordinates": [13.3057531, 52.5260831]}, "properties": {"id": "1681600329", "name": "Nachbarschaftsladen Mierendorffplatz", "street": "Mierendorffplatz 19", "zip-code": 10589.0, "city": "Berlin", "planning-area-id": 4300517}}, {"type": "Feature", "geometry": {"type": "Point", "coordinates": [13.5024287, 52.5720492]}, "properties": {"id": "1703460022", "name": "Nachbarschaftshaus im Ostseeviertel", "street": "Ribnitzer Straße 1b", "zip-code": 13051.0, "city": "Berlin", "planning-area-id": 11100307}}, {"type": "Feature", "geometry": {"type": "Point", "coordinates": [13.4309683, 52.470975]}, "properties": {"id": "1745568158", "name": "FAQ Infoladen", "street": "Jonasstraße 40", "zip-code": 12053.0, "city": "Berlin", "planning-area-id": 8100208}}, {"type": "Feature", "geometry": {"type": "Point", "coordinates": [13.3936764, 52.5057583]}, "properties": {"id": "1762943006", "name": "Gloria Event Center", "street": "Markgrafenstraße 67", "zip-code": 10969.0, "city": "Berlin", "planning-area-id": 2100102}}, {"type": "Feature", "geometry": {"type": "Point", "coordinates": [13.4212269, 52.4785137]}, "properties": {"id": "1791368627", "name": "Rad und Tat", "street": "Schillerpromenade 1", "zip-code": 12049.0, "city": "Berlin", "planning-area-id": 8100102}}, {"type": "Feature", "geometry": {"type": "Point", "coordinates": [13.2771995, 52.5840475]}, "properties": {"id": "1874472286", "name": "Nordberliner Tauchverein", "street": "Eisenhammerweg 22", "zip-code": 13507.0, "city": "Berlin", "planning-area-id": 12200515}}, {"type": "Feature", "geometry": {"type": "Point", "coordinates": [13.3072159, 52.4732169]}, "properties": {"id": "1891361728", "name": "InternetTreff Schlange", "street": "Schlangenbader Straße 25", "zip-code": 14197.0, "city": "Berlin", "planning-area-id": 4400833}}, {"type": "Feature", "geometry": {"type": "Point", "coordinates": [13.3550034, 52.4998069]}, "properties": {"id": "1915697585", "name": "Mann-O-Meter e.V.", "street": "Bülowstraße 106", "zip-code": 10783.0, "city": "Berlin", "planning-area-id": 7100103}}, {"type": "Feature", "geometry": {"type": "Point", "coordinates": [13.4250691, 52.5289007]}, "properties": {"id": "1923424966", "name": "Haus der Demokratie und Menschenrechte", "street": "Greifswalder Straße 4", "zip-code": 10405.0, "city": "Berlin", "planning-area-id": 3701660}}, {"type": "Feature", "geometry": {"type": "Point", "coordinates": [13.3754837, 52.4374457]}, "properties": {"id": "1929519705", "name": "Quälgeist", "street": "Lankwitzer Straße 42/43", "zip-code": 12107.0, "city": "Berlin", "planning-area-id": 7501029}}, {"type": "Feature", "geometry": {"type": "Point", "coordinates": [13.4246389, 52.4784535]}, "properties": {"id": "1979393516", "name": "H48", "street": "Hermannstraße 48", "zip-code": 12049.0, "city": "Berlin", "planning-area-id": 8100102}}, {"type": "Feature", "geometry": {"type": "Point", "coordinates": [13.5073396, 52.4948934]}, "properties": {"id": "1984032061", "name": "Jugendclub Betonoase", "street": "", "zip-code": "", "city": "", "planning-area-id": 11401135}}, {"type": "Feature", "geometry": {"type": "Point", "coordinates": [13.4243514, 52.5323202]}, "properties": {"id": "2058457544", "name": "Kaffee Immanet", "street": "Immanuelkirchstraße 8/I", "zip-code": 10405.0, "city": "Berlin", "planning-area-id": 3701659}}, {"type": "Feature", "geometry": {"type": "Point", "coordinates": [13.3598282, 52.533516]}, "properties": {"id": "2061641253", "name": "B-Laden", "street": "Lehrter Straße 30", "zip-code": 10557.0, "city": "Berlin", "planning-area-id": 1200624}}, {"type": "Feature", "geometry": {"type": "Point", "coordinates": [13.3666534, 52.5468526]}, "properties": {"id": "2125027803", "name": "Quartiersmanagement Pankstraße", "street": "Prinz-Eugen-Straße 1", "zip-code": 13347.0, "city": "Berlin", "planning-area-id": 1401043}}, {"type": "Feature", "geometry": {"type": "Point", "coordinates": [13.4211171, 52.6063239]}, "properties": {"id": "2135948949", "name": "Nachbarschaftszentrum Amtshaus Buchholz", "street": "Rosenthaler Weg 32", "zip-code": 13127.0, "city": "Berlin", "planning-area-id": 3200310}}, {"type": "Feature", "geometry": {"type": "Point", "coordinates": [13.3826265, 52.5594987]}, "properties": {"id": "2285840288", "name": "Panke-Haus", "street": "Soldiner Straße 76", "zip-code": 13359.0, "city": "Berlin", "planning-area-id": 1300730}}, {"type": "Feature", "geometry": {"type": "Point", "coordinates": [13.3656044, 52.551674]}, "properties": {"id": "2301610385", "name": "Association des Jeunes Africains et Sympathisants en Allemagne e.V.", "street": "", "zip-code": "", "city": "", "planning-area-id": 1401049}}, {"type": "Feature", "geometry": {"type": "Point", "coordinates": [13.3495626, 52.5239299]}, "properties": {"id": "2302170223", "name": "Polizeisportverein Delphin 1889", "street": "Kirchstraße 24", "zip-code": 10557.0, "city": "Berlin", "planning-area-id": 1200626}}, {"type": "Feature", "geometry": {"type": "Point", "coordinates": [13.3944978, 52.5194238]}, "properties": {"id": "2349327403", "name": "Collegium Hungaricum Berlin", "street": "Dorotheenstraße 12", "zip-code": 10117.0, "city": "Berlin", "planning-area-id": 1100206}}, {"type": "Feature", "geometry": {"type": "Point", "coordinates": [13.4075946, 52.4929721]}, "properties": {"id": "2424240176", "name": "Nachbarschaftshaus Urbanstraße", "street": "Urbanstraße 21", "zip-code": 10961.0, "city": "Berlin", "planning-area-id": 2200210}}, {"type": "Feature", "geometry": {"type": "Point", "coordinates": [13.4566784, 52.5036993]}, "properties": {"id": "2453941446", "name": "Kinderfreizeiteinrichtung \"Die Nische\"", "street": "Rudolfstraße 14a", "zip-code": 10245.0, "city": "Berlin", "planning-area-id": 2500835}}, {"type": "Feature", "geometry": {"type": "Point", "coordinates": [13.4498748, 52.5140118]}, "properties": {"id": "2466026757", "name": "Phantalisa Mädchentreff", "street": "Kadiner Straße 9", "zip-code": 10243.0, "city": "Berlin", "planning-area-id": 2400624}}, {"type": "Feature", "geometry": {"type": "Point", "coordinates": [13.4080249, 52.5314112]}, "properties": {"id": "2477831959", "name": "Stadtteilzentrum Prenzlauer Berg", "street": "Fehrbelliner Straße 92", "zip-code": 10119.0, "city": "Berlin", "planning-area-id": 3701554}}, {"type": "Feature", "geometry": {"type": "Point", "coordinates": [13.3287375, 52.510942]}, "properties": {"id": "2502014633", "name": "Zwille", "street": "Straße des 17. Juni 135", "zip-code": 10623.0, "city": "Berlin", "planning-area-id": 4300622}}, {"type": "Feature", "geometry": {"type": "Point", "coordinates": [13.499949, 52.572545]}, "properties": {"id": "2510436108", "name": "KiFaZ \"Leuchtturm\"", "street": "Am Berl 8", "zip-code": 13051.0, "city": "Berlin", "planning-area-id": 11100307}}, {"type": "Feature", "geometry": {"type": "Point", "coordinates": [13.3527071, 52.4919408]}, "properties": {"id": "2545211461", "name": "Nachbarschafts- und Familienzentrum Kiezoase", "street": "Barbarossastraße 65", "zip-code": 10781.0, "city": "Berlin", "planning-area-id": 7100204}}, {"type": "Feature", "geometry": {"type": "Point", "coordinates": [13.2993257, 52.5095544]}, "properties": {"id": "2669875657", "name": "Kinder- und Familienzentrum Schillerstraße", "street": "Schillerstraße 61-62", "zip-code": 10627.0, "city": "Berlin", "planning-area-id": 4300416}}, {"type": "Feature", "geometry": {"type": "Point", "coordinates": [13.3670511, 52.5481641]}, "properties": {"id": "2683167189", "name": "Scherer 8 Infoladen", "street": "Schererstraße 8", "zip-code": 13347.0, "city": "Berlin", "planning-area-id": 1401043}}, {"type": "Feature", "geometry": {"type": "Point", "coordinates": [13.3171584, 52.5230987]}, "properties": {"id": "2725091329", "name": "SpVgg Tiergarten 58", "street": "Neues Ufer 2", "zip-code": 10553.0, "city": "Berlin", "planning-area-id": 1200517}}, {"type": "Feature", "geometry": {"type": "Point", "coordinates": [13.4421638, 52.516288]}, "properties": {"id": "2733888750", "name": "Alte Feuerwache Kulturhaus Friedrichshain", "street": "", "zip-code": "", "city": "", "planning-area-id": 2400624}}, {"type": "Feature", "geometry": {"type": "Point", "coordinates": [13.334913, 52.5274809]}, "properties": {"id": "2742447826", "name": "DPSG Stamm St. Paulus", "street": "Oldenburger Straße 47", "zip-code": 10551.0, "city": "Berlin", "planning-area-id": 1200519}}, {"type": "Feature", "geometry": {"type": "Point", "coordinates": [13.3384643, 52.4495046]}, "properties": {"id": "2746781111", "name": "Evangelische Markusgemeinde", "street": "Albrechtstraße 81a", "zip-code": 12167.0, "city": "Berlin", "planning-area-id": 6100205}}, {"type": "Feature", "geometry": {"type": "Point", "coordinates": [13.392065, 52.5560608]}, "properties": {"id": "2752211174", "name": "Lecker Wissen", "street": "Grüntaler Straße 72", "zip-code": 13359.0, "city": "Berlin", "planning-area-id": 1300732}}, {"type": "Feature", "geometry": {"type": "Point", "coordinates": [13.4328767, 52.4772767]}, "properties": {"id": "2820325612", "name": "Haus der Begegnung", "street": "Morusstraße 18A", "zip-code": 12053.0, "city": "Berlin", "planning-area-id": 8100207}}, {"type": "Feature", "geometry": {"type": "Point", "coordinates": [13.4292067, 52.4771862]}, "properties": {"id": "2820325661", "name": "MaDonna Mädchentreff", "street": "Falkstraße 26", "zip-code": 12053.0, "city": "Berlin", "planning-area-id": 8100207}}, {"type": "Feature", "geometry": {"type": "Point", "coordinates": [13.4351913, 52.4747529]}, "properties": {"id": "2820325689", "name": "Kinder- und Jugendzentrum Lessinghöhe", "street": "Mittelweg 30", "zip-code": 12053.0, "city": "Berlin", "planning-area-id": 8100207}}, {"type": "Feature", "geometry": {"type": "Point", "coordinates": [13.3440049, 52.5987793]}, "properties": {"id": "2849544101", "name": "Selbsthilfe-Stadtteilzentrum Reinickendorf", "street": "", "zip-code": "", "city": "Berlin", "planning-area-id": 12601134}}, {"type": "Feature", "geometry": {"type": "Point", "coordinates": [13.205852, 52.5388603]}, "properties": {"id": "2853431184", "name": "Gemeindebüro Ev. Kirchengemeinde St. Nikolai", "street": "", "zip-code": "", "city": "", "planning-area-id": 5100316}}, {"type": "Feature", "geometry": {"type": "Point", "coordinates": [13.2135616, 52.5713041]}, "properties": {"id": "2867830669", "name": "", "street": "Niederneuendorfer Allee 30", "zip-code": 13587.0, "city": "Berlin", "planning-area-id": 5100101}}, {"type": "Feature", "geometry": {"type": "Point", "coordinates": [13.1689045, 52.51791]}, "properties": {"id": "2872719794", "name": "Kulturzentrum Staaken", "street": "Sandstraße 41", "zip-code": 13593.0, "city": "Berlin", "planning-area-id": 5200528}}, {"type": "Feature", "geometry": {"type": "Point", "coordinates": [13.3639711, 52.4968743]}, "properties": {"id": "2874686039", "name": "Nachbarschaftszentrum Steinmetzstraße", "street": "Steinmetzstraße 68", "zip-code": 10783.0, "city": "Berlin", "planning-area-id": 7100205}}, {"type": "Feature", "geometry": {"type": "Point", "coordinates": [13.5231008, 52.4781898]}, "properties": {"id": "2886088366", "name": "Potpourri", "street": "Eginhardstraße 9", "zip-code": 10318.0, "city": "Berlin", "planning-area-id": 11501341}}, {"type": "Feature", "geometry": {"type": "Point", "coordinates": [13.3534482, 52.4829447]}, "properties": {"id": "2894923665", "name": "Book Connections", "street": "Prinz-Georg-Straße 10", "zip-code": 10827.0, "city": "Berlin", "planning-area-id": 7200410}}, {"type": "Feature", "geometry": {"type": "Point", "coordinates": [13.3951363, 52.4934454]}, "properties": {"id": "2925991302", "name": "Die Epilog e. V.", "street": "", "zip-code": "", "city": "", "planning-area-id": 2200210}}, {"type": "Feature", "geometry": {"type": "Point", "coordinates": [13.2888431, 52.642074]}, "properties": {"id": "2935650706", "name": "Pfadfinder Frohnau", "street": "Schönfließer Straße 11B", "zip-code": 13465.0, "city": "Berlin", "planning-area-id": 12400721}}, {"type": "Feature", "geometry": {"type": "Point", "coordinates": [13.3494052, 52.5713501]}, "properties": {"id": "2953839038", "name": "Die Arche", "street": "Romanshorner Weg 113", "zip-code": 13407.0, "city": "Berlin", "planning-area-id": 12100205}}, {"type": "Feature", "geometry": {"type": "Point", "coordinates": [13.2870543, 52.5377219]}, "properties": {"id": "2967364834", "name": "Jugendclub Halemweg", "street": "Halemweg 18", "zip-code": 13627.0, "city": "Berlin", "planning-area-id": 4100101}}, {"type": "Feature", "geometry": {"type": "Point", "coordinates": [13.2879049, 52.5186446]}, "properties": {"id": "2967436533", "name": "LiSA Interkultureller Mädchentreff", "street": "Spandauer Damm 65", "zip-code": 14059.0, "city": "Berlin", "planning-area-id": 4300413}}, {"type": "Feature", "geometry": {"type": "Point", "coordinates": [13.3254953, 52.4959594]}, "properties": {"id": "2968390833", "name": "D3 Mädchentreff", "street": "Düsseldorfer Straße 3", "zip-code": 10719.0, "city": "Berlin", "planning-area-id": 4501045}}, {"type": "Feature", "geometry": {"type": "Point", "coordinates": [13.3069398, 52.4934792]}, "properties": {"id": "2968409133", "name": "Jugend- und Kulturzentrum \"Spirale\"", "street": "Westfälische Straße 16 A", "zip-code": 10709.0, "city": "Berlin", "planning-area-id": 4500939}}, {"type": "Feature", "geometry": {"type": "Point", "coordinates": [13.3195254, 52.4948825]}, "properties": {"id": "2968412433", "name": "JugendTechnikSchule City - West - Motorwerkstatt", "street": "Emser Straße 52", "zip-code": 10719.0, "city": "Berlin", "planning-area-id": 4501044}}, {"type": "Feature", "geometry": {"type": "Point", "coordinates": [13.303721, 52.4746176]}, "properties": {"id": "2968414034", "name": "In Side Out Kinder- und Jugendzentrum", "street": "Rudolf-Mosse-Straße 11", "zip-code": 14197.0, "city": "Berlin", "planning-area-id": 4400833}}, {"type": "Feature", "geometry": {"type": "Point", "coordinates": [13.2831037, 52.4863509]}, "properties": {"id": "2968518334", "name": "Seniorenclub", "street": "Herthastraße 25A", "zip-code": 14193.0, "city": "Berlin", "planning-area-id": 4400726}}, {"type": "Feature", "geometry": {"type": "Point", "coordinates": [13.6188701, 52.5372245]}, "properties": {"id": "3021117606", "name": "Stadtteilzentrum Hellersdorf-Ost", "street": "Albert-Kuntz-Straße 42", "zip-code": 12627.0, "city": "Berlin", "planning-area-id": 10200524}}, {"type": "Feature", "geometry": {"type": "Point", "coordinates": [13.4214261, 52.4779147]}, "properties": {"id": "3043349524", "name": ">top", "street": "Schillerpromenade 4", "zip-code": 12049.0, "city": "Berlin", "planning-area-id": 8100102}}, {"type": "Feature", "geometry": {"type": "Point", "coordinates": [13.4439494, 52.4986184]}, "properties": {"id": "3073274852", "name": "Kiezanker 36", "street": "Cuvrystraße 13-14", "zip-code": 10997.0, "city": "Berlin", "planning-area-id": 2300419}}, {"type": "Feature", "geometry": {"type": "Point", "coordinates": [13.3548544, 52.5419063]}, "properties": {"id": "3149431449", "name": "Sprengelhaus", "street": "Sprengelstraße 15", "zip-code": 13353.0, "city": "Berlin", "planning-area-id": 1401046}}, {"type": "Feature", "geometry": {"type": "Point", "coordinates": [13.4647705, 52.5130913]}, "properties": {"id": "3151470261", "name": "FamoX Familien- und Bildungszentrum", "street": "Scharnweberstraße 25", "zip-code": 10247.0, "city": "Berlin", "planning-area-id": 2500831}}, {"type": "Feature", "geometry": {"type": "Point", "coordinates": [13.2195233, 52.5564102]}, "properties": {"id": "3222398571", "name": "Jugendtreff Havelspitze", "street": "", "zip-code": "", "city": "", "planning-area-id": 5100104}}, {"type": "Feature", "geometry": {"type": "Point", "coordinates": [13.2093052, 52.5617249]}, "properties": {"id": "3222407468", "name": "Familienzentrum VillaNova", "street": "", "zip-code": "", "city": "", "planning-area-id": 5100103}}, {"type": "Feature", "geometry": {"type": "Point", "coordinates": [13.4040307, 52.5119999]}, "properties": {"id": "3240152763", "name": "SeniorenComputerClub Berlin-Mitte", "street": "Fischerinsel 10", "zip-code": 10179.0, "city": "Berlin", "planning-area-id": 1100312}}, {"type": "Feature", "geometry": {"type": "Point", "coordinates": [13.5583113, 52.5443534]}, "properties": {"id": "3269393584", "name": "KulturGut Alt-Marzahn", "street": "Alt-Marzahn 23", "zip-code": 12685.0, "city": "Berlin", "planning-area-id": 10100313}}, {"type": "Feature", "geometry": {"type": "Point", "coordinates": [13.4581654, 52.518857]}, "properties": {"id": "3275537568", "name": "Jugendclub Liebig 19", "street": "", "zip-code": "", "city": "", "planning-area-id": 2500727}}, {"type": "Feature", "geometry": {"type": "Point", "coordinates": [13.5823443, 52.4418936]}, "properties": {"id": "3426756293", "name": "Hauptmanns-Klub 103,5", "street": "Wendenschloßstraße 103-105", "zip-code": 12557.0, "city": "Berlin", "planning-area-id": 9401534}}, {"type": "Feature", "geometry": {"type": "Point", "coordinates": [13.4105768, 52.5030829]}, "properties": {"id": "3494395181", "name": "Nachbarschaftsakademie Prinzessinnengarten", "street": "", "zip-code": "", "city": "", "planning-area-id": 2100104}}, {"type": "Feature", "geometry": {"type": "Point", "coordinates": [13.3278031, 52.4688058]}, "properties": {"id": "3570845410", "name": "Holzklasse", "street": "Stubenrauchstraße 73", "zip-code": 12161.0, "city": "Berlin", "planning-area-id": 7300516}}, {"type": "Feature", "geometry": {"type": "Point", "coordinates": [13.5658705, 52.4440035]}, "properties": {"id": "3576749846", "name": "Werner-Sylten-Saal", "street": "", "zip-code": "", "city": "", "planning-area-id": 9200819}}, {"type": "Feature", "geometry": {"type": "Point", "coordinates": [13.5645953, 52.443833]}, "properties": {"id": "3576905957", "name": "Familienzentrum Rudower Straße", "street": "", "zip-code": "", "city": "", "planning-area-id": 9200819}}, {"type": "Feature", "geometry": {"type": "Point", "coordinates": [13.5644695, 52.443802]}, "properties": {"id": "3576905958", "name": "Mehrgenerationenhaus Köpenick", "street": "", "zip-code": "", "city": "", "planning-area-id": 9200819}}, {"type": "Feature", "geometry": {"type": "Point", "coordinates": [13.3449306, 52.4376309]}, "properties": {"id": "3633912243", "name": "Nachbarschaftszentrum Lankwitz", "street": "Leonorenstraße 85", "zip-code": 12247.0, "city": "Berlin", "planning-area-id": 6200313}}, {"type": "Feature", "geometry": {"type": "Point", "coordinates": [13.4461868, 52.4914496]}, "properties": {"id": "3689275512", "name": "Projekt: Laden", "street": "Krüllsstraße 18", "zip-code": 12435.0, "city": "Berlin", "planning-area-id": 9100101}}, {"type": "Feature", "geometry": {"type": "Point", "coordinates": [13.3037132, 52.4745685]}, "properties": {"id": "3722082431", "name": "Familien-Café „Emilie & Rudolf“", "street": "Rudolf-Mosse-Straße 11", "zip-code": 14197.0, "city": "Berlin", "planning-area-id": 4400833}}, {"type": "Feature", "geometry": {"type": "Point", "coordinates": [13.3991863, 52.5077975]}, "properties": {"id": "3754876556", "name": "KiJukuZ - Kinder- und Jugendkulturzentrum", "street": "", "zip-code": "", "city": "", "planning-area-id": 2100103}}, {"type": "Feature", "geometry": {"type": "Point", "coordinates": [13.332332, 52.5268476]}, "properties": {"id": "3758833029", "name": "Club Tiergarten", "street": "Turmstraße 71", "zip-code": 10551.0, "city": "Berlin", "planning-area-id": 1200521}}, {"type": "Feature", "geometry": {"type": "Point", "coordinates": [13.4642808, 52.5278369]}, "properties": {"id": "3795203173", "name": "Nachbarschaftstreff „Quatschtrommel“", "street": "Erich-Kuttner-Straße 31B", "zip-code": 10369.0, "city": "Berlin", "planning-area-id": 11300618}}, {"type": "Feature", "geometry": {"type": "Point", "coordinates": [13.4053118, 52.5380506]}, "properties": {"id": "3901335166", "name": "Freizeithaus am Mauerpark", "street": "Schwedter Straße 234", "zip-code": 10435.0, "city": "Berlin", "planning-area-id": 1100416}}, {"type": "Feature", "geometry": {"type": "Point", "coordinates": [13.4120632, 52.5442128]}, "properties": {"id": "3953895252", "name": "FreiRaum", "street": "Schönhauser Allee 134a", "zip-code": 10437.0, "city": "Berlin", "planning-area-id": 3601142}}, {"type": "Feature", "geometry": {"type": "Point", "coordinates": [13.3644397, 52.4599232]}, "properties": {"id": "3959782327", "name": "cooperativ Werkraum", "street": "Eythstraße 32", "zip-code": 12105.0, "city": "Berlin", "planning-area-id": 7400822}}, {"type": "Feature", "geometry": {"type": "Point", "coordinates": [13.3854387, 52.5236474]}, "properties": {"id": "4006983305", "name": "Institutul Cultural Român Berlin", "street": "Reinhardtstraße 14", "zip-code": 10117.0, "city": "Berlin", "planning-area-id": 1100308}}, {"type": "Feature", "geometry": {"type": "Point", "coordinates": [13.3787518, 52.5587461]}, "properties": {"id": "4061948096", "name": "Frisbee", "street": "Koloniestraße 129", "zip-code": 13359.0, "city": "Berlin", "planning-area-id": 1300730}}, {"type": "Feature", "geometry": {"type": "Point", "coordinates": [13.3789686, 52.5590419]}, "properties": {"id": "4061948099", "name": "Bürgerladen", "street": "Koloniestraße 129", "zip-code": 13359.0, "city": "Berlin", "planning-area-id": 1300730}}, {"type": "Feature", "geometry": {"type": "Point", "coordinates": [13.3790089, 52.5591131]}, "properties": {"id": "4061948100", "name": "Jugend Bildungs- und Freizeitzentrum", "street": "Koloniestraße 129", "zip-code": 13359.0, "city": "Berlin", "planning-area-id": 1300730}}, {"type": "Feature", "geometry": {"type": "Point", "coordinates": [13.4204865, 52.4765857]}, "properties": {"id": "4062921843", "name": "offline", "street": "Lichtenrader Straße 49", "zip-code": 12049.0, "city": "Berlin", "planning-area-id": 8100102}}, {"type": "Feature", "geometry": {"type": "Point", "coordinates": [13.5258372, 52.5120184]}, "properties": {"id": "4066657693", "name": "Falkenburg Lichtenberg", "street": "", "zip-code": "", "city": "", "planning-area-id": 11401033}}, {"type": "Feature", "geometry": {"type": "Point", "coordinates": [13.5254988, 52.5120369]}, "properties": {"id": "4066657694", "name": "Orange Flip", "street": "", "zip-code": "", "city": "", "planning-area-id": 11401033}}, {"type": "Feature", "geometry": {"type": "Point", "coordinates": [13.3807856, 52.4961647]}, "properties": {"id": "4118519689", "name": "Gemeindehaus Ev. Kirchengemeinde", "street": "Wartenburgstraße 7", "zip-code": "", "city": "", "planning-area-id": 2200208}}, {"type": "Feature", "geometry": {"type": "Point", "coordinates": [13.4182474, 52.5007455]}, "properties": {"id": "4123949690", "name": "Mosaik JugendKulturEtage", "street": "Adalbertstraße 95a", "zip-code": "", "city": "", "planning-area-id": 2300314}}, {"type": "Feature", "geometry": {"type": "Point", "coordinates": [13.4345204, 52.4852882]}, "properties": {"id": "4124084430", "name": "Forum Naturfreundejugend Berlin", "street": "Weichselstraße 13", "zip-code": 12045.0, "city": "Berlin", "planning-area-id": 8100312}}, {"type": "Feature", "geometry": {"type": "Point", "coordinates": [13.3786185, 52.5520104]}, "properties": {"id": "4133751506", "name": "Nachbarschaftsladen Initiative Buttmann 16", "street": "Buttmannstraße 16", "zip-code": 13357.0, "city": "Berlin", "planning-area-id": 1401044}}, {"type": "Feature", "geometry": {"type": "Point", "coordinates": [13.3869215, 52.5532448]}, "properties": {"id": "4139471189", "name": "Bereket Kulturgemeinschaft", "street": "Bellermannstraße 84", "zip-code": 13357.0, "city": "Berlin", "planning-area-id": 1300733}}, {"type": "Feature", "geometry": {"type": "Point", "coordinates": [13.2787156, 52.4384747]}, "properties": {"id": "4192128590", "name": "Nachbarschaftshaus Wannseebahn", "street": "Mörchinger Straße 49", "zip-code": 14169.0, "city": "Berlin", "planning-area-id": 6300527}}, {"type": "Feature", "geometry": {"type": "Point", "coordinates": [13.2662272, 52.4132443]}, "properties": {"id": "4192147089", "name": "Mehrgenerationenhaus Phönix (Mittelhof)", "street": "Teltower Damm 228", "zip-code": 14167.0, "city": "Berlin", "planning-area-id": 6300528}}, {"type": "Feature", "geometry": {"type": "Point", "coordinates": [13.269936, 52.5356795]}, "properties": {"id": "4211371287", "name": "Familienzentrum Rohrdamm", "street": "Voltastraße 2", "zip-code": 13629.0, "city": "Berlin", "planning-area-id": 5300841}}, {"type": "Feature", "geometry": {"type": "Point", "coordinates": [13.4508353, 52.5126108]}, "properties": {"id": "4223529190", "name": "attac-treff", "street": "Grünberger Straße 24", "zip-code": 10243.0, "city": "Berlin", "planning-area-id": 2400624}}, {"type": "Feature", "geometry": {"type": "Point", "coordinates": [13.3907944, 52.5270406]}, "properties": {"id": "4261575764", "name": "Haba Digitalwerkstatt", "street": "Linienstraße 121", "zip-code": 10115.0, "city": "Berlin", "planning-area-id": 1100309}}, {"type": "Feature", "geometry": {"type": "Point", "coordinates": [13.5448531, 52.5426077]}, "properties": {"id": "4309104290", "name": "Bürgeramt Marzahn-Hellersdorf", "street": "Marzahner Promenade 11", "zip-code": "", "city": "", "planning-area-id": 10100210}}, {"type": "Feature", "geometry": {"type": "Point", "coordinates": [13.2292851, 52.4429426]}, "properties": {"id": "4367410106", "name": "Seniorentagespflegestätte", "street": "Limastraße 32", "zip-code": 14163.0, "city": "Berlin", "planning-area-id": 6400838}}, {"type": "Feature", "geometry": {"type": "Point", "coordinates": [13.3945684, 52.497389]}, "properties": {"id": "4384397295", "name": "Dersim Kulturgemeinde Berlin", "street": "Waterloo-Ufer 5-7", "zip-code": 10961.0, "city": "Berlin", "planning-area-id": 2200210}}, {"type": "Feature", "geometry": {"type": "Point", "coordinates": [13.4570082, 52.5038683]}, "properties": {"id": "4408842100", "name": "Familienzentrum FUN", "street": "Modersohnstraße 46", "zip-code": 10245.0, "city": "Berlin", "planning-area-id": 2500835}}, {"type": "Feature", "geometry": {"type": "Point", "coordinates": [13.3507614, 52.5474828]}, "properties": {"id": "4413733893", "name": "Lebenshilfe Berlin", "street": "", "zip-code": "", "city": "", "planning-area-id": 1400942}}, {"type": "Feature", "geometry": {"type": "Point", "coordinates": [13.6037181, 52.5390345]}, "properties": {"id": "4415208386", "name": "LINKEN TREFF", "street": "Henny-Porten-Straße 10-12", "zip-code": 12627.0, "city": "Berlin", "planning-area-id": 10200421}}, {"type": "Feature", "geometry": {"type": "Point", "coordinates": [13.356108, 52.5509108]}, "properties": {"id": "4440236589", "name": "Abdul Hamid", "street": "Turiner Straße 41", "zip-code": 13347.0, "city": "Berlin", "planning-area-id": 1401048}}, {"type": "Feature", "geometry": {"type": "Point", "coordinates": [13.4546129, 52.5210428]}, "properties": {"id": "4565595671", "name": "Die Arche", "street": "Mühsamstraße 74", "zip-code": 10249.0, "city": "Berlin", "planning-area-id": 2500726}}, {"type": "Feature", "geometry": {"type": "Point", "coordinates": [13.3329738, 52.5289396]}, "properties": {"id": "4672096216", "name": "Offenes Wohnzimmer", "street": "Waldenserstraße 13", "zip-code": 10551.0, "city": "Berlin", "planning-area-id": 1200519}}, {"type": "Feature", "geometry": {"type": "Point", "coordinates": [13.5727216, 52.5260386]}, "properties": {"id": "4755868012", "name": "Kinder- und Jugendhaus an der Wuhle", "street": "", "zip-code": "", "city": "", "planning-area-id": 10300732}}, {"type": "Feature", "geometry": {"type": "Point", "coordinates": [13.4659668, 52.5113046]}, "properties": {"id": "4821083847", "name": "Synirgetik", "street": "Jungstraße 26", "zip-code": 10247.0, "city": "", "planning-area-id": 2500831}}, {"type": "Feature", "geometry": {"type": "Point", "coordinates": [13.400323, 52.5658369]}, "properties": {"id": "4841807515", "name": "JUP e.V.", "street": "Florastraße 84", "zip-code": 13187.0, "city": "Berlin", "planning-area-id": 3400721}}, {"type": "Feature", "geometry": {"type": "Point", "coordinates": [13.4157005, 52.5106523]}, "properties": {"id": "4870100553", "name": "dialog 101", "street": "Köpenicker Straße 101", "zip-code": 10179.0, "city": "Berlin", "planning-area-id": 1100312}}, {"type": "Feature", "geometry": {"type": "Point", "coordinates": [13.3962334, 52.5419107]}, "properties": {"id": "4910789091", "name": "Kinder- und Jugendbereich im Olof-Palme-Zentrum", "street": "Demminer Straße 28", "zip-code": 13355.0, "city": "Berlin", "planning-area-id": 1300834}}, {"type": "Feature", "geometry": {"type": "Point", "coordinates": [13.3960799, 52.5418752]}, "properties": {"id": "4910789092", "name": "Nachbarschaftstreff im Olof-Palme-Zentrum", "street": "Demminer Straße 28", "zip-code": 13355.0, "city": "Berlin", "planning-area-id": 1300834}}, {"type": "Feature", "geometry": {"type": "Point", "coordinates": [13.4961132, 52.5082304]}, "properties": {"id": "4937393975", "name": "Abteilung-für-Redundanz-Abteilung", "street": "Margaretenstraße 30", "zip-code": 10317.0, "city": "Berlin", "planning-area-id": 11400929}}, {"type": "Feature", "geometry": {"type": "Point", "coordinates": [13.2628017, 52.5160728]}, "properties": {"id": "4948142722", "name": "Cantate Kinder-und Jugendchor", "street": "Ratzeburger Allee 4", "zip-code": "", "city": "", "planning-area-id": 4200308}}, {"type": "Feature", "geometry": {"type": "Point", "coordinates": [13.3145394, 52.4983903]}, "properties": {"id": "4995422412", "name": "Schachschule", "street": "Bayerische Straße 32", "zip-code": 10707.0, "city": "Berlin", "planning-area-id": 4501043}}, {"type": "Feature", "geometry": {"type": "Point", "coordinates": [13.4125069, 52.4887485]}, "properties": {"id": "4998526566", "name": "GraefeKids", "street": "Hasenheide 44", "zip-code": 10967.0, "city": "Berlin", "planning-area-id": 2200212}}, {"type": "Feature", "geometry": {"type": "Point", "coordinates": [13.4235452, 52.5037183]}, "properties": {"id": "5051931215", "name": "Heart of Code", "street": "Mariannenplatz 2 A", "zip-code": 10997.0, "city": "Berlin", "planning-area-id": 2300314}}, {"type": "Feature", "geometry": {"type": "Point", "coordinates": [13.3388978, 52.5985966]}, "properties": {"id": "5101437202", "name": "GESOBAU-Familientreff", "street": "", "zip-code": "", "city": "", "planning-area-id": 12601134}}, {"type": "Feature", "geometry": {"type": "Point", "coordinates": [13.4934572, 52.5120533]}, "properties": {"id": "5115664021", "name": "FLIBB - Familienbegegnungsstätte Lichtenberger Brücke Berlin", "street": "Frankfurter Allee 219", "zip-code": 10365.0, "city": "Berlin", "planning-area-id": 11300725}}, {"type": "Feature", "geometry": {"type": "Point", "coordinates": [13.2641351, 52.4960485]}, "properties": {"id": "5161686114", "name": "Haus Eichkamp", "street": "Zikadenweg 42A", "zip-code": 14055.0, "city": "Berlin", "planning-area-id": 4200207}}, {"type": "Feature", "geometry": {"type": "Point", "coordinates": [13.3911366, 52.5290059]}, "properties": {"id": "5176100544", "name": "Evangelische Studierendengemeinde Berlin", "street": "Borsigstraße 5", "zip-code": 10115.0, "city": "Berlin", "planning-area-id": 1100415}}, {"type": "Feature", "geometry": {"type": "Point", "coordinates": [13.4070548, 52.5500389]}, "properties": {"id": "5176130920", "name": "Katholische Studierendengemeinde Edith Stein Berlin", "street": "Dänenstraße 17-18", "zip-code": 10439.0, "city": "Berlin", "planning-area-id": 3601141}}, {"type": "Feature", "geometry": {"type": "Point", "coordinates": [13.3902561, 52.4835273]}, "properties": {"id": "5211079182", "name": "Potse", "street": "", "zip-code": "", "city": "", "planning-area-id": 7400721}}, {"type": "Feature", "geometry": {"type": "Point", "coordinates": [13.3681683, 52.5690616]}, "properties": {"id": "5216737648", "name": "Familien- und Bildungszentrum", "street": "", "zip-code": "", "city": "", "planning-area-id": 12100102}}, {"type": "Feature", "geometry": {"type": "Point", "coordinates": [13.3738857, 52.570335]}, "properties": {"id": "5216905596", "name": "Kinder- und Familienzentrum KreativFabrik", "street": "", "zip-code": "", "city": "", "planning-area-id": 12100102}}, {"type": "Feature", "geometry": {"type": "Point", "coordinates": [13.392888, 52.528111]}, "properties": {"id": "5327404041", "name": "Begegnungsstätte „Mehr Mitte“", "street": "Torstraße 190", "zip-code": 10115.0, "city": "Berlin", "planning-area-id": 1100309}}, {"type": "Feature", "geometry": {"type": "Point", "coordinates": [13.411653, 52.5509919]}, "properties": {"id": "5328117936", "name": "Blaugold", "street": "", "zip-code": "", "city": "", "planning-area-id": 3601141}}, {"type": "Feature", "geometry": {"type": "Point", "coordinates": [13.4538652, 52.5078949]}, "properties": {"id": "5406827106", "name": "Drop In", "street": "Revaler Straße 99", "zip-code": 10245.0, "city": "Berlin", "planning-area-id": 2500834}}, {"type": "Feature", "geometry": {"type": "Point", "coordinates": [13.3216184, 52.5633588]}, "properties": {"id": "5433698122", "name": "Bosniakische Gemeinde IKRE Berlin e.V.", "street": "Meteorstraße 30", "zip-code": 13405.0, "city": "Berlin", "planning-area-id": 12200411}}, {"type": "Feature", "geometry": {"type": "Point", "coordinates": [13.4275736, 52.5247994]}, "properties": {"id": "5457409366", "name": "Schülerladen 0-35", "street": "", "zip-code": "", "city": "", "planning-area-id": 2400520}}, {"type": "Feature", "geometry": {"type": "Point", "coordinates": [13.4959551, 52.632509]}, "properties": {"id": "5460524479", "name": "Familienzentrum im Bucher Bürgerhaus", "street": "Franz-Schmidt-Straße 8-10", "zip-code": 13125.0, "city": "Berlin", "planning-area-id": 3100103}}, {"type": "Feature", "geometry": {"type": "Point", "coordinates": [13.5451045, 52.5223573]}, "properties": {"id": "5477481522", "name": "Bürgerhaus Südspitze", "street": "Marchwitzastraße 24-26", "zip-code": 12681.0, "city": "Berlin", "planning-area-id": 10100312}}, {"type": "Feature", "geometry": {"type": "Point", "coordinates": [13.3012958, 52.522594]}, "properties": {"id": "5503181815", "name": "DorfwerkStadt", "street": "", "zip-code": "", "city": "", "planning-area-id": 4300518}}, {"type": "Feature", "geometry": {"type": "Point", "coordinates": [13.3524326, 52.6051674]}, "properties": {"id": "5540916960", "name": "Ribbeckhaus", "street": "", "zip-code": 13435.0, "city": "Berlin", "planning-area-id": 12601134}}, {"type": "Feature", "geometry": {"type": "Point", "coordinates": [13.3542278, 52.6045857]}, "properties": {"id": "5541049583", "name": "comX", "street": "", "zip-code": "", "city": "", "planning-area-id": 12601134}}, {"type": "Feature", "geometry": {"type": "Point", "coordinates": [13.3690913, 52.498535]}, "properties": {"id": "5562025232", "name": "MediationsZentrum Berlin", "street": "Dennewitzstraße 34", "zip-code": 10783.0, "city": "Berlin", "planning-area-id": 7100205}}, {"type": "Feature", "geometry": {"type": "Point", "coordinates": [13.4515786, 52.4972103]}, "properties": {"id": "5618342957", "name": "Alpha Nova-Kulturwerkstatt", "street": "Am Flutgraben 3", "zip-code": 12435.0, "city": "Berlin", "planning-area-id": 9100101}}, {"type": "Feature", "geometry": {"type": "Point", "coordinates": [13.3992795, 52.5252379]}, "properties": {"id": "5638166422", "name": "Kieztreff Koepjohann", "street": "Große Hamburger Straße 29", "zip-code": 10115.0, "city": "Berlin", "planning-area-id": 1100309}}, {"type": "Feature", "geometry": {"type": "Point", "coordinates": [13.4602707, 52.5087918]}, "properties": {"id": "5642587147", "name": "WühlischVierzig", "street": "Wühlischstraße 40", "zip-code": 10245.0, "city": "Berlin", "planning-area-id": 2500834}}, {"type": "Feature", "geometry": {"type": "Point", "coordinates": [13.4475702, 52.499666]}, "properties": {"id": "5650394474", "name": "Native Space", "street": "Schlesische Straße 30", "zip-code": 10997.0, "city": "Berlin", "planning-area-id": 2300419}}, {"type": "Feature", "geometry": {"type": "Point", "coordinates": [13.4105417, 52.5249538]}, "properties": {"id": "5656522303", "name": "Alex-Treff", "street": "Rosa-Luxemburg-Straße 18", "zip-code": 10178.0, "city": "Berlin", "planning-area-id": 1100310}}, {"type": "Feature", "geometry": {"type": "Point", "coordinates": [13.3723665, 52.5442817]}, "properties": {"id": "5656867079", "name": "Das Baumhaus", "street": "Gerichtstraße 23", "zip-code": 13347.0, "city": "Berlin", "planning-area-id": 1300836}}, {"type": "Feature", "geometry": {"type": "Point", "coordinates": [13.2928884, 52.6443638]}, "properties": {"id": "5744960563", "name": "Verein für deutsche Schäferhunde", "street": "Senheimer Straße 63", "zip-code": 13465.0, "city": "Berlin", "planning-area-id": 12400721}}, {"type": "Feature", "geometry": {"type": "Point", "coordinates": [13.2928026, 52.6448252]}, "properties": {"id": "5744960564", "name": "Nord-Berliner Schützengemeinschaft", "street": "Senheimer Straße 65", "zip-code": 13465.0, "city": "Berlin", "planning-area-id": 12400721}}, {"type": "Feature", "geometry": {"type": "Point", "coordinates": [13.4526864, 52.5480931]}, "properties": {"id": "5776480383", "name": "FiPP-Nische & Freiraum", "street": "Mahlerstraße 6", "zip-code": 13088.0, "city": "Berlin", "planning-area-id": 3500936}}, {"type": "Feature", "geometry": {"type": "Point", "coordinates": [13.4496421, 52.5524168]}, "properties": {"id": "5776480384", "name": "", "street": "Mirbachplatz 2", "zip-code": 13086.0, "city": "Berlin", "planning-area-id": 3500935}}, {"type": "Feature", "geometry": {"type": "Point", "coordinates": [13.3230836, 52.5708546]}, "properties": {"id": "5822983332", "name": "Familienzentrum", "street": "", "zip-code": "", "city": "", "planning-area-id": 12200308}}, {"type": "Feature", "geometry": {"type": "Point", "coordinates": [13.4096317, 52.499956]}, "properties": {"id": "5942608061", "name": "Kiezstube", "street": "Bergfriedstraße 24", "zip-code": 10969.0, "city": "Berlin", "planning-area-id": 2100105}}, {"type": "Feature", "geometry": {"type": "Point", "coordinates": [13.4057303, 52.5004427]}, "properties": {"id": "5943612601", "name": "MehrGenerationenHaus Wassertor 48", "street": "Wassertorstraße 48", "zip-code": 10969.0, "city": "Berlin", "planning-area-id": 2100105}}, {"type": "Feature", "geometry": {"type": "Point", "coordinates": [13.3913416, 52.4639097]}, "properties": {"id": "5965706613", "name": "Evangelisches Familienzentrum Tempelhof", "street": "Götzstraße 24A", "zip-code": 12099.0, "city": "Berlin", "planning-area-id": 7400927}}, {"type": "Feature", "geometry": {"type": "Point", "coordinates": [13.4182309, 52.5006835]}, "properties": {"id": "5979153480", "name": "Kotti Nachbarschaftsladen", "street": "Adalbertstraße 95a", "zip-code": 10999.0, "city": "Berlin", "planning-area-id": 2300314}}, {"type": "Feature", "geometry": {"type": "Point", "coordinates": [13.2036469, 52.5487381]}, "properties": {"id": "5997709682", "name": "Quartiersmanagement Spandauer Neustadt", "street": "Lynarstraße 13", "zip-code": 13585.0, "city": "Berlin", "planning-area-id": 5100314}}, {"type": "Feature", "geometry": {"type": "Point", "coordinates": [13.3397439, 52.5331372]}, "properties": {"id": "5999836042", "name": "Schulgarten Moabit", "street": "Birkenstraße 35", "zip-code": 10551.0, "city": "Berlin", "planning-area-id": 1200520}}, {"type": "Feature", "geometry": {"type": "Point", "coordinates": [13.4341148, 52.5329708]}, "properties": {"id": "6004791099", "name": "Jugendfreizeiteinrichtung TwentyTwo", "street": "Pasteurstraße 22", "zip-code": 10407.0, "city": "Berlin", "planning-area-id": 3701660}}, {"type": "Feature", "geometry": {"type": "Point", "coordinates": [13.5227041, 52.4810822]}, "properties": {"id": "6007361436", "name": "iKarus Stadtteilzentrum", "street": "Wandlitzstraße 13", "zip-code": 10318.0, "city": "Berlin", "planning-area-id": 11501341}}, {"type": "Feature", "geometry": {"type": "Point", "coordinates": [13.3164483, 52.4390033]}, "properties": {"id": "6009480985", "name": "Gutshaus Lichterfelde", "street": "Hindenburgdamm 28", "zip-code": 12203.0, "city": "Berlin", "planning-area-id": 6300630}}, {"type": "Feature", "geometry": {"type": "Point", "coordinates": [13.2939823, 52.5148601]}, "properties": {"id": "6009529788", "name": "Interkulturelles Stadtteilzentrum Divan", "street": "Nehringstraße 8", "zip-code": 14059.0, "city": "Berlin", "planning-area-id": 4300413}}, {"type": "Feature", "geometry": {"type": "Point", "coordinates": [13.3823736, 52.4541455]}, "properties": {"id": "6009713687", "name": "Nachbarschaftszentrum ufafabrik", "street": "Viktoriastraße 13", "zip-code": 12105.0, "city": "Berlin", "planning-area-id": 7400825}}, {"type": "Feature", "geometry": {"type": "Point", "coordinates": [13.3465515, 52.5538704]}, "properties": {"id": "6010004388", "name": "Zukunftshaus Wedding", "street": "Müllerstraße 56-58", "zip-code": 13349.0, "city": "Berlin", "planning-area-id": 1400939}}, {"type": "Feature", "geometry": {"type": "Point", "coordinates": [13.4605615, 52.513759]}, "properties": {"id": "6047114973", "name": "Mieterladen", "street": "Kreutzigerstraße 23", "zip-code": 10247.0, "city": "Berlin", "planning-area-id": 2500830}}, {"type": "Feature", "geometry": {"type": "Point", "coordinates": [13.4250739, 52.4915522]}, "properties": {"id": "6047505886", "name": "elele Nachbarschaftszentrum", "street": "Hobrechtstraße 55", "zip-code": 12047.0, "city": "Berlin", "planning-area-id": 8100310}}, {"type": "Feature", "geometry": {"type": "Point", "coordinates": [13.4955388, 52.5016057]}, "properties": {"id": "6051508136", "name": "Piekfeiner Laden", "street": "", "zip-code": "", "city": "", "planning-area-id": 11400929}}, {"type": "Feature", "geometry": {"type": "Point", "coordinates": [13.371945, 52.4852172]}, "properties": {"id": "6053037463", "name": "HaiWays", "street": "Dudenstraße 92", "zip-code": 10965.0, "city": "Berlin", "planning-area-id": 7200414}}, {"type": "Feature", "geometry": {"type": "Point", "coordinates": [13.4799196, 52.4990431]}, "properties": {"id": "6121262957", "name": "", "street": "", "zip-code": "", "city": "", "planning-area-id": 11501238}}, {"type": "Feature", "geometry": {"type": "Point", "coordinates": [13.5054952, 52.5649583]}, "properties": {"id": "6123185385", "name": "360 Grad – Raum für Kreativität", "street": "Prerower Platz 10", "zip-code": 13051.0, "city": "", "planning-area-id": 11100307}}, {"type": "Feature", "geometry": {"type": "Point", "coordinates": [13.4914566, 52.5025579]}, "properties": {"id": "6170802013", "name": "Der Anker", "street": "", "zip-code": "", "city": "", "planning-area-id": 11400929}}, {"type": "Feature", "geometry": {"type": "Point", "coordinates": [13.2256736, 52.5837914]}, "properties": {"id": "6220403128", "name": "Conrads", "street": "", "zip-code": "", "city": "", "planning-area-id": 12400616}}, {"type": "Feature", "geometry": {"type": "Point", "coordinates": [13.4258018, 52.5324135]}, "properties": {"id": "6268474916", "name": "Ludothek", "street": "Immanuelkirchstraße 24", "zip-code": 10405.0, "city": "Berlin", "planning-area-id": 3701659}}, {"type": "Feature", "geometry": {"type": "Point", "coordinates": [13.325568, 52.5100723]}, "properties": {"id": "6274128110", "name": "Freiraum - Veranstaltungssaal", "street": "Hardenbergstraße 35", "zip-code": 10623.0, "city": "Berlin", "planning-area-id": 4300622}}, {"type": "Feature", "geometry": {"type": "Point", "coordinates": [13.4138808, 52.5686386]}, "properties": {"id": "6278664678", "name": "Garage Pankow", "street": "Hadlichstraße 3", "zip-code": 13187.0, "city": "Berlin", "planning-area-id": 3400723}}, {"type": "Feature", "geometry": {"type": "Point", "coordinates": [13.5339537, 52.3998602]}, "properties": {"id": "6286848277", "name": "Adlershofer Füchse", "street": "Kirschweg 23", "zip-code": 12524.0, "city": "Berlin", "planning-area-id": 9300923}}, {"type": "Feature", "geometry": {"type": "Point", "coordinates": [13.5140691, 52.4634945]}, "properties": {"id": "6345559414", "name": "Familienschutzwerk", "street": "Edisonstraße 14", "zip-code": 12459.0, "city": "Berlin", "planning-area-id": 9200511}}, {"type": "Feature", "geometry": {"type": "Point", "coordinates": [13.3341304, 52.5222975]}, "properties": {"id": "6354892103", "name": "Dünja", "street": "Jagowstraße 12", "zip-code": 10555.0, "city": "Berlin", "planning-area-id": 1200522}}, {"type": "Feature", "geometry": {"type": "Point", "coordinates": [13.5193811, 52.5666416]}, "properties": {"id": "6371252634", "name": "Begegnungsstätte Warnitzer Bogen", "street": "Warnitzer Straße 8", "zip-code": 13057.0, "city": "Berlin", "planning-area-id": 11100204}}, {"type": "Feature", "geometry": {"type": "Point", "coordinates": [13.5188001, 52.5672837]}, "properties": {"id": "6371252637", "name": "Benn Hohenschönhausen Nord", "street": "Warnitzer Straße 14", "zip-code": 13057.0, "city": "Berlin", "planning-area-id": 11100204}}, {"type": "Feature", "geometry": {"type": "Point", "coordinates": [13.6261985, 52.4555101]}, "properties": {"id": "6388113367", "name": "Spielhaus", "street": "Bölschestraße 65", "zip-code": 12587.0, "city": "Berlin", "planning-area-id": 9501737}}, {"type": "Feature", "geometry": {"type": "Point", "coordinates": [13.1481028, 52.417973]}, "properties": {"id": "6392594782", "name": "Jugendfreizeitheim Wannsee", "street": "", "zip-code": "", "city": "", "planning-area-id": 6400735}}, {"type": "Feature", "geometry": {"type": "Point", "coordinates": [13.4140937, 52.5028152]}, "properties": {"id": "6401896135", "name": "Bilgisaray", "street": "Oranienstraße 45", "zip-code": "", "city": "", "planning-area-id": 2100104}}, {"type": "Feature", "geometry": {"type": "Point", "coordinates": [13.5072642, 52.4947068]}, "properties": {"id": "6403695527", "name": "Berliner Familienfreunde e.V.", "street": "", "zip-code": "", "city": "", "planning-area-id": 11401135}}, {"type": "Feature", "geometry": {"type": "Point", "coordinates": [13.2662454, 52.5363004]}, "properties": {"id": "6443850889", "name": "Stadtteilzentrum Siemensstadt", "street": "Wattstraße 13", "zip-code": 13629.0, "city": "Berlin", "planning-area-id": 5300841}}, {"type": "Feature", "geometry": {"type": "Point", "coordinates": [13.2655341, 52.5379938]}, "properties": {"id": "6443877419", "name": "Schülerhaus Schule an der Jungfernheide", "street": "Jugendweg 15", "zip-code": 13629.0, "city": "Berlin", "planning-area-id": 5300841}}, {"type": "Feature", "geometry": {"type": "Point", "coordinates": [13.2660457, 52.5359596]}, "properties": {"id": "6448302624", "name": "CharlotteTreff Siemensstadt", "street": "Wattstraße 14", "zip-code": 13629.0, "city": "Berlin", "planning-area-id": 5300841}}, {"type": "Feature", "geometry": {"type": "Point", "coordinates": [13.5261918, 52.403064]}, "properties": {"id": "6482938222", "name": "Kiezladen der Möglichkeiten - WAMA", "street": "Ortolfstraße 206 B", "zip-code": 12524.0, "city": "Berlin", "planning-area-id": 9300922}}, {"type": "Feature", "geometry": {"type": "Point", "coordinates": [13.4243386, 52.5090676]}, "properties": {"id": "6488130826", "name": "WikiBär", "street": "Köpenicker Straße 45", "zip-code": "", "city": "Berlin", "planning-area-id": 1100313}}, {"type": "Feature", "geometry": {"type": "Point", "coordinates": [13.4213838, 52.5429233]}, "properties": {"id": "6503739857", "name": "Kiezladen Zusammenhalt", "street": "Dunckerstraße 14", "zip-code": 10437.0, "city": "Berlin", "planning-area-id": 3601348}}, {"type": "Feature", "geometry": {"type": "Point", "coordinates": [13.4487495, 52.5233952]}, "properties": {"id": "6545113859", "name": "Braufreunde Berlin", "street": "Petersburger Straße 30", "zip-code": 10249.0, "city": "Berlin", "planning-area-id": 2400522}}, {"type": "Feature", "geometry": {"type": "Point", "coordinates": [13.3439617, 52.4394165]}, "properties": {"id": "6594012779", "name": "Spiel & Action", "street": "Leonorenstraße 65", "zip-code": 12247.0, "city": "Berlin", "planning-area-id": 6200313}}, {"type": "Feature", "geometry": {"type": "Point", "coordinates": [13.2675681, 52.517968]}, "properties": {"id": "6656962856", "name": "Ulme 35", "street": "Ulmenallee 35", "zip-code": 14050.0, "city": "Berlin", "planning-area-id": 4200308}}, {"type": "Feature", "geometry": {"type": "Point", "coordinates": [13.4971205, 52.5436761]}, "properties": {"id": "6750045986", "name": "Bürgertreff Gemeinsam im Kiez leben", "street": "Schöneicher Straße 10a", "zip-code": 13055.0, "city": "Berlin", "planning-area-id": 11200513}}, {"type": "Feature", "geometry": {"type": "Point", "coordinates": [13.5793944, 52.4546904]}, "properties": {"id": "6792898530", "name": "Rabenhaus", "street": "Puchanstraße 9", "zip-code": 12555.0, "city": "Berlin", "planning-area-id": 9501940}}, {"type": "Feature", "geometry": {"type": "Point", "coordinates": [13.5780654, 52.4157665]}, "properties": {"id": "6792931312", "name": "BürgerZentrum Grünau", "street": "Wassersportallee 34", "zip-code": 12527.0, "city": "Berlin", "planning-area-id": 9301126}}, {"type": "Feature", "geometry": {"type": "Point", "coordinates": [13.3619362, 52.5004394]}, "properties": {"id": "6873175597", "name": "Village.Berlin", "street": "Kurfürstenstraße 31-32", "zip-code": 10785.0, "city": "Berlin", "planning-area-id": 1100103}}, {"type": "Feature", "geometry": {"type": "Point", "coordinates": [13.4440503, 52.5345187]}, "properties": {"id": "7016493154", "name": "SelbstHilfeInitiative Alleinerziehender", "street": "Rudolf-Schwarz-Straße 31", "zip-code": 10407.0, "city": "Berlin", "planning-area-id": 3601451}}, {"type": "Feature", "geometry": {"type": "Point", "coordinates": [13.4265514, 52.4900596]}, "properties": {"id": "7040641834", "name": "HOPE Seniorenzentrum", "street": "Hobrechtstraße 23", "zip-code": 12047.0, "city": "Berlin", "planning-area-id": 8100311}}, {"type": "Feature", "geometry": {"type": "Point", "coordinates": [13.3605147, 52.4880461]}, "properties": {"id": "7040812121", "name": "Stadtteilverein Schöneberg", "street": "", "zip-code": "", "city": "", "planning-area-id": 7200411}}, {"type": "Feature", "geometry": {"type": "Point", "coordinates": [13.3528296, 52.5481925]}, "properties": {"id": "7044489003", "name": "Dock Nord", "street": "Genter Straße 56", "zip-code": 13353.0, "city": "Berlin", "planning-area-id": 1400942}}, {"type": "Feature", "geometry": {"type": "Point", "coordinates": [13.4515738, 52.5111324]}, "properties": {"id": "7046289200", "name": "Stadtteilbüro Friedrichshain", "street": "Warschauer Straße 23", "zip-code": 10243.0, "city": "Berlin", "planning-area-id": 2400624}}, {"type": "Feature", "geometry": {"type": "Point", "coordinates": [13.3885778, 52.4838796]}, "properties": {"id": "7051810628", "name": "CityLab Berlin", "street": "Platz der Luftbrücke 4", "zip-code": 12101.0, "city": "Berlin", "planning-area-id": 7400721}}, {"type": "Feature", "geometry": {"type": "Point", "coordinates": [13.3501922, 52.4793629]}, "properties": {"id": "7093538188", "name": "Flipperklub", "street": "", "zip-code": "", "city": "", "planning-area-id": 7200308}}, {"type": "Feature", "geometry": {"type": "Point", "coordinates": [13.3587153, 52.4861692]}, "properties": {"id": "7115476085", "name": "Neuraum", "street": "Herbertstraße 11", "zip-code": 10827.0, "city": "Berlin", "planning-area-id": 7200410}}, {"type": "Feature", "geometry": {"type": "Point", "coordinates": [13.3380141, 52.5517747]}, "properties": {"id": "7137165620", "name": "Kiezhaus Agnes Reinhold", "street": "Afrikanische Straße 74", "zip-code": 13351.0, "city": "Berlin", "planning-area-id": 1400937}}, {"type": "Feature", "geometry": {"type": "Point", "coordinates": [13.2873899, 52.5376949]}, "properties": {"id": "7166369049", "name": "Stadtteilzentrum Charlottenburg-Nord", "street": "Halemweg 18", "zip-code": 13627.0, "city": "Berlin", "planning-area-id": 4100101}}, {"type": "Feature", "geometry": {"type": "Point", "coordinates": [13.4312409, 52.4825215]}, "properties": {"id": "7183484798", "name": "Studio 58", "street": "Karl-Marx-Straße 58", "zip-code": 12043.0, "city": "Berlin", "planning-area-id": 8100206}}, {"type": "Feature", "geometry": {"type": "Point", "coordinates": [13.4249362, 52.4898934]}, "properties": {"id": "7217344299", "name": "Rückenwind", "street": "Lenaustraße 3", "zip-code": 12047.0, "city": "Berlin", "planning-area-id": 8100311}}, {"type": "Feature", "geometry": {"type": "Point", "coordinates": [13.4216589, 52.5431947]}, "properties": {"id": "7272758325", "name": "Popel Bühne", "street": "Dunckerstraße 16", "zip-code": 10437.0, "city": "Berlin", "planning-area-id": 3601348}}, {"type": "Feature", "geometry": {"type": "Point", "coordinates": [13.4215681, 52.5436786]}, "properties": {"id": "7274596652", "name": "Herbstlaube", "street": "Dunckerstraße 76", "zip-code": 10437.0, "city": "Berlin", "planning-area-id": 3601347}}, {"type": "Feature", "geometry": {"type": "Point", "coordinates": [13.420476, 52.5466087]}, "properties": {"id": "7280475195", "name": "SportJugendZentrum Lychi", "street": "Lychener Straße 75", "zip-code": 10437.0, "city": "Berlin", "planning-area-id": 3601347}}, {"type": "Feature", "geometry": {"type": "Point", "coordinates": [13.3160721, 52.425731]}, "properties": {"id": "7360170359", "name": "Kommunikationszentrum", "street": "Ostpreußendamm 52", "zip-code": 12207.0, "city": "Berlin", "planning-area-id": 6200421}}, {"type": "Feature", "geometry": {"type": "Point", "coordinates": [13.3914312, 52.5471323]}, "properties": {"id": "7426914624", "name": "TimeOut", "street": "Putbusser Straße 28", "zip-code": 13355.0, "city": "Berlin", "planning-area-id": 1300834}}, {"type": "Feature", "geometry": {"type": "Point", "coordinates": [13.367664, 52.486245]}, "properties": {"id": "7528948673", "name": "Interkulturelles Haus Schöneberg", "street": "Geßlerstraße 11", "zip-code": "", "city": "", "planning-area-id": 7200414}}, {"type": "Feature", "geometry": {"type": "Point", "coordinates": [13.3253595, 52.495986]}, "properties": {"id": "7618474159", "name": "Groß & Klein", "street": "Düsseldorfer Straße 3", "zip-code": 10719.0, "city": "Berlin", "planning-area-id": 4501045}}, {"type": "Feature", "geometry": {"type": "Point", "coordinates": [13.3503997, 52.483594]}, "properties": {"id": "7660539096", "name": "Kinderfreizeiteinrichtung Lassenpark", "street": "Hauptstraße 37", "zip-code": 10827.0, "city": "Berlin", "planning-area-id": 7200409}}, {"type": "Feature", "geometry": {"type": "Point", "coordinates": [13.3276824, 52.4731607]}, "properties": {"id": "7683100382", "name": "SeniorenBücherBörse", "street": "Friedrich-Wilhelm-Platz 1", "zip-code": 12161.0, "city": "Berlin", "planning-area-id": 7300515}}, {"type": "Feature", "geometry": {"type": "Point", "coordinates": [13.4556316, 52.5188774]}, "properties": {"id": "7688108949", "name": "Das Haus", "street": "Weidenweg 62", "zip-code": 10247.0, "city": "Berlin", "planning-area-id": 2500727}}, {"type": "Feature", "geometry": {"type": "Point", "coordinates": [13.5681369, 52.5722586]}, "properties": {"id": "7688108957", "name": "Jugendfreizeiteinrichtung UNO", "street": "", "zip-code": "", "city": "", "planning-area-id": 10100102}}, {"type": "Feature", "geometry": {"type": "Point", "coordinates": [13.4263, 52.5965]}, "properties": {"id": "7690308472", "name": "Das MarmeLädchen", "street": "Schönhauser Straße 55", "zip-code": 13127.0, "city": "Berlin", "planning-area-id": 3200308}}, {"type": "Feature", "geometry": {"type": "Point", "coordinates": [13.3532708, 52.5962749]}, "properties": {"id": "7721022118", "name": "Face Familienzentrum", "street": "Wilhelmsruher Damm 159", "zip-code": 13439.0, "city": "Berlin", "planning-area-id": 12601235}}, {"type": "Feature", "geometry": {"type": "Point", "coordinates": [13.5518342, 52.4425525]}, "properties": {"id": "7731249038", "name": "Grimau-Club", "street": "", "zip-code": "", "city": "", "planning-area-id": 9200717}}, {"type": "Feature", "geometry": {"type": "Point", "coordinates": [13.3675914, 52.5862324]}, "properties": {"id": "7746191787", "name": "Wilhelm gibt keine Ruh", "street": "", "zip-code": "", "city": "", "planning-area-id": 3400619}}, {"type": "Feature", "geometry": {"type": "Point", "coordinates": [13.3444823, 52.4712558]}, "properties": {"id": "7747350430", "name": "Kulturetage", "street": "Vorarlberger Damm 1", "zip-code": 12157.0, "city": "Berlin", "planning-area-id": 7300619}}, {"type": "Feature", "geometry": {"type": "Point", "coordinates": [13.328197, 52.5043057]}, "properties": {"id": "7798570855", "name": "Jüdisches Gemeindehaus", "street": "", "zip-code": "", "city": "", "planning-area-id": 4501042}}, {"type": "Feature", "geometry": {"type": "Point", "coordinates": [13.4386681, 52.4543759]}, "properties": {"id": "7803281608", "name": "Jugendclub Feuerwache", "street": "", "zip-code": "", "city": "", "planning-area-id": 8200623}}, {"type": "Feature", "geometry": {"type": "Point", "coordinates": [13.7311336, 52.4287255]}, "properties": {"id": "7832844330", "name": "Kiezklub Rahnsdorf", "street": "Fürstenwalder Allee 362", "zip-code": 12589.0, "city": "Berlin", "planning-area-id": 9501838}}, {"type": "Feature", "geometry": {"type": "Point", "coordinates": [13.4007065, 52.5309398]}, "properties": {"id": "7834977402", "name": "A-Laden", "street": "", "zip-code": "", "city": "", "planning-area-id": 1100416}}, {"type": "Feature", "geometry": {"type": "Point", "coordinates": [13.3878919, 52.5510431]}, "properties": {"id": "7886797485", "name": "Kümmelküche", "street": "Heidebrinker Straße 10", "zip-code": 13357.0, "city": "Berlin", "planning-area-id": 1300733}}, {"type": "Feature", "geometry": {"type": "Point", "coordinates": [13.4335972, 52.4714973]}, "properties": {"id": "7989989003", "name": "JoJu 23", "street": "Jonasstraße 23", "zip-code": 12053.0, "city": "Berlin", "planning-area-id": 8100208}}, {"type": "Feature", "geometry": {"type": "Point", "coordinates": [13.3438596, 52.4675716]}, "properties": {"id": "8072617751", "name": "Rubens Ort für Familien", "street": "Rubensstraße 84", "zip-code": 12157.0, "city": "Berlin", "planning-area-id": 7300619}}, {"type": "Feature", "geometry": {"type": "Point", "coordinates": [13.3280267, 52.4708331]}, "properties": {"id": "8118819079", "name": "Zum Guten Hirten", "street": "Bundesallee 76a", "zip-code": 12161.0, "city": "Berlin", "planning-area-id": 7300516}}, {"type": "Feature", "geometry": {"type": "Point", "coordinates": [13.5036457, 52.5479496]}, "properties": {"id": "8255919139", "name": "oskar freiwilligenagentur lichtenberg", "street": "Hauptstraße 9-9D", "zip-code": 13055.0, "city": "Berlin", "planning-area-id": 11200411}}, {"type": "Feature", "geometry": {"type": "Point", "coordinates": [13.5022731, 52.4435033]}, "properties": {"id": "8257275332", "name": "Kiezklub Rathaus Johannisthal", "street": "Sterndamm 102", "zip-code": 12487.0, "city": "Berlin", "planning-area-id": 9100407}}, {"type": "Feature", "geometry": {"type": "Point", "coordinates": [13.4517262, 52.480656]}, "properties": {"id": "8371142115", "name": "Quartiersmanagement Harzer Kiez", "street": "Treptower Straße 23", "zip-code": 12059.0, "city": "Berlin", "planning-area-id": 8100418}}, {"type": "Feature", "geometry": {"type": "Point", "coordinates": [13.3348935, 52.4877549]}, "properties": {"id": "8422865854", "name": "Die schicke Ria", "street": "Babelsberger Straße 1", "zip-code": 10715.0, "city": "Berlin", "planning-area-id": 4501153}}, {"type": "Feature", "geometry": {"type": "Point", "coordinates": [13.1656108, 52.5223801]}, "properties": {"id": "8435917975", "name": "Stadtteilzentrum Obstallee", "street": "Obstallee 22D", "zip-code": 13593.0, "city": "Berlin", "planning-area-id": 5200527}}, {"type": "Feature", "geometry": {"type": "Point", "coordinates": [13.3796246, 52.5688295]}, "properties": {"id": "8730999914", "name": "Berliner Wasserratten", "street": "Granatenstraße 1", "zip-code": 13409.0, "city": "Berlin", "planning-area-id": 12100102}}, {"type": "Feature", "geometry": {"type": "Point", "coordinates": [13.4838796, 52.468068]}, "properties": {"id": "8796320344", "name": "KIEZKLUB Treptow-Kolleg", "street": "Kiefholzstraße 274", "zip-code": 12437.0, "city": "Berlin", "planning-area-id": 9100304}}, {"type": "Feature", "geometry": {"type": "Point", "coordinates": [13.507962, 52.4489904]}, "properties": {"id": "8796435608", "name": "Quartiersmanagement und Begegnungszentrum Johannisthal", "street": "Sterndamm 47", "zip-code": 12487.0, "city": "Berlin", "planning-area-id": 9100408}}, {"type": "Feature", "geometry": {"type": "Point", "coordinates": [13.3234597, 52.4541473]}, "properties": {"id": "8809478391", "name": "DRK Kiezoase", "street": "", "zip-code": "", "city": "", "planning-area-id": 6100207}}, {"type": "Feature", "geometry": {"type": "Point", "coordinates": [13.3278295, 52.4131478]}, "properties": {"id": "8845819668", "name": "Nachbarschaftshaus Lilienthal", "street": "Schütte-Lanz-Straße 43", "zip-code": 12209.0, "city": "Berlin", "planning-area-id": 6200423}}, {"type": "Feature", "geometry": {"type": "Point", "coordinates": [13.5711448, 52.4016391]}, "properties": {"id": "8891156401", "name": "KIEZKLUB Bohnsdorf", "street": "Dahmestraße 33", "zip-code": 12526.0, "city": "Berlin", "planning-area-id": 9301025}}, {"type": "Feature", "geometry": {"type": "Point", "coordinates": [13.3522278, 52.5961543]}, "properties": {"id": "8999104601", "name": "BENN im Märkischen Viertel", "street": "Wilhelmsruher Damm 161", "zip-code": 13439.0, "city": "Berlin", "planning-area-id": 12601235}}, {"type": "Feature", "geometry": {"type": "Point", "coordinates": [13.4237468, 52.4797875]}, "properties": {"id": "9052669580", "name": "Nachbarschaftsheim Neukölln", "street": "Mahlower Straße 27", "zip-code": "", "city": "", "planning-area-id": 8100102}}, {"type": "Feature", "geometry": {"type": "Point", "coordinates": [13.5496155, 52.4385838]}, "properties": {"id": "9067856748", "name": "Kiezclub Alte Schule", "street": "Dörpfeldstraße 52", "zip-code": 12489.0, "city": "Berlin", "planning-area-id": 9200717}}, {"type": "Feature", "geometry": {"type": "Point", "coordinates": [13.4629575, 52.4247883]}, "properties": {"id": "9114813718", "name": "Familienzentrum Manna", "street": "Lipschitzallee 72", "zip-code": 12353.0, "city": "Berlin", "planning-area-id": 8300935}}, {"type": "Feature", "geometry": {"type": "Point", "coordinates": [13.5497141, 52.461291]}, "properties": {"id": "9118047010", "name": "orbitall - Raumfahrt im FEZ", "street": "", "zip-code": "", "city": "", "planning-area-id": 9200512}}, {"type": "Feature", "geometry": {"type": "Point", "coordinates": [13.4956403, 52.6326221]}, "properties": {"id": "9137924053", "name": "Stadtteilzentrum Buch", "street": "", "zip-code": "", "city": "", "planning-area-id": 3100103}}, {"type": "Feature", "geometry": {"type": "Point", "coordinates": [13.4304413, 52.4949179]}, "properties": {"id": "9178072009", "name": "Erreichbar", "street": "Reichenberger Straße 63a", "zip-code": "", "city": "", "planning-area-id": 2300418}}, {"type": "Feature", "geometry": {"type": "Point", "coordinates": [13.5393982, 52.4213812]}, "properties": {"id": "9215910820", "name": "FamilienBegegnungsZentrum", "street": "Köpenicker Straße 42", "zip-code": 12524.0, "city": "Berlin", "planning-area-id": 9300920}}, {"type": "Feature", "geometry": {"type": "Point", "coordinates": [13.3724507, 52.5443029]}, "properties": {"id": "9243487158", "name": "LebensMittelPunkt", "street": "", "zip-code": "", "city": "", "planning-area-id": 1300836}}, {"type": "Feature", "geometry": {"type": "Point", "coordinates": [13.4189941, 52.5237089]}, "properties": {"id": "9243768379", "name": "LebensMittelPunkt", "street": "", "zip-code": "", "city": "", "planning-area-id": 1100310}}, {"type": "Feature", "geometry": {"type": "Point", "coordinates": [13.3632319, 52.5037943]}, "properties": {"id": "9359321638", "name": "Nachbarschaftstreff Lützowstraße 27", "street": "Lützowstraße 27", "zip-code": 10785.0, "city": "Berlin", "planning-area-id": 1100103}}, {"type": "Feature", "geometry": {"type": "Point", "coordinates": [13.4571925, 52.421997]}, "properties": {"id": "9359321642", "name": "Kinder- und Jugendclub Wildhüterweg", "street": "Wildhüterweg 1", "zip-code": 12353.0, "city": "Berlin", "planning-area-id": 8200833}}, {"type": "Feature", "geometry": {"type": "Point", "coordinates": [13.4379135, 52.572021]}, "properties": {"id": "9359321644", "name": "Zukunftswerkstatt Heinersdorf", "street": "Romain-Rolland-Straße 112", "zip-code": 13089.0, "city": "Berlin", "planning-area-id": 3300516}}, {"type": "Feature", "geometry": {"type": "Point", "coordinates": [13.3965688, 52.5371673]}, "properties": {"id": "9450525778", "name": "Nachbarschaftszentrum Brunnentreff", "street": "Brunnenstraße 145", "zip-code": 10115.0, "city": "Berlin", "planning-area-id": 1100415}}, {"type": "Feature", "geometry": {"type": "Point", "coordinates": [13.5408551, 52.4573559]}, "properties": {"id": "9507984545", "name": "Weiskopff Klub", "street": "Weiskopffstraße 14", "zip-code": 12459.0, "city": "Berlin", "planning-area-id": 9200512}}, {"type": "Feature", "geometry": {"type": "Point", "coordinates": [13.4527266, 52.5482195]}, "properties": {"id": "9516304095", "name": "Familienzentrum Weißsensee", "street": "Mahlerstraße 4", "zip-code": 13088.0, "city": "Berlin", "planning-area-id": 3500936}}, {"type": "Feature", "geometry": {"type": "Point", "coordinates": [13.5212576, 52.4891876]}, "properties": {"id": "9518513689", "name": "UJZ Karlshorst", "street": "Hönower Straße 30", "zip-code": 10318.0, "city": "Berlin", "planning-area-id": 11501339}}, {"type": "Feature", "geometry": {"type": "Point", "coordinates": [13.4008138, 52.5215293]}, "properties": {"id": "9577332704", "name": "Polnisches Institut Berlin", "street": "Burgstraße 27", "zip-code": 10178.0, "city": "Berlin", "planning-area-id": 1100310}}, {"type": "Feature", "geometry": {"type": "Point", "coordinates": [13.5865727, 52.4354947]}, "properties": {"id": "9615055690", "name": "Technischer Jugendbildungsverein in Praxis", "street": "", "zip-code": "", "city": "", "planning-area-id": 9401329}}, {"type": "Feature", "geometry": {"type": "Point", "coordinates": [13.4344313, 52.4981631]}, "properties": {"id": "9649536394", "name": "CoLab im Görli", "street": "Görlitzer Straße 1", "zip-code": 10997.0, "city": "Berlin", "planning-area-id": 2300418}}, {"type": "Feature", "geometry": {"type": "Point", "coordinates": [13.4055829, 52.4840733]}, "properties": {"id": "9723441190", "name": "floating berlin", "street": "Lilienthalstraße 32", "zip-code": 10965.0, "city": "Berlin", "planning-area-id": 2200211}}, {"type": "Feature", "geometry": {"type": "Point", "coordinates": [13.5103205, 52.565867]}, "properties": {"id": "9767155092", "name": "Kinderzirkus CABUWAZI", "street": "Wartenberger Straße 175", "zip-code": 13053.0, "city": "Berlin", "planning-area-id": 11100307}}, {"type": "Feature", "geometry": {"type": "Point", "coordinates": [13.4852738, 52.6211915]}, "properties": {"id": "9767955446", "name": "Stadtteilzentrum Der Turm", "street": "Busonistraße 136", "zip-code": 13125.0, "city": "Berlin", "planning-area-id": 3300411}}, {"type": "Feature", "geometry": {"type": "Point", "coordinates": [13.3802929, 52.5606977]}, "properties": {"id": "9784587252", "name": "", "street": "Koloniestraße 116", "zip-code": 13359.0, "city": "Berlin", "planning-area-id": 1300731}}, {"type": "Feature", "geometry": {"type": "Point", "coordinates": [13.3221478, 52.4914841]}, "properties": {"id": "9792474233", "name": "Estnisches Haus in Berlin", "street": "Güntzelstraße 38", "zip-code": 10717.0, "city": "Berlin", "planning-area-id": 4501147}}, {"type": "Feature", "geometry": {"type": "Point", "coordinates": [13.3793664, 52.4478445]}, "properties": {"id": "9819799507", "name": "BEATS 42", "street": "Kurfürstenstraße 42", "zip-code": 12105.0, "city": "Berlin", "planning-area-id": 7501030}}, {"type": "Feature", "geometry": {"type": "Point", "coordinates": [13.5869948, 52.5113663]}, "properties": {"id": "9831823870", "name": "WandelBAR", "street": "", "zip-code": "", "city": "", "planning-area-id": 10400836}}, {"type": "Feature", "geometry": {"type": "Point", "coordinates": [13.4989723, 52.5123618]}, "properties": {"id": "9850418871", "name": "Kieztreff Undine", "street": "Hagenstraße 57", "zip-code": 10365.0, "city": "Berlin", "planning-area-id": 11300725}}, {"type": "Feature", "geometry": {"type": "Point", "coordinates": [13.2034877, 52.5170076]}, "properties": {"id": "9873844185", "name": "Sportjugendclub Wildwuchs", "street": "Götelstraße 64", "zip-code": 13595.0, "city": "Berlin", "planning-area-id": 5200634}}, {"type": "Feature", "geometry": {"type": "Point", "coordinates": [13.3822262, 52.4483327]}, "properties": {"id": "9879638297", "name": "Machon-Eck", "street": "", "zip-code": "", "city": "", "planning-area-id": 7501030}}, {"type": "Feature", "geometry": {"type": "Point", "coordinates": [13.378987, 52.4506919]}, "properties": {"id": "9879638299", "name": "Himapan Berlin", "street": "Rathausstraße 97", "zip-code": 12105.0, "city": "Berlin", "planning-area-id": 7501030}}, {"type": "Feature", "geometry": {"type": "Point", "coordinates": [13.3107157, 52.4747886]}, "properties": {"id": "9901288465", "name": "Lindenkirchengemeinde", "street": "", "zip-code": "", "city": "", "planning-area-id": 4400834}}, {"type": "Feature", "geometry": {"type": "Point", "coordinates": [13.3664794, 52.4167308]}, "properties": {"id": "9901349076", "name": "3D Medienhaus", "street": "", "zip-code": "", "city": "", "planning-area-id": 7601237}}, {"type": "Feature", "geometry": {"type": "Point", "coordinates": [13.3671547, 52.4165247]}, "properties": {"id": "9901362100", "name": "3D Medienhaus", "street": "Domagkstraße 3", "zip-code": 12277.0, "city": "Berlin", "planning-area-id": 7601237}}, {"type": "Feature", "geometry": {"type": "Point", "coordinates": [13.3858934, 52.4481576]}, "properties": {"id": "9917747173", "name": "BENN Mariendorf-Tempelhof", "street": "Eisenacher Straße 72", "zip-code": 12109.0, "city": "Berlin", "planning-area-id": 7501031}}, {"type": "Feature", "geometry": {"type": "Point", "coordinates": [13.5507756, 52.5451036]}, "properties": {"id": "9917747174", "name": "BENN Blumberger Damm", "street": "Marzahner Promenade 36", "zip-code": 12679.0, "city": "Berlin", "planning-area-id": 10100210}}, {"type": "Feature", "geometry": {"type": "Point", "coordinates": [13.3131018, 52.6202673]}, "properties": {"id": "9917944553", "name": "Seniorenfreizeitstätte Hermsdorf", "street": "Berliner Straße 105-107", "zip-code": 13467.0, "city": "Berlin", "planning-area-id": 12400723}}, {"type": "Feature", "geometry": {"type": "Point", "coordinates": [13.6055661, 52.4871582]}, "properties": {"id": "9917944557", "name": "JFE am Hultschi", "street": "Hultschiner Damm 140", "zip-code": 12623.0, "city": "Berlin", "planning-area-id": 10400941}}, {"type": "Feature", "geometry": {"type": "Point", "coordinates": [13.3867541, 52.4391961]}, "properties": {"id": "9928884893", "name": "Café Albrecht - Offener Jugendtreff", "street": "Friedenstraße 20", "zip-code": 12107.0, "city": "Berlin", "planning-area-id": 7501133}}, {"type": "Feature", "geometry": {"type": "Point", "coordinates": [13.4124221, 52.5128659]}, "properties": {"id": "9961163457", "name": "Jugendzentrum Die Oase", "street": "Wallstraße 43", "zip-code": 10179.0, "city": "Berlin", "planning-area-id": 1100312}}, {"type": "Feature", "geometry": {"type": "Point", "coordinates": [13.4906907, 52.5009706]}, "properties": {"id": "9966771336", "name": "SportJugendBildungsZentrum Lücke", "street": "Lückstraße 18", "zip-code": 10317.0, "city": "Berlin", "planning-area-id": 11400928}}, {"type": "Feature", "geometry": {"type": "Point", "coordinates": [13.4421835, 52.4648639]}, "properties": {"id": "9969520511", "name": "MischMit", "street": "Glasower Straße 67", "zip-code": 12051.0, "city": "Berlin", "planning-area-id": 8100209}}, {"type": "Feature", "geometry": {"type": "Point", "coordinates": [13.4073414, 52.5140903]}, "properties": {"id": "10049074180", "name": "Mitmach-Laden", "street": "Fischerinsel 1", "zip-code": 10179.0, "city": "Berlin", "planning-area-id": 1100312}}, {"type": "Feature", "geometry": {"type": "Point", "coordinates": [13.3222594, 52.4547046]}, "properties": {"id": "10124204000", "name": "Nachbarschaftsladen Mittelhof", "street": "Berlinickestraße 9", "zip-code": "", "city": "", "planning-area-id": 6100207}}, {"type": "Feature", "geometry": {"type": "Point", "coordinates": [13.5863781, 52.5217298]}, "properties": {"id": "10167187888", "name": "Kieztreff Kaulsdorf", "street": "Teterower Ring 43", "zip-code": 12619.0, "city": "Berlin", "planning-area-id": 10200629}}, {"type": "Feature", "geometry": {"type": "Point", "coordinates": [13.3875368, 52.4948358]}, "properties": {"id": "10203705184", "name": "Kiezraum", "street": "", "zip-code": "", "city": "Berlin", "planning-area-id": 2200208}}, {"type": "Feature", "geometry": {"type": "Point", "coordinates": [13.4338178, 52.4965735]}, "properties": {"id": "10271036121", "name": "Reforum Space Berlin", "street": "Wiener Straße 31", "zip-code": 10999.0, "city": "Berlin", "planning-area-id": 2300418}}, {"type": "Feature", "geometry": {"type": "Point", "coordinates": [13.4336479, 52.4807807]}, "properties": {"id": "10290532629", "name": "Kultur und Solidaritätsverein Rize e.V.", "street": "Boddinstraße 63", "zip-code": 12053.0, "city": "Berlin", "planning-area-id": 8100206}}, {"type": "Feature", "geometry": {"type": "Point", "coordinates": [13.5092695, 52.577454]}, "properties": {"id": "10582795722", "name": "BENN Wartenberg", "street": "Schweriner Ring 27", "zip-code": 13059.0, "city": "Berlin", "planning-area-id": 11100206}}, {"type": "Feature", "geometry": {"type": "Point", "coordinates": [13.3317692, 52.4659474]}, "properties": {"id": "10587203434", "name": "Stadtteilzentrum Steglitz", "street": "Holsteinische Straße 40-39", "zip-code": "", "city": "", "planning-area-id": 7300618}}, {"type": "Feature", "geometry": {"type": "Point", "coordinates": [13.4534242, 52.5470454]}, "properties": {"id": "10606008451", "name": "Jugendfreizeitstätte Berlin-Weissensee", "street": "", "zip-code": "", "city": "", "planning-area-id": 3500936}}, {"type": "Feature", "geometry": {"type": "Point", "coordinates": [13.412375, 52.563752]}, "properties": {"id": "10690039994", "name": "Tivolotte", "street": "", "zip-code": "", "city": "", "planning-area-id": 3400826}}, {"type": "Feature", "geometry": {"type": "Point", "coordinates": [13.4255274, 52.4966588]}, "properties": {"id": "10748103876", "name": "Jugendhaus Chip", "street": "Reichenberger Straße 44-45", "zip-code": 10999.0, "city": "Berlin", "planning-area-id": 2300417}}, {"type": "Feature", "geometry": {"type": "Point", "coordinates": [13.1757593, 52.5204509]}, "properties": {"id": "10780038387", "name": "Mädchentreff Staachelbeeren", "street": "Blasewitzer Ring 28", "zip-code": 13593.0, "city": "Berlin", "planning-area-id": 5200527}}, {"type": "Feature", "geometry": {"type": "Point", "coordinates": [13.4573469, 52.4688554]}, "properties": {"id": "10782028833", "name": "Musikfabrik.Berlin", "street": "", "zip-code": "", "city": "", "planning-area-id": 8100521}}, {"type": "Feature", "geometry": {"type": "Point", "coordinates": [13.3891654, 52.5580473]}, "properties": {"id": "11022270676", "name": "Kiez Treff", "street": "", "zip-code": "", "city": "", "planning-area-id": 1300732}}, {"type": "Feature", "geometry": {"type": "Point", "coordinates": [13.4463995, 52.4783548]}, "properties": {"id": "11047767185", "name": "Kiezladen Sonnenallee 154", "street": "Sonnenallee 154", "zip-code": 12059.0, "city": "Berlin", "planning-area-id": 8100415}}, {"type": "Feature", "geometry": {"type": "Point", "coordinates": [13.3331269, 52.5779013]}, "properties": {"id": "11076702545", "name": "BENN Wittenau Süd", "street": "Ollenhauerstraße 70", "zip-code": 13403.0, "city": "Berlin", "planning-area-id": 12100206}}, {"type": "Feature", "geometry": {"type": "Point", "coordinates": [13.3895036, 52.5408185]}, "properties": {"id": "11076702559", "name": "Familienzentrum Wattstraße", "street": "Wattstraße 16", "zip-code": 13355.0, "city": "Berlin", "planning-area-id": 1300835}}, {"type": "Feature", "geometry": {"type": "Point", "coordinates": [13.3880887, 52.5525108]}, "properties": {"id": "11112622489", "name": "Quartiersmanagement Badstraße", "street": "", "zip-code": "", "city": "", "planning-area-id": 1300733}}, {"type": "Feature", "geometry": {"type": "Point", "coordinates": [13.3879475, 52.4949638]}, "properties": {"id": "11146201703", "name": "StadtWERKSTATT", "street": "", "zip-code": "", "city": "", "planning-area-id": 2200208}}, {"type": "Feature", "geometry": {"type": "Point", "coordinates": [13.4902699, 52.5097824]}, "properties": {"id": "11191636900", "name": "Drugstore", "street": "", "zip-code": "", "city": "", "planning-area-id": 11300826}}, {"type": "Feature", "geometry": {"type": "Point", "coordinates": [13.3455192, 52.52968]}, "properties": {"id": "11244896950", "name": "Treffpunkt LebensTraum", "street": "", "zip-code": "", "city": "", "planning-area-id": 1200625}}, {"type": "Feature", "geometry": {"type": "Point", "coordinates": [13.3479095, 52.5330026]}, "properties": {"id": "11244910388", "name": "Stephans - Der Nachbarschaftsladen", "street": "Stendaler Straße 9", "zip-code": 10559.0, "city": "Berlin", "planning-area-id": 1200623}}, {"type": "Feature", "geometry": {"type": "Point", "coordinates": [13.4727003, 52.4654641]}, "properties": {"id": "11266701131", "name": "mittendrin", "street": "Sonnenallee 319", "zip-code": 12057.0, "city": "Berlin", "planning-area-id": 8100521}}, {"type": "Feature", "geometry": {"type": "Point", "coordinates": [13.2609311, 52.4412445]}, "properties": {"id": "11279352169", "name": "Der Divan", "street": "", "zip-code": "", "city": "", "planning-area-id": 6400841}}, {"type": "Feature", "geometry": {"type": "Point", "coordinates": [13.4557435, 52.4285195]}, "properties": {"id": "11379989012", "name": "Ev. Kirchengemeinde in der Gropiusstadt Standort Martin Luther King", "street": "Martin-Luther-King-Weg 6", "zip-code": 12351.0, "city": "Berlin", "planning-area-id": 8300934}}, {"type": "Feature", "geometry": {"type": "Point", "coordinates": [13.362368, 52.5505806]}, "properties": {"id": "11381002618", "name": "Al Mougtaba", "street": "", "zip-code": "", "city": "", "planning-area-id": 1401048}}, {"type": "Feature", "geometry": {"type": "Point", "coordinates": [13.3535132, 52.5296186]}, "properties": {"id": "11392494769", "name": "Zilleklub", "street": "", "zip-code": "", "city": "", "planning-area-id": 1200623}}, {"type": "Feature", "geometry": {"type": "Point", "coordinates": [13.3691472, 52.4996521]}, "properties": {"id": "11392834385", "name": "Jugendtreff Pohl11", "street": "Pohlstraße 11", "zip-code": 10785.0, "city": "Berlin", "planning-area-id": 1100104}}, {"type": "Feature", "geometry": {"type": "Point", "coordinates": [13.5057504, 52.4931759]}, "properties": {"id": "11413509638", "name": "Regenbogenfamilienzentrum Lichtenberg", "street": "Dolgenseestraße 21", "zip-code": 10319.0, "city": "Berlin", "planning-area-id": 11401135}}, {"type": "Feature", "geometry": {"type": "Point", "coordinates": [13.3371351, 52.552964]}, "properties": {"id": "11453939828", "name": "Begegnungsstätte Otawi-Treff", "street": "Otawistraße 46", "zip-code": 13351.0, "city": "Berlin", "planning-area-id": 1400937}}, {"type": "Feature", "geometry": {"type": "Point", "coordinates": [13.341862, 52.4680728]}, "properties": {"id": "11539903167", "name": "Stadtteiltreff Der Nachbar", "street": "Cranachstraße 7", "zip-code": 12157.0, "city": "Berlin", "planning-area-id": 7300619}}, {"type": "Feature", "geometry": {"type": "Point", "coordinates": [13.3861408, 52.556379]}, "properties": {"id": "11553506854", "name": "NachbarschaftsEtage", "street": "", "zip-code": "", "city": "", "planning-area-id": 1300732}}, {"type": "Feature", "geometry": {"type": "Point", "coordinates": [13.3039012, 52.4961863]}, "properties": {"id": "11695177499", "name": "Hochmeistersaal", "street": "", "zip-code": "", "city": "", "planning-area-id": 4500939}}]}