{"type": "FeatureCollection", "features": [{"type": "Feature", "geometry": {"type": "Point", "coordinates": [13.3931533, 52.4913696]}, "properties": {"id": "259845846", "name": "Junction-Bar", "street": "Gneisenaustraße 18", "zip-code": 10961.0, "city": "Berlin", "planning-area-id": 2200211}}, {"type": "Feature", "geometry": {"type": "Point", "coordinates": [13.4164254, 52.5232268]}, "properties": {"id": "262818281", "name": "ASeven Club", "street": "Alexanderstraße 7", "zip-code": 10178.0, "city": "Berlin", "planning-area-id": 1100310}}, {"type": "Feature", "geometry": {"type": "Point", "coordinates": [13.4490212, 52.5046782]}, "properties": {"id": "339749949", "name": "Matrix", "street": "Warschauer Platz 18", "zip-code": 10245.0, "city": "Berlin", "planning-area-id": 2500835}}, {"type": "Feature", "geometry": {"type": "Point", "coordinates": [13.4450748, 52.4992172]}, "properties": {"id": "360111407", "name": "Lido", "street": "Cuvrystraße 7", "zip-code": 10997.0, "city": "Berlin", "planning-area-id": 2300419}}, {"type": "Feature", "geometry": {"type": "Point", "coordinates": [13.3787124, 52.5441625]}, "properties": {"id": "373095675", "name": "Humboldthain Club", "street": "Hochstraße 46", "zip-code": 13357.0, "city": "Berlin", "planning-area-id": 1300836}}, {"type": "Feature", "geometry": {"type": "Point", "coordinates": [13.4489112, 52.5045582]}, "properties": {"id": "383210462", "name": "Narva Lounge", "street": "", "zip-code": "", "city": "", "planning-area-id": 2500835}}, {"type": "Feature", "geometry": {"type": "Point", "coordinates": [13.4310967, 52.4974686]}, "properties": {"id": "410135945", "name": "Wild at Heart", "street": "", "zip-code": 10999.0, "city": "", "planning-area-id": 2300417}}, {"type": "Feature", "geometry": {"type": "Point", "coordinates": [13.39691, 52.5264743]}, "properties": {"id": "429735547", "name": "Clärchens Ballhaus", "street": "Auguststraße 24", "zip-code": 10117.0, "city": "Berlin", "planning-area-id": 1100309}}, {"type": "Feature", "geometry": {"type": "Point", "coordinates": [13.441495, 52.5179462]}, "properties": {"id": "461623768", "name": "Sun Chiller Lounge", "street": "", "zip-code": "", "city": "", "planning-area-id": 2400522}}, {"type": "Feature", "geometry": {"type": "Point", "coordinates": [13.4363946, 52.5086309]}, "properties": {"id": "475153994", "name": "Postbahnhof", "street": "Straße der Pariser Kommune 8", "zip-code": 10243.0, "city": "Berlin", "planning-area-id": 2400625}}, {"type": "Feature", "geometry": {"type": "Point", "coordinates": [13.4540533, 52.49694]}, "properties": {"id": "485353651", "name": "arena Berlin", "street": "Eichenstraße 4", "zip-code": 12435.0, "city": "Berlin", "planning-area-id": 9100101}}, {"type": "Feature", "geometry": {"type": "Point", "coordinates": [13.4530728, 52.4973833]}, "properties": {"id": "485354535", "name": "Glashaus", "street": "", "zip-code": "", "city": "", "planning-area-id": 9100101}}, {"type": "Feature", "geometry": {"type": "Point", "coordinates": [13.4653065, 52.4973901]}, "properties": {"id": "485640732", "name": "Zur Wilden Renate", "street": "Alt-Stralau 70", "zip-code": 10245.0, "city": "Berlin", "planning-area-id": 2500835}}, {"type": "Feature", "geometry": {"type": "Point", "coordinates": [13.454537, 52.5076615]}, "properties": {"id": "492849637", "name": "RAW 99", "street": "Revaler Straße 99", "zip-code": 10245.0, "city": "Berlin", "planning-area-id": 2500834}}, {"type": "Feature", "geometry": {"type": "Point", "coordinates": [13.4560428, 52.5091003]}, "properties": {"id": "621429565", "name": "Berndhain", "street": "Simon-Dach-Straße 32", "zip-code": 10245.0, "city": "Berlin", "planning-area-id": 2500834}}, {"type": "Feature", "geometry": {"type": "Point", "coordinates": [13.4007592, 52.5336193]}, "properties": {"id": "652884290", "name": "Calabash", "street": "Veteranenstraße 21", "zip-code": 10119.0, "city": "Berlin", "planning-area-id": 1100416}}, {"type": "Feature", "geometry": {"type": "Point", "coordinates": [13.4169088, 52.5110197]}, "properties": {"id": "667842214", "name": "Sage", "street": "Köpenicker Straße 76", "zip-code": 10179.0, "city": "Berlin", "planning-area-id": 1100313}}, {"type": "Feature", "geometry": {"type": "Point", "coordinates": [13.401179, 52.53567]}, "properties": {"id": "670069373", "name": "NBI Club", "street": "Zionskirchstraße 5", "zip-code": 10119.0, "city": "Berlin", "planning-area-id": 1100416}}, {"type": "Feature", "geometry": {"type": "Point", "coordinates": [13.4169157, 52.5112074]}, "properties": {"id": "729294555", "name": "Kit Kat Club", "street": "Köpenicker Straße 76", "zip-code": 10179.0, "city": "Berlin", "planning-area-id": 1100313}}, {"type": "Feature", "geometry": {"type": "Point", "coordinates": [13.4107036, 52.526786]}, "properties": {"id": "736787851", "name": "1820", "street": "Rosa-Luxemburg-Straße 41", "zip-code": 10178.0, "city": "Berlin", "planning-area-id": 1100310}}, {"type": "Feature", "geometry": {"type": "Point", "coordinates": [13.3860876, 52.4655581]}, "properties": {"id": "739305494", "name": "Insomnia", "street": "Alt-Tempelhof 17", "zip-code": 12099.0, "city": "Berlin", "planning-area-id": 7400927}}, {"type": "Feature", "geometry": {"type": "Point", "coordinates": [13.452579, 52.5156316]}, "properties": {"id": "821646254", "name": "Abgedreht Klub", "street": "", "zip-code": 10243.0, "city": "Berlin", "planning-area-id": 2400624}}, {"type": "Feature", "geometry": {"type": "Point", "coordinates": [13.2932442, 52.4972653]}, "properties": {"id": "898983650", "name": "K133 Night Lounge", "street": "Kurfürstendamm 133/134", "zip-code": 10711.0, "city": "Berlin", "planning-area-id": 4500938}}, {"type": "Feature", "geometry": {"type": "Point", "coordinates": [13.380294, 52.5320796]}, "properties": {"id": "910429971", "name": "Ballhaus Berlin", "street": "Chausseestraße 102", "zip-code": 10115.0, "city": "Berlin", "planning-area-id": 1100308}}, {"type": "Feature", "geometry": {"type": "Point", "coordinates": [13.3899473, 52.5161783]}, "properties": {"id": "918183904", "name": "Club R8", "street": "Rosmarinstraße 8", "zip-code": 10117.0, "city": "Berlin", "planning-area-id": 1100206}}, {"type": "Feature", "geometry": {"type": "Point", "coordinates": [13.4337837, 52.4794629]}, "properties": {"id": "959344243", "name": "SchwuZ", "street": "Rollbergstraße 26", "zip-code": 12053.0, "city": "Berlin", "planning-area-id": 8100206}}, {"type": "Feature", "geometry": {"type": "Point", "coordinates": [13.3534485, 52.4852704]}, "properties": {"id": "959625062", "name": "Havanna", "street": "Hauptstraße 30", "zip-code": 10827.0, "city": "Berlin", "planning-area-id": 7200409}}, {"type": "Feature", "geometry": {"type": "Point", "coordinates": [13.4217418, 52.4864896]}, "properties": {"id": "975700421", "name": "Huxleys Neue Welt", "street": "Hasenheide 107-113", "zip-code": 10967.0, "city": "Berlin", "planning-area-id": 8100101}}, {"type": "Feature", "geometry": {"type": "Point", "coordinates": [13.4081361, 52.5030121]}, "properties": {"id": "979969868", "name": "Ritter Butzke", "street": "Ritterstraße 26", "zip-code": 10969.0, "city": "Berlin", "planning-area-id": 2100104}}, {"type": "Feature", "geometry": {"type": "Point", "coordinates": [13.3280883, 52.5050011]}, "properties": {"id": "984158735", "name": "The Pearl", "street": "Fasanenstraße 81", "zip-code": 10623.0, "city": "Berlin", "planning-area-id": 4300622}}, {"type": "Feature", "geometry": {"type": "Point", "coordinates": [13.390553, 52.4835867]}, "properties": {"id": "988192687", "name": "Silverwings", "street": "", "zip-code": "", "city": "", "planning-area-id": 7400721}}, {"type": "Feature", "geometry": {"type": "Point", "coordinates": [13.3022495, 52.5054899]}, "properties": {"id": "1077583254", "name": "Golden Gate", "street": "Kaiser-Friedrich-Straße 63", "zip-code": 10627.0, "city": "Berlin", "planning-area-id": 4300416}}, {"type": "Feature", "geometry": {"type": "Point", "coordinates": [13.4034635, 52.5229379]}, "properties": {"id": "1144034120", "name": "am to pm", "street": "Am Zwirngraben 2", "zip-code": 10178.0, "city": "Berlin", "planning-area-id": 1100310}}, {"type": "Feature", "geometry": {"type": "Point", "coordinates": [13.4075481, 52.5217615]}, "properties": {"id": "1145853246", "name": "Hafenbar", "street": "Karl-Liebknecht-Straße 11", "zip-code": 10178.0, "city": "Berlin", "planning-area-id": 1100310}}, {"type": "Feature", "geometry": {"type": "Point", "coordinates": [13.4164231, 52.5229029]}, "properties": {"id": "1162812586", "name": "Weekend Club", "street": "Alexanderstraße 7", "zip-code": 10178.0, "city": "Berlin", "planning-area-id": 1100310}}, {"type": "Feature", "geometry": {"type": "Point", "coordinates": [13.4142448, 52.5395232]}, "properties": {"id": "1165008486", "name": "Soda Club", "street": "Knaackstraße 97", "zip-code": 10435.0, "city": "Berlin", "planning-area-id": 3701555}}, {"type": "Feature", "geometry": {"type": "Point", "coordinates": [13.3084909, 52.5114893]}, "properties": {"id": "1228317932", "name": "Tabu", "street": "Bismarckstraße 90", "zip-code": 10627.0, "city": "Berlin", "planning-area-id": 4300623}}, {"type": "Feature", "geometry": {"type": "Point", "coordinates": [13.445176, 52.5010412]}, "properties": {"id": "1282629054", "name": "Watergate", "street": "Falckensteinstraße 49", "zip-code": 10997.0, "city": "Berlin", "planning-area-id": 2300419}}, {"type": "Feature", "geometry": {"type": "Point", "coordinates": [13.3932376, 52.5121321]}, "properties": {"id": "1310466406", "name": "BRICKS Club", "street": "Mohrenstraße 30", "zip-code": 10117.0, "city": "Berlin", "planning-area-id": 1100207}}, {"type": "Feature", "geometry": {"type": "Point", "coordinates": [13.448261, 52.503615]}, "properties": {"id": "1361259244", "name": "Die Busche", "street": "Warschauer Platz 18", "zip-code": 10245.0, "city": "Berlin", "planning-area-id": 2500835}}, {"type": "Feature", "geometry": {"type": "Point", "coordinates": [13.4087274, 52.5032996]}, "properties": {"id": "1370001597", "name": "Prince Charles", "street": "Prinzenstraße 85f", "zip-code": 10969.0, "city": "Berlin", "planning-area-id": 2100104}}, {"type": "Feature", "geometry": {"type": "Point", "coordinates": [13.3379413, 52.5040556]}, "properties": {"id": "1402543376", "name": "Puro Sky Lounge Berlin", "street": "Tauentzienstraße 9-12", "zip-code": 10789.0, "city": "Berlin", "planning-area-id": 4501042}}, {"type": "Feature", "geometry": {"type": "Point", "coordinates": [13.4203676, 52.4965979]}, "properties": {"id": "1429037824", "name": "Das Hotel", "street": "Mariannenstraße 26 A", "zip-code": 10999.0, "city": "Berlin", "planning-area-id": 2300417}}, {"type": "Feature", "geometry": {"type": "Point", "coordinates": [13.4116224, 52.5271131]}, "properties": {"id": "1450635676", "name": "Roter Salon", "street": "Rosa-Luxemburg-Platz 1", "zip-code": 10178.0, "city": "Berlin", "planning-area-id": 1100310}}, {"type": "Feature", "geometry": {"type": "Point", "coordinates": [13.4727613, 52.5136642]}, "properties": {"id": "1485800803", "name": "Triplex Club", "street": "Frankfurter Allee 98", "zip-code": 10247.0, "city": "Berlin", "planning-area-id": 2500832}}, {"type": "Feature", "geometry": {"type": "Point", "coordinates": [13.4414613, 52.5007558]}, "properties": {"id": "1667559178", "name": "Bi Nuu", "street": "", "zip-code": "", "city": "", "planning-area-id": 2300316}}, {"type": "Feature", "geometry": {"type": "Point", "coordinates": [13.4982998, 52.4192321]}, "properties": {"id": "1693456696", "name": "ReMix", "street": "", "zip-code": "", "city": "", "planning-area-id": 8401243}}, {"type": "Feature", "geometry": {"type": "Point", "coordinates": [13.499794, 52.531751]}, "properties": {"id": "1724527904", "name": "Tollhaus", "street": "", "zip-code": "", "city": "", "planning-area-id": 11300721}}, {"type": "Feature", "geometry": {"type": "Point", "coordinates": [13.4069893, 52.5235538]}, "properties": {"id": "1820069776", "name": "b-flat", "street": "Dircksenstraße 40", "zip-code": 10178.0, "city": "Berlin", "planning-area-id": 1100309}}, {"type": "Feature", "geometry": {"type": "Point", "coordinates": [13.3424928, 52.4990172]}, "properties": {"id": "1882869375", "name": "Connection", "street": "Fuggerstraße 33", "zip-code": 10777.0, "city": "Berlin", "planning-area-id": 7100101}}, {"type": "Feature", "geometry": {"type": "Point", "coordinates": [13.4411582, 52.5029678]}, "properties": {"id": "1897123562", "name": "FluxBau", "street": "", "zip-code": "", "city": "", "planning-area-id": 2300316}}, {"type": "Feature", "geometry": {"type": "Point", "coordinates": [13.3224146, 52.504062]}, "properties": {"id": "1934211315", "name": "Vagabund Club", "street": "Knesebeckstraße 77", "zip-code": 10623.0, "city": "Berlin", "planning-area-id": 4501041}}, {"type": "Feature", "geometry": {"type": "Point", "coordinates": [13.4242521, 52.4993312]}, "properties": {"id": "1941952571", "name": "Bulbul Berlin", "street": "Skalitzer Straße 114", "zip-code": 10999.0, "city": "Berlin", "planning-area-id": 2300315}}, {"type": "Feature", "geometry": {"type": "Point", "coordinates": [13.3597082, 52.5344022]}, "properties": {"id": "1954332576", "name": "Slaughterhouse", "street": "Lehrter Straße 35", "zip-code": 10557.0, "city": "Berlin", "planning-area-id": 1200624}}, {"type": "Feature", "geometry": {"type": "Point", "coordinates": [13.3672515, 52.551145]}, "properties": {"id": "2126202628", "name": "Orchidea", "street": "Reinickendorfer Straße 74", "zip-code": 13347.0, "city": "Berlin", "planning-area-id": 1401043}}, {"type": "Feature", "geometry": {"type": "Point", "coordinates": [13.4348491, 52.5000715]}, "properties": {"id": "2147941967", "name": "Privatclub", "street": "Skalitzer Straße 85-86", "zip-code": 10997.0, "city": "Berlin", "planning-area-id": 2300315}}, {"type": "Feature", "geometry": {"type": "Point", "coordinates": [13.4474984, 52.5029659]}, "properties": {"id": "2147953685", "name": "Metrom Lounge", "street": "", "zip-code": "", "city": "", "planning-area-id": 2500835}}, {"type": "Feature", "geometry": {"type": "Point", "coordinates": [13.3311044, 52.5008789]}, "properties": {"id": "2188253833", "name": "The Door", "street": "Joachimsthaler Straße 25", "zip-code": 10719.0, "city": "Berlin", "planning-area-id": 4501042}}, {"type": "Feature", "geometry": {"type": "Point", "coordinates": [13.3308361, 52.5019061]}, "properties": {"id": "2347398754", "name": "Maxxim Club", "street": "Joachimsthaler Straße 15", "zip-code": 10719.0, "city": "Berlin", "planning-area-id": 4501042}}, {"type": "Feature", "geometry": {"type": "Point", "coordinates": [13.4351165, 52.4961326]}, "properties": {"id": "2381034158", "name": "Reset", "street": "", "zip-code": "", "city": "", "planning-area-id": 2300418}}, {"type": "Feature", "geometry": {"type": "Point", "coordinates": [13.4333842, 52.4643506]}, "properties": {"id": "2435092394", "name": "Hole 44", "street": "Hermannstraße 146", "zip-code": 12051.0, "city": "Berlin", "planning-area-id": 8100209}}, {"type": "Feature", "geometry": {"type": "Point", "coordinates": [13.4311437, 52.502437]}, "properties": {"id": "2665268971", "name": "Auster-Club", "street": "", "zip-code": "", "city": "", "planning-area-id": 2300315}}, {"type": "Feature", "geometry": {"type": "Point", "coordinates": [13.4293652, 52.4810266]}, "properties": {"id": "2774920018", "name": "The Zone", "street": "", "zip-code": "", "city": "", "planning-area-id": 8100206}}, {"type": "Feature", "geometry": {"type": "Point", "coordinates": [13.4197888, 52.5105954]}, "properties": {"id": "2876098523", "name": "Ohm", "street": "Köpenicker Straße 70", "zip-code": 10179.0, "city": "Berlin", "planning-area-id": 1100313}}, {"type": "Feature", "geometry": {"type": "Point", "coordinates": [13.4247322, 52.5126865]}, "properties": {"id": "2968181705", "name": "Säälchen", "street": "Holzmarktstraße 25", "zip-code": 10243.0, "city": "Berlin", "planning-area-id": 2400623}}, {"type": "Feature", "geometry": {"type": "Point", "coordinates": [13.393681, 52.5261173]}, "properties": {"id": "3121055734", "name": "Flow Bar", "street": "Tucholskystraße 32", "zip-code": 10117.0, "city": "Berlin", "planning-area-id": 1100309}}, {"type": "Feature", "geometry": {"type": "Point", "coordinates": [13.3961493, 52.5112236]}, "properties": {"id": "3298592393", "name": "Konzulát", "street": "", "zip-code": "", "city": "", "planning-area-id": 1100207}}, {"type": "Feature", "geometry": {"type": "Point", "coordinates": [13.4136676, 52.5395329]}, "properties": {"id": "3469247893", "name": "Alte Kantine", "street": "Knaackstraße 97", "zip-code": 10435.0, "city": "Berlin", "planning-area-id": 3701555}}, {"type": "Feature", "geometry": {"type": "Point", "coordinates": [13.4758087, 52.5075429]}, "properties": {"id": "3610779779", "name": "Void", "street": "Wiesenweg 5", "zip-code": 10365.0, "city": "Berlin", "planning-area-id": 11300826}}, {"type": "Feature", "geometry": {"type": "Point", "coordinates": [13.4833923, 52.4260543]}, "properties": {"id": "3777579770", "name": "Top Disco Berlin", "street": "", "zip-code": "", "city": "", "planning-area-id": 8401241}}, {"type": "Feature", "geometry": {"type": "Point", "coordinates": [13.4092179, 52.5226335]}, "properties": {"id": "3783242657", "name": "M-BIA", "street": "Dircksenstraße 123-124", "zip-code": 10178.0, "city": "Berlin", "planning-area-id": 1100310}}, {"type": "Feature", "geometry": {"type": "Point", "coordinates": [13.4008094, 52.5335177]}, "properties": {"id": "3783290025", "name": "ACUD", "street": "Veteranenstraße 21", "zip-code": 10119.0, "city": "Berlin", "planning-area-id": 1100416}}, {"type": "Feature", "geometry": {"type": "Point", "coordinates": [13.3718571, 52.5075016]}, "properties": {"id": "3783296627", "name": "Adagio", "street": "Marlene-Dietrich-Platz 1", "zip-code": 10785.0, "city": "Berlin", "planning-area-id": 1100102}}, {"type": "Feature", "geometry": {"type": "Point", "coordinates": [13.3526876, 52.5975687]}, "properties": {"id": "3783307323", "name": "American Western Saloon", "street": "Wilhelmsruher Damm 142c", "zip-code": 13439.0, "city": "Berlin", "planning-area-id": 12601134}}, {"type": "Feature", "geometry": {"type": "Point", "coordinates": [13.3479726, 52.4987104]}, "properties": {"id": "3826455881", "name": "Pussy Cat", "street": "Kalckreuthstraße 7", "zip-code": 10777.0, "city": "Berlin", "planning-area-id": 7100102}}, {"type": "Feature", "geometry": {"type": "Point", "coordinates": [13.3534385, 52.5044307]}, "properties": {"id": "3830239588", "name": "Trompete", "street": "Lützowplatz 9", "zip-code": 10785.0, "city": "Berlin", "planning-area-id": 1100103}}, {"type": "Feature", "geometry": {"type": "Point", "coordinates": [13.4510911, 52.4975889]}, "properties": {"id": "3838242274", "name": "Ipse", "street": "Vor dem Schlesischen Tor 2b", "zip-code": 10997.0, "city": "Berlin", "planning-area-id": 2300419}}, {"type": "Feature", "geometry": {"type": "Point", "coordinates": [13.4221612, 52.5003909]}, "properties": {"id": "4034138645", "name": "SO36", "street": "Oranienstraße 190", "zip-code": 10999.0, "city": "Berlin", "planning-area-id": 2300314}}, {"type": "Feature", "geometry": {"type": "Point", "coordinates": [13.4442907, 52.4613006]}, "properties": {"id": "4118217590", "name": "Stella Berlin", "street": "Jahnstraße 14", "zip-code": 12347.0, "city": "Berlin", "planning-area-id": 8200622}}, {"type": "Feature", "geometry": {"type": "Point", "coordinates": [13.4115684, 52.5312243]}, "properties": {"id": "4172803384", "name": "8MM", "street": "Schönhauser Allee 177 B", "zip-code": 10119.0, "city": "Berlin", "planning-area-id": 3701554}}, {"type": "Feature", "geometry": {"type": "Point", "coordinates": [13.419024, 52.5174812]}, "properties": {"id": "4217156190", "name": "Beate Uwe", "street": "Schillingstraße 31", "zip-code": 10179.0, "city": "Berlin", "planning-area-id": 1100311}}, {"type": "Feature", "geometry": {"type": "Point", "coordinates": [13.305791, 52.5172277]}, "properties": {"id": "4236204189", "name": "MiSalsa", "street": "", "zip-code": 10585.0, "city": "", "planning-area-id": 4300621}}, {"type": "Feature", "geometry": {"type": "Point", "coordinates": [13.3803809, 52.4893117]}, "properties": {"id": "4239911047", "name": "Festsaal der Villa Kreuzberg", "street": "", "zip-code": 10965.0, "city": "Berlin", "planning-area-id": 2200209}}, {"type": "Feature", "geometry": {"type": "Point", "coordinates": [13.4204411, 52.4966889]}, "properties": {"id": "4283150545", "name": "Cake Club", "street": "", "zip-code": "", "city": "", "planning-area-id": 2300417}}, {"type": "Feature", "geometry": {"type": "Point", "coordinates": [13.5048839, 52.564751]}, "properties": {"id": "4458466133", "name": "KISS Lounge", "street": "Prerower Platz 12", "zip-code": 13051.0, "city": "Berlin", "planning-area-id": 11100307}}, {"type": "Feature", "geometry": {"type": "Point", "coordinates": [13.327462, 52.5046309]}, "properties": {"id": "4574958092", "name": "Vitrin", "street": "", "zip-code": "", "city": "", "planning-area-id": 4300622}}, {"type": "Feature", "geometry": {"type": "Point", "coordinates": [13.3908678, 52.5267961]}, "properties": {"id": "4784529624", "name": "Geheimclub (Annika von Trier)", "street": "Linienstraße 144", "zip-code": 10115.0, "city": "", "planning-area-id": 1100309}}, {"type": "Feature", "geometry": {"type": "Point", "coordinates": [13.4625984, 52.4951405]}, "properties": {"id": "4815124323", "name": "Else", "street": "An den Treptowers 10", "zip-code": 12435.0, "city": "Berlin", "planning-area-id": 9100101}}, {"type": "Feature", "geometry": {"type": "Point", "coordinates": [13.419484, 52.5106807]}, "properties": {"id": "4870128450", "name": "Tresor Berlin", "street": "Köpenicker Straße 70", "zip-code": 10179.0, "city": "Berlin", "planning-area-id": 1100313}}, {"type": "Feature", "geometry": {"type": "Point", "coordinates": [13.4615989, 52.4322129]}, "properties": {"id": "4894544353", "name": "BlackWhite Danceclub", "street": "Johannisthaler Chaussee 261", "zip-code": 12351.0, "city": "Berlin", "planning-area-id": 8401139}}, {"type": "Feature", "geometry": {"type": "Point", "coordinates": [13.4545322, 52.5075831]}, "properties": {"id": "5155961321", "name": "Der Weiße Hase", "street": "", "zip-code": 10245.0, "city": "", "planning-area-id": 2500834}}, {"type": "Feature", "geometry": {"type": "Point", "coordinates": [13.4598687, 52.4764177]}, "properties": {"id": "5244438075", "name": "Internet Explorer", "street": "Ziegrastraße 11", "zip-code": 12057.0, "city": "Berlin", "planning-area-id": 8100520}}, {"type": "Feature", "geometry": {"type": "Point", "coordinates": [13.4363447, 52.4903952]}, "properties": {"id": "5305102278", "name": "Christa Kupfer", "street": "Maybachufer 48", "zip-code": 12045.0, "city": "Berlin", "planning-area-id": 8100312}}, {"type": "Feature", "geometry": {"type": "Point", "coordinates": [13.4496246, 52.497568]}, "properties": {"id": "5538064423", "name": "Burg Schnabel", "street": "", "zip-code": "", "city": "", "planning-area-id": 2300419}}, {"type": "Feature", "geometry": {"type": "Point", "coordinates": [13.4330336, 52.4806929]}, "properties": {"id": "5838965221", "name": "Loophole", "street": "Boddinstraße 60", "zip-code": 12053.0, "city": "Berlin", "planning-area-id": 8100206}}, {"type": "Feature", "geometry": {"type": "Point", "coordinates": [13.4556606, 52.5074123]}, "properties": {"id": "5873234785", "name": "Tabula Rasa (vorher Khwan)", "street": "Revaler Straße 99", "zip-code": 10245.0, "city": "Berlin", "planning-area-id": 2500834}}, {"type": "Feature", "geometry": {"type": "Point", "coordinates": [13.466302, 52.5024767]}, "properties": {"id": "5906879511", "name": "://about blank", "street": "Markgrafendamm 24c", "zip-code": 10245.0, "city": "Berlin", "planning-area-id": 2500835}}, {"type": "Feature", "geometry": {"type": "Point", "coordinates": [13.3099366, 52.5063423]}, "properties": {"id": "6032392904", "name": "KTV Bar", "street": "", "zip-code": "", "city": "", "planning-area-id": 4300623}}, {"type": "Feature", "geometry": {"type": "Point", "coordinates": [13.4473091, 52.5029373]}, "properties": {"id": "6192377288", "name": "Ava Club", "street": "Warschauer Platz 18", "zip-code": 10245.0, "city": "Berlin", "planning-area-id": 2500835}}, {"type": "Feature", "geometry": {"type": "Point", "coordinates": [13.3230448, 52.4989003]}, "properties": {"id": "6252070333", "name": "al2 eventlocation berlin", "street": "Pfalzburger Straße 83", "zip-code": 10719.0, "city": "Berlin", "planning-area-id": 4501044}}, {"type": "Feature", "geometry": {"type": "Point", "coordinates": [13.4430356, 52.5111669]}, "properties": {"id": "6341225967", "name": "Berghain", "street": "", "zip-code": 10243.0, "city": "Berlin", "planning-area-id": 2400625}}, {"type": "Feature", "geometry": {"type": "Point", "coordinates": [13.4286665, 52.5306542]}, "properties": {"id": "6381619922", "name": "Musikbrauerei", "street": "Greifswalder Straße 23A", "zip-code": 10405.0, "city": "Berlin", "planning-area-id": 3701660}}, {"type": "Feature", "geometry": {"type": "Point", "coordinates": [13.3667562, 52.5306327]}, "properties": {"id": "6381637814", "name": "Trauma Bar und Kino", "street": "Heidestraße 50", "zip-code": 10557.0, "city": "Berlin", "planning-area-id": 1200624}}, {"type": "Feature", "geometry": {"type": "Point", "coordinates": [13.3153141, 52.5060456]}, "properties": {"id": "6441603779", "name": "New West Club", "street": "Kantstraße 134", "zip-code": 10625.0, "city": "Berlin", "planning-area-id": 4300624}}, {"type": "Feature", "geometry": {"type": "Point", "coordinates": [13.4006925, 52.5299774]}, "properties": {"id": "6482231157", "name": "Cosmic Kaspar", "street": "Brunnenstraße 197-198", "zip-code": 10119.0, "city": "Berlin", "planning-area-id": 1100415}}, {"type": "Feature", "geometry": {"type": "Point", "coordinates": [13.2107129, 52.5227525]}, "properties": {"id": "6573680438", "name": "Ballhaus Spandau", "street": "Dorfstraße 5", "zip-code": 13597.0, "city": "Berlin", "planning-area-id": 5200632}}, {"type": "Feature", "geometry": {"type": "Point", "coordinates": [13.398307, 52.5222381]}, "properties": {"id": "7230925407", "name": "Mokka Mitte Bar", "street": "", "zip-code": "", "city": "", "planning-area-id": 1100310}}, {"type": "Feature", "geometry": {"type": "Point", "coordinates": [13.3660672, 52.5032248]}, "properties": {"id": "7231460513", "name": "Teledisko", "street": "", "zip-code": "", "city": "", "planning-area-id": 1100104}}, {"type": "Feature", "geometry": {"type": "Point", "coordinates": [13.4650321, 52.4970681]}, "properties": {"id": "8069721818", "name": "OST", "street": "Alt-Stralau 1-2", "zip-code": 10245.0, "city": "Berlin", "planning-area-id": 2500835}}, {"type": "Feature", "geometry": {"type": "Point", "coordinates": [13.5056519, 52.4602228]}, "properties": {"id": "9216819283", "name": "Revier Südost", "street": "Schnellerstraße 137", "zip-code": 12439.0, "city": "Berlin", "planning-area-id": 9200613}}, {"type": "Feature", "geometry": {"type": "Point", "coordinates": [13.2809654, 52.5893599]}, "properties": {"id": "9271890630", "name": "Entenkeller 2.0", "street": "", "zip-code": "", "city": "", "planning-area-id": 12200515}}, {"type": "Feature", "geometry": {"type": "Point", "coordinates": [13.416812, 52.5111747]}, "properties": {"id": "9272743117", "name": "Melancholie 2", "street": "Brückenstraße 1", "zip-code": 10179.0, "city": "", "planning-area-id": 1100313}}, {"type": "Feature", "geometry": {"type": "Point", "coordinates": [13.4593433, 52.5500165]}, "properties": {"id": "9431809851", "name": "Mekx4Two", "street": "Berliner Allee 106", "zip-code": 13088.0, "city": "Berlin", "planning-area-id": 3500936}}, {"type": "Feature", "geometry": {"type": "Point", "coordinates": [13.4976566, 52.5248136]}, "properties": {"id": "9662447417", "name": "Velvet Monkey", "street": "Herzbergstraße 53B", "zip-code": 10365.0, "city": "", "planning-area-id": 11300721}}, {"type": "Feature", "geometry": {"type": "Point", "coordinates": [13.3279584, 52.5381993]}, "properties": {"id": "9683590917", "name": "Heideglühen", "street": "Seestraße 1", "zip-code": 13353.0, "city": "Berlin", "planning-area-id": 4100101}}, {"type": "Feature", "geometry": {"type": "Point", "coordinates": [13.4453492, 52.5027268]}, "properties": {"id": "9806828894", "name": "Pirates Club", "street": "Mühlenstraße 78-80", "zip-code": 10243.0, "city": "Berlin", "planning-area-id": 2400625}}, {"type": "Feature", "geometry": {"type": "Point", "coordinates": [13.4997366, 52.4792421]}, "properties": {"id": "9830787917", "name": "MONOM", "street": "", "zip-code": "", "city": "", "planning-area-id": 9200510}}, {"type": "Feature", "geometry": {"type": "Point", "coordinates": [13.4346441, 52.5058678]}, "properties": {"id": "9895178218", "name": "spindler & klatt", "street": "Köpenicker Straße 16", "zip-code": 10997.0, "city": "Berlin", "planning-area-id": 2300316}}, {"type": "Feature", "geometry": {"type": "Point", "coordinates": [13.4228651, 52.5130757]}, "properties": {"id": "10621062970", "name": "Fitzroy", "street": "Holzmarktstraße 15", "zip-code": 10179.0, "city": "Berlin", "planning-area-id": 1100311}}, {"type": "Feature", "geometry": {"type": "Point", "coordinates": [13.2965109, 52.4752767]}, "properties": {"id": "10672763641", "name": "The Hub", "street": "", "zip-code": "", "city": "", "planning-area-id": 4400832}}, {"type": "Feature", "geometry": {"type": "Point", "coordinates": [13.4594974, 52.4775471]}, "properties": {"id": "11066768896", "name": "Falscher Fisch", "street": "Ziegrastraße 1", "zip-code": 12057.0, "city": "Berlin", "planning-area-id": 8100520}}, {"type": "Feature", "geometry": {"type": "Point", "coordinates": [13.449283, 52.4972477]}, "properties": {"id": "11308512469", "name": "ÆDEN", "street": "Schleusenufer 3", "zip-code": 10997.0, "city": "", "planning-area-id": 2300419}}, {"type": "Feature", "geometry": {"type": "Point", "coordinates": [13.3540571, 52.5509569]}, "properties": {"id": "11435535669", "name": "", "street": "", "zip-code": "", "city": "", "planning-area-id": 1401048}}, {"type": "Feature", "geometry": {"type": "Point", "coordinates": [13.4173531, 52.5115871]}, "properties": {"id": "11472992147", "name": "Nachspiel - Afterhour @KitKat Club Berlin", "street": "", "zip-code": "", "city": "", "planning-area-id": 1100313}}]}