{"type": "FeatureCollection", "features": [{"type": "Feature", "geometry": {"type": "Point", "coordinates": [13.3595911, 52.5537197]}, "properties": {"id": "278540049", "name": "Berliner Hochschule für Technik - Forum Seestraße", "street": "Seestraße 64", "zip-code": 13347.0, "city": "Berlin", "planning-area-id": 1401048}}, {"type": "Feature", "geometry": {"type": "Point", "coordinates": [13.3149908, 52.5116111]}, "properties": {"id": "516359399", "name": "bbw Hochschule", "street": "Leibnizstraße 11-13", "zip-code": 10625.0, "city": "Berlin", "planning-area-id": 4300624}}, {"type": "Feature", "geometry": {"type": "Point", "coordinates": [13.3892713, 52.5128521]}, "properties": {"id": "892568035", "name": "Hertie School", "street": "Friedrichstraße 180", "zip-code": 10117.0, "city": "Berlin", "planning-area-id": 1100206}}, {"type": "Feature", "geometry": {"type": "Point", "coordinates": [13.2939396, 52.4609534]}, "properties": {"id": "1425160484", "name": "FB Veterinärmedizin", "street": "Koserstraße 20", "zip-code": 14195.0, "city": "Berlin", "planning-area-id": 6400844}}, {"type": "Feature", "geometry": {"type": "Point", "coordinates": [13.2937859, 52.4616094]}, "properties": {"id": "1425160485", "name": "FB Geschichts- und Kulturwissenschaften", "street": "Koserstraße 20", "zip-code": 14195.0, "city": "Berlin", "planning-area-id": 6400844}}, {"type": "Feature", "geometry": {"type": "Point", "coordinates": [13.2942022, 52.4612833]}, "properties": {"id": "1425160486", "name": "FB Geschichts- und Kulturwissenschaften", "street": "Koserstraße 20", "zip-code": 14195.0, "city": "Berlin", "planning-area-id": 6400844}}, {"type": "Feature", "geometry": {"type": "Point", "coordinates": [13.392283, 52.5242273]}, "properties": {"id": "1552071417", "name": "Paritätische Akademie Berlin gGmbH", "street": "Tucholskystraße 11", "zip-code": 10117.0, "city": "Berlin", "planning-area-id": 1100309}}, {"type": "Feature", "geometry": {"type": "Point", "coordinates": [13.4035367, 52.5165709]}, "properties": {"id": "1590332395", "name": "Hochschule für Musik Hanns Eisler Berlin", "street": "", "zip-code": "", "city": "", "planning-area-id": 1100207}}, {"type": "Feature", "geometry": {"type": "Point", "coordinates": [13.4467241, 52.4938798]}, "properties": {"id": "1701292971", "name": "Code University of Applied Sciences", "street": "Lohmühlenstraße 65", "zip-code": 12435.0, "city": "Berlin", "planning-area-id": 9100101}}, {"type": "Feature", "geometry": {"type": "Point", "coordinates": [13.3787343, 52.5060988]}, "properties": {"id": "2175035189", "name": "Hochschule für Angewandte Wissenschaften Europa", "street": "Dessauer Straße 3-5", "zip-code": 10963.0, "city": "Berlin", "planning-area-id": 2100101}}, {"type": "Feature", "geometry": {"type": "Point", "coordinates": [13.3303286, 52.5118736]}, "properties": {"id": "2502014632", "name": "Erdreich", "street": "Fasanenstraße 1", "zip-code": 10623.0, "city": "Berlin", "planning-area-id": 4300622}}, {"type": "Feature", "geometry": {"type": "Point", "coordinates": [13.5338379, 52.4318038]}, "properties": {"id": "2820026576", "name": "Institut für Psychologie (HU)", "street": "Rudower Chaussee 18", "zip-code": 12489.0, "city": "Berlin", "planning-area-id": 9200715}}, {"type": "Feature", "geometry": {"type": "Point", "coordinates": [13.2945561, 52.4612333]}, "properties": {"id": "3417573998", "name": "FB Veterinärmedizin", "street": "Koserstraße 20", "zip-code": 14195.0, "city": "Berlin", "planning-area-id": 6400844}}, {"type": "Feature", "geometry": {"type": "Point", "coordinates": [13.27733, 52.4482831]}, "properties": {"id": "3428289482", "name": "CeDiS", "street": "Garystraße 35-39", "zip-code": 14195.0, "city": "Berlin", "planning-area-id": 6400843}}, {"type": "Feature", "geometry": {"type": "Point", "coordinates": [13.2917388, 52.4523204]}, "properties": {"id": "3459210437", "name": "Technische Abteilung - Referat III D", "street": "Habelschwerdter Allee 45", "zip-code": 14195.0, "city": "Berlin", "planning-area-id": 6400843}}, {"type": "Feature", "geometry": {"type": "Point", "coordinates": [13.3860747, 52.5407517]}, "properties": {"id": "4007032901", "name": "TU Berlin Fachgebiet Kraftfahrzeuge", "street": "", "zip-code": 13355.0, "city": "Berlin", "planning-area-id": 1300835}}, {"type": "Feature", "geometry": {"type": "Point", "coordinates": [13.3852139, 52.5409758]}, "properties": {"id": "4007032904", "name": "TU Berlin Institut für Bauingenieurwesen", "street": "Gustav-Meyer-Allee 25", "zip-code": 13355.0, "city": "Berlin", "planning-area-id": 1300835}}, {"type": "Feature", "geometry": {"type": "Point", "coordinates": [13.3877126, 52.512124]}, "properties": {"id": "4198545324", "name": "Großbritannien-Zentrum", "street": "Mohrenstraße 60", "zip-code": 10117.0, "city": "Berlin", "planning-area-id": 1100206}}, {"type": "Feature", "geometry": {"type": "Point", "coordinates": [13.3604031, 52.4917013]}, "properties": {"id": "4383801533", "name": "SRH Hochschule für populäre Künste", "street": "Potsdamer Straße 188", "zip-code": 10783.0, "city": "Berlin", "planning-area-id": 7100204}}, {"type": "Feature", "geometry": {"type": "Point", "coordinates": [13.3939818, 52.5203069]}, "properties": {"id": "4752986351", "name": "Institut für Kulturwissenschaft", "street": "Georgenstraße 47", "zip-code": 10117.0, "city": "Berlin", "planning-area-id": 1100206}}, {"type": "Feature", "geometry": {"type": "Point", "coordinates": [13.3940633, 52.5202537]}, "properties": {"id": "4868588243", "name": "Zentrum für Transdisziplinäre Geschlechterforschung", "street": "Georgenstraße 47", "zip-code": 10117.0, "city": "Berlin", "planning-area-id": 1100206}}, {"type": "Feature", "geometry": {"type": "Point", "coordinates": [13.3941618, 52.5203005]}, "properties": {"id": "4868588244", "name": "Fachgebiet Medienwissenschaft", "street": "Georgenstraße 47", "zip-code": 10117.0, "city": "Berlin", "planning-area-id": 1100206}}, {"type": "Feature", "geometry": {"type": "Point", "coordinates": [13.3940729, 52.5203586]}, "properties": {"id": "4868588245", "name": "Institut für Kunst- und Bildgeschichte", "street": "Georgenstraße 47", "zip-code": 10117.0, "city": "Berlin", "planning-area-id": 1100206}}, {"type": "Feature", "geometry": {"type": "Point", "coordinates": [13.3953491, 52.5126144]}, "properties": {"id": "5374911182", "name": "HU-Institut für Europäische Ethnologie", "street": "", "zip-code": "", "city": "", "planning-area-id": 1100206}}, {"type": "Feature", "geometry": {"type": "Point", "coordinates": [13.3785736, 52.5062237]}, "properties": {"id": "5761214192", "name": "Akademie für Gestaltung", "street": "Dessauer Straße 3-5", "zip-code": 10963.0, "city": "Berlin", "planning-area-id": 2100101}}, {"type": "Feature", "geometry": {"type": "Point", "coordinates": [13.4860555, 52.5237379]}, "properties": {"id": "5901612622", "name": "DHGS Deutsche Hochschule für Gesundheit und Sport", "street": "Vulkanstraße 1", "zip-code": 10367.0, "city": "Berlin", "planning-area-id": 11300721}}, {"type": "Feature", "geometry": {"type": "Point", "coordinates": [13.5074488, 52.4424249]}, "properties": {"id": "6985071469", "name": "Ateliers Meisterschüler Bildhauerei", "street": "Köpenicker Straße 10", "zip-code": 12487.0, "city": "Berlin", "planning-area-id": 9100408}}, {"type": "Feature", "geometry": {"type": "Point", "coordinates": [13.5003063, 52.4789373]}, "properties": {"id": "7298859535", "name": "Catalyst Institute For Creative Arts & Technology", "street": "", "zip-code": "", "city": "", "planning-area-id": 9200510}}, {"type": "Feature", "geometry": {"type": "Point", "coordinates": [13.3279953, 52.515954]}, "properties": {"id": "9290844955", "name": "Berlin International University of Applied Sciences", "street": "Salzufer 6", "zip-code": 10587.0, "city": "Berlin", "planning-area-id": 4300620}}, {"type": "Feature", "geometry": {"type": "Point", "coordinates": [13.2944942, 52.4570661]}, "properties": {"id": "9293478134", "name": "E-Examination Center 2", "street": "Takustraße 39", "zip-code": 14195.0, "city": "Berlin", "planning-area-id": 6400843}}, {"type": "Feature", "geometry": {"type": "Point", "coordinates": [13.2880738, 52.5819258]}, "properties": {"id": "9710759321", "name": "German University in Cairo", "street": "Am Borsigturm 162", "zip-code": 13507.0, "city": "Berlin", "planning-area-id": 12200515}}, {"type": "Feature", "geometry": {"type": "Point", "coordinates": [13.4133919, 52.5385815]}, "properties": {"id": "9775768261", "name": "New York University", "street": "Schönhauser Allee 36", "zip-code": 10435.0, "city": "Berlin", "planning-area-id": 3701555}}, {"type": "Feature", "geometry": {"type": "Point", "coordinates": [13.3954281, 52.5126159]}, "properties": {"id": "10023532185", "name": "Sonderforschungsbereich 1412 „Register“", "street": "Mohrenstraße 40/41", "zip-code": 10117.0, "city": "Berlin", "planning-area-id": 1100206}}, {"type": "Feature", "geometry": {"type": "Point", "coordinates": [13.5343539, 52.4320598]}, "properties": {"id": "10168302540", "name": "Geographisches Institut", "street": "Rudower Chaussee 16", "zip-code": 12489.0, "city": "Berlin", "planning-area-id": 9200715}}, {"type": "Feature", "geometry": {"type": "Point", "coordinates": [13.3994035, 52.5752702]}, "properties": {"id": "10606145962", "name": "Humanistische Hochschule Berlin", "street": "", "zip-code": "", "city": "", "planning-area-id": 3200206}}, {"type": "Feature", "geometry": {"type": "Point", "coordinates": [13.3301295, 52.5041961]}, "properties": {"id": "11025773384", "name": "FernUniversität in Hagen – Campus Berlin", "street": "Kurfürstendamm 21", "zip-code": 10719.0, "city": "Berlin", "planning-area-id": 4501042}}, {"type": "Feature", "geometry": {"type": "Point", "coordinates": [13.3159929, 52.4569735]}, "properties": {"id": "11382127629", "name": "Fachgebiet Pflanzenökologie", "street": "Rothenburgstraße 12", "zip-code": 12165.0, "city": "Berlin", "planning-area-id": 6100101}}]}