{"type": "FeatureCollection", "features": [{"type": "Feature", "geometry": {"type": "Point", "coordinates": [13.3888786, 52.5239216]}, "properties": {"id": "66917094", "name": "Friedrichstadt-Palast", "street": "Friedrichstraße 107", "zip-code": 10117.0, "city": "Berlin", "planning-area-id": 1100309}}, {"type": "Feature", "geometry": {"type": "Point", "coordinates": [13.3886211, 52.5236239]}, "properties": {"id": "66917098", "name": "Quatsch Comedy Club", "street": "Friedrichstraße 107", "zip-code": 10117.0, "city": "Berlin", "planning-area-id": 1100309}}, {"type": "Feature", "geometry": {"type": "Point", "coordinates": [13.3885051, 52.5206669]}, "properties": {"id": "66917115", "name": "Kabarett-Theater Distel", "street": "Friedrichstraße 101", "zip-code": 10117.0, "city": "Berlin", "planning-area-id": 1100206}}, {"type": "Feature", "geometry": {"type": "Point", "coordinates": [13.3889021, 52.5207714]}, "properties": {"id": "66917188", "name": "Admiralspalast", "street": "Friedrichstraße 101", "zip-code": 10117.0, "city": "Berlin", "planning-area-id": 1100206}}, {"type": "Feature", "geometry": {"type": "Point", "coordinates": [13.2707514, 52.5088651]}, "properties": {"id": "79808389", "name": "Die Wühlmäuse", "street": "Pommernallee 2-4", "zip-code": 14052.0, "city": "Berlin", "planning-area-id": 4200310}}, {"type": "Feature", "geometry": {"type": "Point", "coordinates": [13.3862714, 52.4990938]}, "properties": {"id": "173985100", "name": "HAU 2 (Hebbel am Ufer)", "street": "Hallesches Ufer 32", "zip-code": 10963.0, "city": "Berlin", "planning-area-id": 2100101}}, {"type": "Feature", "geometry": {"type": "Point", "coordinates": [13.4011409, 52.5258112]}, "properties": {"id": "229948256", "name": "Sophiensæle", "street": "Sophienstraße 18", "zip-code": 10178.0, "city": "Berlin", "planning-area-id": 1100309}}, {"type": "Feature", "geometry": {"type": "Point", "coordinates": [13.4399455, 52.5182037]}, "properties": {"id": "259797763", "name": "Berliner Kriminaltheater", "street": "Palisadenstraße 48", "zip-code": 10243.0, "city": "Berlin", "planning-area-id": 2400521}}, {"type": "Feature", "geometry": {"type": "Point", "coordinates": [13.3022747, 52.4986606]}, "properties": {"id": "272406395", "name": "Schaubühne am Lehniner Platz", "street": "Kurfürstendamm 153", "zip-code": 10709.0, "city": "Berlin", "planning-area-id": 4500938}}, {"type": "Feature", "geometry": {"type": "Point", "coordinates": [13.4430035, 52.4976425]}, "properties": {"id": "272807733", "name": "Ratibortheater", "street": "Cuvrystraße 20a", "zip-code": 10997.0, "city": "Berlin", "planning-area-id": 2300419}}, {"type": "Feature", "geometry": {"type": "Point", "coordinates": [13.4721701, 52.5142329]}, "properties": {"id": "282754671", "name": "Verlängertes Wohnzimmer", "street": "Frankfurter Allee 91", "zip-code": 10247.0, "city": "Berlin", "planning-area-id": 2500729}}, {"type": "Feature", "geometry": {"type": "Point", "coordinates": [13.3083771, 52.5121441]}, "properties": {"id": "289404068", "name": "Deutsche Oper Berlin", "street": "Bismarckstraße 35", "zip-code": 10627.0, "city": "Berlin", "planning-area-id": 4300621}}, {"type": "Feature", "geometry": {"type": "Point", "coordinates": [13.4782731, 52.5170913]}, "properties": {"id": "290381165", "name": "Theater an der Parkaue", "street": "Parkaue 31", "zip-code": 10367.0, "city": "Berlin", "planning-area-id": 11300722}}, {"type": "Feature", "geometry": {"type": "Point", "coordinates": [13.366735, 52.4881169]}, "properties": {"id": "303027574", "name": "Scheinbar Varieté e.V.", "street": "", "zip-code": 10829.0, "city": "Berlin", "planning-area-id": 7200414}}, {"type": "Feature", "geometry": {"type": "Point", "coordinates": [13.3883479, 52.4873738]}, "properties": {"id": "315146496", "name": "Theater Thikwa (F40)", "street": "Fidicinstraße 40", "zip-code": 10965.0, "city": "Berlin", "planning-area-id": 2200211}}, {"type": "Feature", "geometry": {"type": "Point", "coordinates": [13.3869856, 52.5156648]}, "properties": {"id": "318525456", "name": "Komische Oper Berlin", "street": "Behrenstraße 55-57", "zip-code": 10117.0, "city": "Berlin", "planning-area-id": 1100206}}, {"type": "Feature", "geometry": {"type": "Point", "coordinates": [13.3819066, 52.5243546]}, "properties": {"id": "345806623", "name": "Deutsches Theater", "street": "Schumannstraße 13a", "zip-code": 10117.0, "city": "Berlin", "planning-area-id": 1100308}}, {"type": "Feature", "geometry": {"type": "Point", "coordinates": [13.464371, 52.5166137]}, "properties": {"id": "428511003", "name": "TIK: Theater im Kino", "street": "", "zip-code": "", "city": "Berlin", "planning-area-id": 2500728}}, {"type": "Feature", "geometry": {"type": "Point", "coordinates": [13.413048, 52.5583825]}, "properties": {"id": "454167248", "name": "Vineta Theater", "street": "", "zip-code": "", "city": "", "planning-area-id": 3400826}}, {"type": "Feature", "geometry": {"type": "Point", "coordinates": [13.3223214, 52.4733641]}, "properties": {"id": "474378383", "name": "Kleines Theater", "street": "Südwestkorso 64", "zip-code": 12161.0, "city": "Berlin", "planning-area-id": 7300515}}, {"type": "Feature", "geometry": {"type": "Point", "coordinates": [13.439333, 52.4775631]}, "properties": {"id": "474801032", "name": "Neuköllner Oper", "street": "Karl-Marx-Straße 131-133", "zip-code": 12043.0, "city": "Berlin", "planning-area-id": 8100416}}, {"type": "Feature", "geometry": {"type": "Point", "coordinates": [13.4136365, 52.5399039]}, "properties": {"id": "476027573", "name": "Theater Rambazamba", "street": "", "zip-code": "", "city": "", "planning-area-id": 3701555}}, {"type": "Feature", "geometry": {"type": "Point", "coordinates": [13.4107279, 52.5398598]}, "properties": {"id": "510154873", "name": "Volksbühne im Prater", "street": "Kastanienallee 7-9", "zip-code": 10435.0, "city": "Berlin", "planning-area-id": 3701554}}, {"type": "Feature", "geometry": {"type": "Point", "coordinates": [13.3954981, 52.5185239]}, "properties": {"id": "545733901", "name": "Theater im Palais", "street": "Am Festungsgraben 1", "zip-code": 10117.0, "city": "Berlin", "planning-area-id": 1100206}}, {"type": "Feature", "geometry": {"type": "Point", "coordinates": [13.5130035, 52.4608983]}, "properties": {"id": "549931287", "name": "SpreeLacArt Kulturwerk Schöneweide", "street": "", "zip-code": "", "city": "", "planning-area-id": 9200510}}, {"type": "Feature", "geometry": {"type": "Point", "coordinates": [13.3285705, 52.5061225]}, "properties": {"id": "572221430", "name": "Vaganten Bühne", "street": "Kantstraße 12a", "zip-code": 10623.0, "city": "Berlin", "planning-area-id": 4300622}}, {"type": "Feature", "geometry": {"type": "Point", "coordinates": [13.398065, 52.535733]}, "properties": {"id": "613229739", "name": "Theater Mirakulum", "street": "Brunnenstraße 35", "zip-code": 10115.0, "city": "Berlin", "planning-area-id": 1100416}}, {"type": "Feature", "geometry": {"type": "Point", "coordinates": [13.402083, 52.524042]}, "properties": {"id": "615148215", "name": "Chamäleon", "street": "Rosenthaler Straße 40-41", "zip-code": 10178.0, "city": "Berlin", "planning-area-id": 1100309}}, {"type": "Feature", "geometry": {"type": "Point", "coordinates": [13.323503, 52.5103384]}, "properties": {"id": "619119805", "name": "Renaissance-Theater Berlin", "street": "Knesebeckstraße 100", "zip-code": 10623.0, "city": "Berlin", "planning-area-id": 4300624}}, {"type": "Feature", "geometry": {"type": "Point", "coordinates": [13.3122082, 52.4894386]}, "properties": {"id": "695831689", "name": "Theater Coupé", "street": "Hohenzollerndamm 177", "zip-code": 10713.0, "city": "Berlin", "planning-area-id": 4501146}}, {"type": "Feature", "geometry": {"type": "Point", "coordinates": [13.3876998, 52.4936405]}, "properties": {"id": "735151601", "name": "BKA-Theater", "street": "Mehringdamm 34", "zip-code": 10961.0, "city": "Berlin", "planning-area-id": 2200208}}, {"type": "Feature", "geometry": {"type": "Point", "coordinates": [13.4025511, 52.5250687]}, "properties": {"id": "833111849", "name": "Puppentheater Firlefanz", "street": "Sophienstraße 10", "zip-code": 10178.0, "city": "Berlin", "planning-area-id": 1100309}}, {"type": "Feature", "geometry": {"type": "Point", "coordinates": [13.4213249, 52.5020031]}, "properties": {"id": "873444364", "name": "Ballhaus Naunynstraße", "street": "Naunynstraße 27", "zip-code": 10997.0, "city": "Berlin", "planning-area-id": 2300314}}, {"type": "Feature", "geometry": {"type": "Point", "coordinates": [13.420827, 52.5016868]}, "properties": {"id": "873444370", "name": "Hoftheater Kreuzberg", "street": "", "zip-code": 10997.0, "city": "Berlin", "planning-area-id": 2300314}}, {"type": "Feature", "geometry": {"type": "Point", "coordinates": [13.3678205, 52.4881467]}, "properties": {"id": "894765631", "name": "AHA-Berlin e.V.", "street": "Monumentenstraße 13", "zip-code": 10829.0, "city": "Berlin", "planning-area-id": 7200414}}, {"type": "Feature", "geometry": {"type": "Point", "coordinates": [13.3959797, 52.5189862]}, "properties": {"id": "895507273", "name": "Maxim Gorki Theater - Studio", "street": "", "zip-code": "", "city": "", "planning-area-id": 1100206}}, {"type": "Feature", "geometry": {"type": "Point", "coordinates": [13.3965478, 52.529684]}, "properties": {"id": "895509940", "name": "Acker Stadt Palast - Freie Bühne Mitte .eV", "street": "", "zip-code": "", "city": "", "planning-area-id": 1100415}}, {"type": "Feature", "geometry": {"type": "Point", "coordinates": [13.401433, 52.5654952]}, "properties": {"id": "899133792", "name": "Zimmer 16", "street": "", "zip-code": "", "city": "", "planning-area-id": 3400721}}, {"type": "Feature", "geometry": {"type": "Point", "coordinates": [13.4399161, 52.4770235]}, "properties": {"id": "910361469", "name": "Heimathafen Neukölln", "street": "Karl-Marx-Straße 141", "zip-code": 12043.0, "city": "Berlin", "planning-area-id": 8100416}}, {"type": "Feature", "geometry": {"type": "Point", "coordinates": [13.3374894, 52.5043712]}, "properties": {"id": "910725856", "name": "Die Stachelschweine", "street": "Tauentzienstraße 9-12", "zip-code": 10789.0, "city": "Berlin", "planning-area-id": 4501042}}, {"type": "Feature", "geometry": {"type": "Point", "coordinates": [13.2025072, 52.5354834]}, "properties": {"id": "945390395", "name": "Theatersaal des Kulturhauses Spandau", "street": "", "zip-code": "", "city": "", "planning-area-id": 5100316}}, {"type": "Feature", "geometry": {"type": "Point", "coordinates": [13.4307318, 52.5525607]}, "properties": {"id": "945402693", "name": "BrotfabrikBühne", "street": "", "zip-code": 13086.0, "city": "Berlin", "planning-area-id": 3500934}}, {"type": "Feature", "geometry": {"type": "Point", "coordinates": [13.2974764, 52.441939]}, "properties": {"id": "946790935", "name": "Theater Lichterfelde", "street": "Drakestraße 49", "zip-code": 12205.0, "city": "Berlin", "planning-area-id": 6300634}}, {"type": "Feature", "geometry": {"type": "Point", "coordinates": [13.3882686, 52.4919181]}, "properties": {"id": "977686791", "name": "Mehringhof Theater", "street": "Gneisenaustraße 2a", "zip-code": 10961.0, "city": "Berlin", "planning-area-id": 2200211}}, {"type": "Feature", "geometry": {"type": "Point", "coordinates": [13.40783, 52.516541]}, "properties": {"id": "1096182603", "name": "Theater im Nikolaiviertel", "street": "", "zip-code": "", "city": "", "planning-area-id": 1100310}}, {"type": "Feature", "geometry": {"type": "Point", "coordinates": [13.3213047, 52.4667595]}, "properties": {"id": "1154118481", "name": "Zimmertheater Steglitz", "street": "Bornstraße 17", "zip-code": 12163.0, "city": "Berlin", "planning-area-id": 6100103}}, {"type": "Feature", "geometry": {"type": "Point", "coordinates": [13.4149784, 52.5430767]}, "properties": {"id": "1158225994", "name": "Ballhaus Ost", "street": "Pappelallee 15", "zip-code": 10437.0, "city": "Berlin", "planning-area-id": 3601347}}, {"type": "Feature", "geometry": {"type": "Point", "coordinates": [13.4249827, 52.4911319]}, "properties": {"id": "1175152683", "name": "Wohnzimmerclub", "street": "", "zip-code": "", "city": "", "planning-area-id": 8100311}}, {"type": "Feature", "geometry": {"type": "Point", "coordinates": [13.4508437, 52.5166443]}, "properties": {"id": "1187935417", "name": "Berliner Schnauze", "street": "", "zip-code": "", "city": "", "planning-area-id": 2400522}}, {"type": "Feature", "geometry": {"type": "Point", "coordinates": [13.295502, 52.5119023]}, "properties": {"id": "1226781760", "name": "Zauberlounge", "street": "Horstweg 3", "zip-code": 14059.0, "city": "Berlin", "planning-area-id": 4300414}}, {"type": "Feature", "geometry": {"type": "Point", "coordinates": [13.3881082, 52.4873295]}, "properties": {"id": "1246340370", "name": "F40 - English Theatre Berlin", "street": "Fidicinstraße 40", "zip-code": 10965.0, "city": "Berlin", "planning-area-id": 2200211}}, {"type": "Feature", "geometry": {"type": "Point", "coordinates": [13.4651975, 52.5247268]}, "properties": {"id": "1246402201", "name": "Das Weite Theater", "street": "Storkower Str 207", "zip-code": 10369.0, "city": "Berlin", "planning-area-id": 11300618}}, {"type": "Feature", "geometry": {"type": "Point", "coordinates": [13.4487808, 52.5118136]}, "properties": {"id": "1246402202", "name": "Theater der kleinen Form", "street": "Gubener Straße 45", "zip-code": 10243.0, "city": "Berlin", "planning-area-id": 2400624}}, {"type": "Feature", "geometry": {"type": "Point", "coordinates": [13.3645476, 52.4919756]}, "properties": {"id": "1246402203", "name": "Theater O-TonArt", "street": "Kulmer Straße 20a", "zip-code": 10783.0, "city": "Berlin", "planning-area-id": 7100206}}, {"type": "Feature", "geometry": {"type": "Point", "coordinates": [13.4162235, 52.5349848]}, "properties": {"id": "1246402205", "name": "Theater o.N.", "street": "Kollwitzstraße 53", "zip-code": 10405.0, "city": "Berlin", "planning-area-id": 3701556}}, {"type": "Feature", "geometry": {"type": "Point", "coordinates": [13.418434, 52.5318164]}, "properties": {"id": "1246402206", "name": "bat-Studiotheater", "street": "Belforter Straße 15", "zip-code": 10405.0, "city": "Berlin", "planning-area-id": 3701556}}, {"type": "Feature", "geometry": {"type": "Point", "coordinates": [13.3856884, 52.497339]}, "properties": {"id": "1246402207", "name": "HAU 3 (Hebbel am Ufer)", "street": "Tempelhofer Ufer 10", "zip-code": 10963.0, "city": "Berlin", "planning-area-id": 2200208}}, {"type": "Feature", "geometry": {"type": "Point", "coordinates": [13.3289883, 52.5098457]}, "properties": {"id": "1246402211", "name": "UNI.T", "street": "Fasanenstraße 1b", "zip-code": 10623.0, "city": "Berlin", "planning-area-id": 4300622}}, {"type": "Feature", "geometry": {"type": "Point", "coordinates": [13.4162666, 52.4925187]}, "properties": {"id": "1256737686", "name": "Kleinkunstkeller", "street": "", "zip-code": "", "city": "", "planning-area-id": 2200213}}, {"type": "Feature", "geometry": {"type": "Point", "coordinates": [13.3633056, 52.5434945]}, "properties": {"id": "1263355907", "name": "Prime Time Theater", "street": "Müllerstraße 163", "zip-code": 13353.0, "city": "Berlin", "planning-area-id": 1401047}}, {"type": "Feature", "geometry": {"type": "Point", "coordinates": [13.4319584, 52.4860391]}, "properties": {"id": "1289390673", "name": "Die Musenstube", "street": "", "zip-code": "", "city": "", "planning-area-id": 8100312}}, {"type": "Feature", "geometry": {"type": "Point", "coordinates": [13.4277627, 52.48842]}, "properties": {"id": "1303363193", "name": "Theater im Keller", "street": "Weserstraße 211", "zip-code": 12047.0, "city": "Berlin", "planning-area-id": 8100311}}, {"type": "Feature", "geometry": {"type": "Point", "coordinates": [13.3721193, 52.5072208]}, "properties": {"id": "1336883756", "name": "Stage Theater am Potsdamer Platz", "street": "Marlene-Dietrich-Platz 1", "zip-code": 10785.0, "city": "Berlin", "planning-area-id": 1100102}}, {"type": "Feature", "geometry": {"type": "Point", "coordinates": [13.4214048, 52.4967578]}, "properties": {"id": "1336890158", "name": "Dancetheater LaborGRAS.com", "street": "", "zip-code": "", "city": "", "planning-area-id": 2300417}}, {"type": "Feature", "geometry": {"type": "Point", "coordinates": [13.3813992, 52.524275]}, "properties": {"id": "1445221277", "name": "Kammerspiele", "street": "Schumannstraße 14a", "zip-code": 10117.0, "city": "Berlin", "planning-area-id": 1100308}}, {"type": "Feature", "geometry": {"type": "Point", "coordinates": [13.3950767, 52.5190141]}, "properties": {"id": "1457124704", "name": "Maxim-Gorki-Theater", "street": "Am Festungsgraben 2", "zip-code": 10117.0, "city": "Berlin", "planning-area-id": 1100206}}, {"type": "Feature", "geometry": {"type": "Point", "coordinates": [13.4183206, 52.5514416]}, "properties": {"id": "1486087544", "name": "BühnenRausch", "street": "Erich-Weinert-Straße 27", "zip-code": 10439.0, "city": "Berlin", "planning-area-id": 3601243}}, {"type": "Feature", "geometry": {"type": "Point", "coordinates": [13.5682593, 52.5713652]}, "properties": {"id": "1737242128", "name": "Berliner Tschechow Theater", "street": "Märkische Allee 410", "zip-code": 12689.0, "city": "Berlin", "planning-area-id": 10100102}}, {"type": "Feature", "geometry": {"type": "Point", "coordinates": [13.3267044, 52.4941597]}, "properties": {"id": "1739006720", "name": "Theater unterm Turm", "street": "", "zip-code": "", "city": "", "planning-area-id": 4501149}}, {"type": "Feature", "geometry": {"type": "Point", "coordinates": [13.3479976, 52.5033188]}, "properties": {"id": "1746712005", "name": "Kleine Nachtrevue", "street": "Kurfürstenstraße 116", "zip-code": 10787.0, "city": "Berlin", "planning-area-id": 7100101}}, {"type": "Feature", "geometry": {"type": "Point", "coordinates": [13.381181, 52.5016098]}, "properties": {"id": "1871854816", "name": "Tempodrom", "street": "Möckernstraße 10", "zip-code": 10963.0, "city": "Berlin", "planning-area-id": 2100101}}, {"type": "Feature", "geometry": {"type": "Point", "coordinates": [13.410003, 52.5298014]}, "properties": {"id": "1945796840", "name": "Cosmic Comedy Club", "street": "Schönhauser Allee 184", "zip-code": 10119.0, "city": "Berlin", "planning-area-id": 3701554}}, {"type": "Feature", "geometry": {"type": "Point", "coordinates": [13.2899708, 52.5182934]}, "properties": {"id": "1948871674", "name": "Freie Theateranstalten Berlin", "street": "Klausenerplatz 19", "zip-code": 14059.0, "city": "Berlin", "planning-area-id": 4300413}}, {"type": "Feature", "geometry": {"type": "Point", "coordinates": [13.3595034, 52.5342712]}, "properties": {"id": "2093602596", "name": "Fabriktheater", "street": "Lehrter Straße 35", "zip-code": 10557.0, "city": "Berlin", "planning-area-id": 1200624}}, {"type": "Feature", "geometry": {"type": "Point", "coordinates": [13.3586326, 52.5205352]}, "properties": {"id": "2395299465", "name": "Theater Artenschutz", "street": "", "zip-code": 10557.0, "city": "Berlin", "planning-area-id": 1200628}}, {"type": "Feature", "geometry": {"type": "Point", "coordinates": [13.6000868, 52.4744133]}, "properties": {"id": "2424327231", "name": "Kabarett Knieriem", "street": "", "zip-code": "", "city": "", "planning-area-id": 10400941}}, {"type": "Feature", "geometry": {"type": "Point", "coordinates": [13.376389, 52.487038]}, "properties": {"id": "2488873131", "name": "Garn Theater", "street": "Katzbachstraße 19", "zip-code": 10965.0, "city": "Berlin", "planning-area-id": 2200209}}, {"type": "Feature", "geometry": {"type": "Point", "coordinates": [13.4119171, 52.527024]}, "properties": {"id": "2627106420", "name": "Volksbühne am Rosa-Luxemburg-Platz", "street": "Linienstraße 227", "zip-code": 10178.0, "city": "Berlin", "planning-area-id": 1100310}}, {"type": "Feature", "geometry": {"type": "Point", "coordinates": [13.4306601, 52.4824948]}, "properties": {"id": "2649739384", "name": "Keller", "street": "Karl-Marx-Straße 58", "zip-code": 12043.0, "city": "Berlin", "planning-area-id": 8100206}}, {"type": "Feature", "geometry": {"type": "Point", "coordinates": [13.307806, 52.5133026]}, "properties": {"id": "2715760752", "name": "Tischlerei", "street": "", "zip-code": "", "city": "", "planning-area-id": 4300621}}, {"type": "Feature", "geometry": {"type": "Point", "coordinates": [13.4422678, 52.5161677]}, "properties": {"id": "2733888748", "name": "Studiobühne", "street": "", "zip-code": "", "city": "", "planning-area-id": 2400624}}, {"type": "Feature", "geometry": {"type": "Point", "coordinates": [13.4389797, 52.540836]}, "properties": {"id": "2763752659", "name": "Schaubude Berlin", "street": "Greifswalder Straße 81-84", "zip-code": 10405.0, "city": "Berlin", "planning-area-id": 3601449}}, {"type": "Feature", "geometry": {"type": "Point", "coordinates": [13.2050769, 52.4249086]}, "properties": {"id": "2781293656", "name": "Theater Nikolassee", "street": "Kirchweg 6", "zip-code": 14129.0, "city": "Berlin", "planning-area-id": 6400737}}, {"type": "Feature", "geometry": {"type": "Point", "coordinates": [13.2894916, 52.4523699]}, "properties": {"id": "2877333455", "name": "Theaterhof", "street": "", "zip-code": "", "city": "", "planning-area-id": 6400843}}, {"type": "Feature", "geometry": {"type": "Point", "coordinates": [13.4249436, 52.5347918]}, "properties": {"id": "2878820301", "name": "Prenzlkasper", "street": "Marienburger Straße 39", "zip-code": 10405.0, "city": "Berlin", "planning-area-id": 3701658}}, {"type": "Feature", "geometry": {"type": "Point", "coordinates": [13.2050154, 52.5390911]}, "properties": {"id": "2886633616", "name": "Spandauer Theater Varianta", "street": "", "zip-code": "", "city": "", "planning-area-id": 5100316}}, {"type": "Feature", "geometry": {"type": "Point", "coordinates": [13.2835311, 52.5918975]}, "properties": {"id": "2891401081", "name": "Kulturversteck Tegel", "street": "Schloßstraße 9", "zip-code": 13507.0, "city": "Berlin", "planning-area-id": 12200515}}, {"type": "Feature", "geometry": {"type": "Point", "coordinates": [13.2698924, 52.47268]}, "properties": {"id": "2918303868", "name": "Freilichtbühne", "street": "", "zip-code": "", "city": "", "planning-area-id": 4400729}}, {"type": "Feature", "geometry": {"type": "Point", "coordinates": [13.372025, 52.5078995]}, "properties": {"id": "3116790122", "name": "Sternberg - Theater in der Spielbank", "street": "Marlene-Dietrich-Platz 1", "zip-code": 10785.0, "city": "Berlin", "planning-area-id": 1100102}}, {"type": "Feature", "geometry": {"type": "Point", "coordinates": [13.302854, 52.5167042]}, "properties": {"id": "3312400192", "name": "Puppentheater Berlin", "street": "Gierkeplatz 2", "zip-code": 10585.0, "city": "Berlin", "planning-area-id": 4300621}}, {"type": "Feature", "geometry": {"type": "Point", "coordinates": [13.4120357, 52.5505948]}, "properties": {"id": "3464946992", "name": "Puppentheater Felicio", "street": "Schivelbeiner Straße 45", "zip-code": 10439.0, "city": "Berlin", "planning-area-id": 3601141}}, {"type": "Feature", "geometry": {"type": "Point", "coordinates": [13.3017312, 52.500295]}, "properties": {"id": "3487575693", "name": "Zaubertheater Igor Jedlin", "street": "Roscherstraße 7", "zip-code": 10629.0, "city": "Berlin", "planning-area-id": 4500936}}, {"type": "Feature", "geometry": {"type": "Point", "coordinates": [13.2939896, 52.5039194]}, "properties": {"id": "3716477056", "name": "Spiegelsalon", "street": "Friedbergstraße 29", "zip-code": 14057.0, "city": "Berlin", "planning-area-id": 4300416}}, {"type": "Feature", "geometry": {"type": "Point", "coordinates": [13.4430391, 52.4782137]}, "properties": {"id": "3763639067", "name": "Ida Nowhere", "street": "Donaustraße 79", "zip-code": 12043.0, "city": "Berlin", "planning-area-id": 8100415}}, {"type": "Feature", "geometry": {"type": "Point", "coordinates": [13.364582, 52.5021802]}, "properties": {"id": "3837620170", "name": "Wintergarten Varieté", "street": "Potsdamer Straße 96", "zip-code": 10785.0, "city": "Berlin", "planning-area-id": 1100103}}, {"type": "Feature", "geometry": {"type": "Point", "coordinates": [13.411322, 52.531674]}, "properties": {"id": "3925275757", "name": "Pfefferberg Theater", "street": "Schönhauser Allee 176", "zip-code": 10119.0, "city": "Berlin", "planning-area-id": 3701554}}, {"type": "Feature", "geometry": {"type": "Point", "coordinates": [13.4222385, 52.4897927]}, "properties": {"id": "4065074489", "name": "Fliegendes Theater", "street": "Urbanstraße 100", "zip-code": 10967.0, "city": "Berlin", "planning-area-id": 2200213}}, {"type": "Feature", "geometry": {"type": "Point", "coordinates": [13.4490623, 52.4737355]}, "properties": {"id": "4151694509", "name": "Kaspertheater Rixdorf", "street": "", "zip-code": "", "city": "", "planning-area-id": 8100416}}, {"type": "Feature", "geometry": {"type": "Point", "coordinates": [13.4094134, 52.5131377]}, "properties": {"id": "4217051191", "name": "Kreativhaus e.V.", "street": "", "zip-code": 10179.0, "city": "", "planning-area-id": 1100312}}, {"type": "Feature", "geometry": {"type": "Point", "coordinates": [13.4667402, 52.5057161]}, "properties": {"id": "4243480894", "name": "Zebrano-Theater", "street": "Sonntagstraße 8", "zip-code": 10245.0, "city": "Berlin", "planning-area-id": 2500834}}, {"type": "Feature", "geometry": {"type": "Point", "coordinates": [13.4112804, 52.5017766]}, "properties": {"id": "4398530368", "name": "Die Etage", "street": "Ritterstraße 12-14", "zip-code": 10969.0, "city": "Berlin", "planning-area-id": 2100104}}, {"type": "Feature", "geometry": {"type": "Point", "coordinates": [13.4311632, 52.5519035]}, "properties": {"id": "4456147960", "name": "Theater im Delphi", "street": "Gustav-Adolf-Straße 2", "zip-code": 13086.0, "city": "Berlin", "planning-area-id": 3500934}}, {"type": "Feature", "geometry": {"type": "Point", "coordinates": [13.3933683, 52.4897764]}, "properties": {"id": "4465297306", "name": "Theater im Bergmannkiez", "street": "", "zip-code": "", "city": "", "planning-area-id": 2200211}}, {"type": "Feature", "geometry": {"type": "Point", "coordinates": [13.3943591, 52.5258054]}, "properties": {"id": "4508022333", "name": "Galli Theater Berlin", "street": "Oranienburger Straße 32", "zip-code": 10117.0, "city": "Berlin", "planning-area-id": 1100309}}, {"type": "Feature", "geometry": {"type": "Point", "coordinates": [13.3963671, 52.5154359]}, "properties": {"id": "4716921527", "name": "Pierre Boulez Saal", "street": "Französische Straße 33d", "zip-code": 10117.0, "city": "Berlin", "planning-area-id": 1100206}}, {"type": "Feature", "geometry": {"type": "Point", "coordinates": [13.3500004, 52.5023061]}, "properties": {"id": "4745230362", "name": "Russische Bühne", "street": "", "zip-code": "", "city": "", "planning-area-id": 7100102}}, {"type": "Feature", "geometry": {"type": "Point", "coordinates": [13.3965864, 52.5662041]}, "properties": {"id": "4831523454", "name": "Theater BOKA", "street": "Wollankstraße 112", "zip-code": 13187.0, "city": "Berlin", "planning-area-id": 3400721}}, {"type": "Feature", "geometry": {"type": "Point", "coordinates": [13.4540503, 52.5076794]}, "properties": {"id": "4946716108", "name": "Zirkus Zack", "street": "Revaler Straße 99", "zip-code": "", "city": "", "planning-area-id": 2500834}}, {"type": "Feature", "geometry": {"type": "Point", "coordinates": [13.307745, 52.4716475]}, "properties": {"id": "4948140225", "name": "Jaro Theater", "street": "Schlangenbader Straße 30", "zip-code": "", "city": "", "planning-area-id": 4400833}}, {"type": "Feature", "geometry": {"type": "Point", "coordinates": [13.3739474, 52.5515969]}, "properties": {"id": "5140754521", "name": "Piano Salon Christophori", "street": "Uferstraße 8", "zip-code": 13357.0, "city": "Berlin", "planning-area-id": 1401044}}, {"type": "Feature", "geometry": {"type": "Point", "coordinates": [13.4040123, 52.5490912]}, "properties": {"id": "5249079050", "name": "Haus der Sinne", "street": "", "zip-code": "", "city": "", "planning-area-id": 3601142}}, {"type": "Feature", "geometry": {"type": "Point", "coordinates": [13.4119798, 52.5175993]}, "properties": {"id": "5249346659", "name": "TD Berlin", "street": "Klosterstraße 44", "zip-code": 10179.0, "city": "Berlin", "planning-area-id": 1100310}}, {"type": "Feature", "geometry": {"type": "Point", "coordinates": [13.3864077, 52.5577738]}, "properties": {"id": "6306436221", "name": "Ballhaus Prinzenallee", "street": "Prinzenallee 33", "zip-code": 13359.0, "city": "Berlin", "planning-area-id": 1300732}}, {"type": "Feature", "geometry": {"type": "Point", "coordinates": [13.5744674, 52.4452074]}, "properties": {"id": "6352638453", "name": "Schlossplatztheater", "street": "Alt-Köpenick 31", "zip-code": 12555.0, "city": "Berlin", "planning-area-id": 9401534}}, {"type": "Feature", "geometry": {"type": "Point", "coordinates": [13.3052748, 52.5221046]}, "properties": {"id": "6512247318", "name": "Globe Theater Berlin", "street": "", "zip-code": "", "city": "", "planning-area-id": 4300518}}, {"type": "Feature", "geometry": {"type": "Point", "coordinates": [13.3295679, 52.5312654]}, "properties": {"id": "6946245046", "name": "Theater X", "street": "Wiclefstraße 32", "zip-code": 10551.0, "city": "Berlin", "planning-area-id": 1200519}}, {"type": "Feature", "geometry": {"type": "Point", "coordinates": [13.3733397, 52.506926]}, "properties": {"id": "7077883098", "name": "Stage Bluemax Theater", "street": "Marlene-Dietrich-Platz 4", "zip-code": 10785.0, "city": "Berlin", "planning-area-id": 1100102}}, {"type": "Feature", "geometry": {"type": "Point", "coordinates": [13.3337683, 52.5231686]}, "properties": {"id": "7212405461", "name": "Kulturbremse", "street": "Jagowstraße 29", "zip-code": 10555.0, "city": "Berlin", "planning-area-id": 1200522}}, {"type": "Feature", "geometry": {"type": "Point", "coordinates": [13.3319721, 52.4766714]}, "properties": {"id": "7546100377", "name": "Kammermusiksaal Friedenau", "street": "Isoldestraße 9", "zip-code": 12159.0, "city": "Berlin", "planning-area-id": 7300517}}, {"type": "Feature", "geometry": {"type": "Point", "coordinates": [13.4009767, 52.5334318]}, "properties": {"id": "8589954014", "name": "ACUD Theater", "street": "Veteranenstraße 21", "zip-code": 10119.0, "city": "Berlin", "planning-area-id": 1100416}}, {"type": "Feature", "geometry": {"type": "Point", "coordinates": [13.2662477, 52.5106061]}, "properties": {"id": "8699014134", "name": "", "street": "", "zip-code": "", "city": "", "planning-area-id": 4200310}}, {"type": "Feature", "geometry": {"type": "Point", "coordinates": [13.2808102, 52.6259069]}, "properties": {"id": "8909423107", "name": "Papiertheater Invisius", "street": "Forstweg 36", "zip-code": 13465.0, "city": "Berlin", "planning-area-id": 12400720}}, {"type": "Feature", "geometry": {"type": "Point", "coordinates": [13.4010458, 52.53339]}, "properties": {"id": "9573608156", "name": "Lettrétage", "street": "", "zip-code": "", "city": "", "planning-area-id": 1100416}}, {"type": "Feature", "geometry": {"type": "Point", "coordinates": [13.3299441, 52.4531188]}, "properties": {"id": "9656229274", "name": "Alpha Nova Werkstatttheter", "street": "Albrechtstraße 28", "zip-code": 12167.0, "city": "Berlin", "planning-area-id": 6100207}}, {"type": "Feature", "geometry": {"type": "Point", "coordinates": [13.3254173, 52.4950494]}, "properties": {"id": "9748411426", "name": "Der Theater Salon", "street": "", "zip-code": "", "city": "", "planning-area-id": 4501045}}, {"type": "Feature", "geometry": {"type": "Point", "coordinates": [13.3363405, 52.4728137]}, "properties": {"id": "10098812511", "name": "Theater Morgenstern", "street": "Rheinstraße 1", "zip-code": 12159.0, "city": "Berlin", "planning-area-id": 7300517}}, {"type": "Feature", "geometry": {"type": "Point", "coordinates": [13.2906051, 52.4983247]}, "properties": {"id": "10128714287", "name": "Puppenbühnchen", "street": "Georg-Wilhelm-Straße 4", "zip-code": 10711.0, "city": "Berlin", "planning-area-id": 4500937}}, {"type": "Feature", "geometry": {"type": "Point", "coordinates": [13.4222367, 52.4880488]}, "properties": {"id": "10167589317", "name": "Tatwerk Theater", "street": "Hasenheide 9", "zip-code": 10967.0, "city": "", "planning-area-id": 2200212}}, {"type": "Feature", "geometry": {"type": "Point", "coordinates": [13.582361, 52.4420034]}, "properties": {"id": "10262733380", "name": "Stadttheater Cöpenick", "street": "", "zip-code": "", "city": "", "planning-area-id": 9401534}}, {"type": "Feature", "geometry": {"type": "Point", "coordinates": [13.4344545, 52.5040108]}, "properties": {"id": "10316977904", "name": "theaterforum kreuzberg", "street": "Eisenbahnstraße 21", "zip-code": "", "city": "", "planning-area-id": 2300316}}, {"type": "Feature", "geometry": {"type": "Point", "coordinates": [13.3762533, 52.5526663]}, "properties": {"id": "10688463815", "name": "Uferstudios für zeitgenössischen Tanz", "street": "Badstraße 41a", "zip-code": 13357.0, "city": "Berlin", "planning-area-id": 1401044}}, {"type": "Feature", "geometry": {"type": "Point", "coordinates": [13.3886918, 52.4737158]}, "properties": {"id": "10902497205", "name": "Luftschloss", "street": "", "zip-code": "", "city": "", "planning-area-id": 7400721}}, {"type": "Feature", "geometry": {"type": "Point", "coordinates": [13.3721099, 52.5074693]}, "properties": {"id": "10942761216", "name": "Komödie am Kurfürstendamm", "street": "Marlene-Dietrich-Platz 1", "zip-code": 10785.0, "city": "Berlin", "planning-area-id": 1100102}}, {"type": "Feature", "geometry": {"type": "Point", "coordinates": [13.5778827, 52.4457454]}, "properties": {"id": "11218721726", "name": "Zilles Stubentheater im Altstadttheater Köpenick", "street": "Jägerstraße 4", "zip-code": 12555.0, "city": "Berlin", "planning-area-id": 9401534}}, {"type": "Feature", "geometry": {"type": "Point", "coordinates": [13.577872, 52.4458991]}, "properties": {"id": "11218737137", "name": "Altstadttheater Köpenick", "street": "Jägerstraße 4", "zip-code": 12555.0, "city": "Berlin", "planning-area-id": 9401534}}]}