{"type": "FeatureCollection", "features": [{"type": "Feature", "geometry": {"type": "Point", "coordinates": [13.3384592, 52.4799688]}, "properties": {"id": "237838613", "name": "Rückert-Gymnasium", "street": "Mettestraße 8", "zip-code": 10825.0, "city": "Berlin", "planning-area-id": 7200308}}, {"type": "Feature", "geometry": {"type": "Point", "coordinates": [13.2880437, 52.5394411]}, "properties": {"id": "256912446", "name": "Erwin von Witzleben Grundschule", "street": "Halemweg 34-42", "zip-code": 13627.0, "city": "Berlin", "planning-area-id": 4100101}}, {"type": "Feature", "geometry": {"type": "Point", "coordinates": [13.2416342, 52.521142]}, "properties": {"id": "256913234", "name": "Sportschule im Olympiapark - Poelchau-Schule", "street": "Prinz-Friedrich-Karl-Weg 1", "zip-code": 14053.0, "city": "Berlin", "planning-area-id": 4200203}}, {"type": "Feature", "geometry": {"type": "Point", "coordinates": [13.2883255, 52.5376587]}, "properties": {"id": "256913872", "name": "Anna Freud Schule", "street": "Halemweg 22", "zip-code": 13627.0, "city": "Berlin", "planning-area-id": 4100101}}, {"type": "Feature", "geometry": {"type": "Point", "coordinates": [13.4307335, 52.5553761]}, "properties": {"id": "268915152", "name": "Klax Grundschule Langhansstraße", "street": "", "zip-code": "", "city": "", "planning-area-id": 3500934}}, {"type": "Feature", "geometry": {"type": "Point", "coordinates": [13.3814584, 52.4545448]}, "properties": {"id": "268915405", "name": "Freie Schule in Berlin", "street": "Viktoriastraße 13-18", "zip-code": 12105.0, "city": "", "planning-area-id": 7400825}}, {"type": "Feature", "geometry": {"type": "Point", "coordinates": [13.4043701, 52.3968526]}, "properties": {"id": "268917477", "name": "Carl-Zeiss-Oberschule", "street": "Lutherstraße 18", "zip-code": 12305.0, "city": "Berlin", "planning-area-id": 7601442}}, {"type": "Feature", "geometry": {"type": "Point", "coordinates": [13.4421727, 52.497182]}, "properties": {"id": "272808901", "name": "Babylonia", "street": "Cuvrystraße 23a", "zip-code": 10997.0, "city": "Berlin", "planning-area-id": 2300419}}, {"type": "Feature", "geometry": {"type": "Point", "coordinates": [13.199678, 52.5721259]}, "properties": {"id": "298750707", "name": "Evangelische Schule Spandau (ESS)", "street": "Schönwalder Allee 26/27", "zip-code": 13587.0, "city": "Berlin", "planning-area-id": 5100101}}, {"type": "Feature", "geometry": {"type": "Point", "coordinates": [13.3390601, 52.4803608]}, "properties": {"id": "340239440", "name": "Sternberg Grundschule", "street": "Mettestraße 8", "zip-code": 10825.0, "city": "Berlin", "planning-area-id": 7200308}}, {"type": "Feature", "geometry": {"type": "Point", "coordinates": [13.4357615, 52.4717574]}, "properties": {"id": "360713397", "name": "Peter-Petersen-Schule", "street": "Jonasstraße 15-16", "zip-code": 12053.0, "city": "Berlin", "planning-area-id": 8100208}}, {"type": "Feature", "geometry": {"type": "Point", "coordinates": [13.4354917, 52.4725928]}, "properties": {"id": "360713401", "name": "Konrad-Agahd-Grundschule", "street": "Thomasstraße 39", "zip-code": 12053.0, "city": "Berlin", "planning-area-id": 8100208}}, {"type": "Feature", "geometry": {"type": "Point", "coordinates": [13.5170522, 52.445113]}, "properties": {"id": "506133476", "name": "Berliner Rettungsdienstschule", "street": "", "zip-code": "", "city": "", "planning-area-id": 9100409}}, {"type": "Feature", "geometry": {"type": "Point", "coordinates": [13.4146824, 52.5413537]}, "properties": {"id": "592636066", "name": "The School of Life", "street": "Lychener Straße 7", "zip-code": 10437.0, "city": "Berlin", "planning-area-id": 3601347}}, {"type": "Feature", "geometry": {"type": "Point", "coordinates": [13.3982097, 52.5353066]}, "properties": {"id": "613697442", "name": "", "street": "", "zip-code": "", "city": "", "planning-area-id": 1100416}}, {"type": "Feature", "geometry": {"type": "Point", "coordinates": [13.5311243, 52.5264226]}, "properties": {"id": "727710608", "name": "bbw Akademie Betriebswirtschaftliche Weiterbildung", "street": "Allee der Kosmonauten 33 B", "zip-code": 12681.0, "city": "Berlin", "planning-area-id": 10100311}}, {"type": "Feature", "geometry": {"type": "Point", "coordinates": [13.5768735, 52.4430497]}, "properties": {"id": "850092123", "name": "Käpt´n Mosers Wassersportschule", "street": "", "zip-code": "", "city": "", "planning-area-id": 9401534}}, {"type": "Feature", "geometry": {"type": "Point", "coordinates": [13.4120982, 52.503441]}, "properties": {"id": "867872391", "name": "Deutsch Praxis", "street": "", "zip-code": "", "city": "", "planning-area-id": 2100104}}, {"type": "Feature", "geometry": {"type": "Point", "coordinates": [13.413924, 52.5023614]}, "properties": {"id": "871633760", "name": "Yoga/Schiatsu-Zentrum", "street": "", "zip-code": "", "city": "", "planning-area-id": 2100104}}, {"type": "Feature", "geometry": {"type": "Point", "coordinates": [13.4213836, 52.501677]}, "properties": {"id": "876244328", "name": "Atelier für physisches Theater – Internationale Schule für Bewegungsschauspiel", "street": "", "zip-code": "", "city": "", "planning-area-id": 2300314}}, {"type": "Feature", "geometry": {"type": "Point", "coordinates": [13.4929984, 52.6256033]}, "properties": {"id": "985919722", "name": "Jugendwerkstatt Buch Aktivierungshilfe", "street": "", "zip-code": "", "city": "", "planning-area-id": 3100103}}, {"type": "Feature", "geometry": {"type": "Point", "coordinates": [13.4135424, 52.5620245]}, "properties": {"id": "996413480", "name": "TING-Schule", "street": "", "zip-code": "", "city": "", "planning-area-id": 3400829}}, {"type": "Feature", "geometry": {"type": "Point", "coordinates": [13.2706708, 52.4545683]}, "properties": {"id": "1015728668", "name": "Biesalski-Schule", "street": "Hüttenweg 40", "zip-code": 14195.0, "city": "Berlin", "planning-area-id": 6400842}}, {"type": "Feature", "geometry": {"type": "Point", "coordinates": [13.3327206, 52.4833728]}, "properties": {"id": "1057857273", "name": "Ernst-Habermann-Grundschule", "street": "Prinzregentenstraße 33", "zip-code": 10715.0, "city": "Berlin", "planning-area-id": 4501153}}, {"type": "Feature", "geometry": {"type": "Point", "coordinates": [13.3007856, 52.5185412]}, "properties": {"id": "1137671520", "name": "Kindermalschule", "street": "Lohmeyerstraße 26", "zip-code": 10587.0, "city": "Berlin", "planning-area-id": 4300621}}, {"type": "Feature", "geometry": {"type": "Point", "coordinates": [13.3716254, 52.5034349]}, "properties": {"id": "1140710553", "name": "CJD Berlin", "street": "Am Karlsbad 16", "zip-code": 10785.0, "city": "Berlin", "planning-area-id": 1100104}}, {"type": "Feature", "geometry": {"type": "Point", "coordinates": [13.4359177, 52.4399472]}, "properties": {"id": "1224801662", "name": "Alno Küchenstudio", "street": "", "zip-code": "", "city": "", "planning-area-id": 8200730}}, {"type": "Feature", "geometry": {"type": "Point", "coordinates": [13.4056269, 52.552085]}, "properties": {"id": "1407207210", "name": "Abendgymnasium Prenzlauer Berg", "street": "Driesener Straße 22", "zip-code": 10439.0, "city": "Berlin", "planning-area-id": 3601140}}, {"type": "Feature", "geometry": {"type": "Point", "coordinates": [13.3884213, 52.5284845]}, "properties": {"id": "1552045205", "name": "Deutsch-Institut Berlin", "street": "Novalisstraße 12", "zip-code": 10115.0, "city": "Berlin", "planning-area-id": 1100415}}, {"type": "Feature", "geometry": {"type": "Point", "coordinates": [13.4213252, 52.4908343]}, "properties": {"id": "1597894107", "name": "Islam Vakfi", "street": "", "zip-code": "", "city": "", "planning-area-id": 2200213}}, {"type": "Feature", "geometry": {"type": "Point", "coordinates": [13.3036973, 52.5083269]}, "properties": {"id": "1658284135", "name": "Charlotte-Wolff-Kolleg", "street": "Pestalozzistraße 40-41", "zip-code": 10627.0, "city": "Berlin", "planning-area-id": 4300623}}, {"type": "Feature", "geometry": {"type": "Point", "coordinates": [13.3402818, 52.4965481]}, "properties": {"id": "1825200731", "name": "Lette-Akademie", "street": "Viktoria-Luise-Platz 6", "zip-code": 10777.0, "city": "", "planning-area-id": 7100101}}, {"type": "Feature", "geometry": {"type": "Point", "coordinates": [13.3404458, 52.4967169]}, "properties": {"id": "1825200732", "name": "Lette-Verein", "street": "Viktoria-Luise-Platz 6", "zip-code": 10777.0, "city": "", "planning-area-id": 7100101}}, {"type": "Feature", "geometry": {"type": "Point", "coordinates": [13.41986, 52.4992808]}, "properties": {"id": "1827035552", "name": "SCHATZ Schulaufgabenzirkel", "street": "", "zip-code": 10999.0, "city": "Berlin", "planning-area-id": 2300314}}, {"type": "Feature", "geometry": {"type": "Point", "coordinates": [13.3344676, 52.4822428]}, "properties": {"id": "1833519549", "name": "OSZ Wirtschaft Leopold-Ullstein-Schule - Abteilung II", "street": "Prinzregentenstraße 60", "zip-code": 10715.0, "city": "Berlin", "planning-area-id": 4501153}}, {"type": "Feature", "geometry": {"type": "Point", "coordinates": [13.3344536, 52.4821179]}, "properties": {"id": "1833591080", "name": "Kläre-Bloch-Schule", "street": "Prinzregentenstraße 60", "zip-code": 10715.0, "city": "Berlin", "planning-area-id": 4501153}}, {"type": "Feature", "geometry": {"type": "Point", "coordinates": [13.6048951, 52.5357196]}, "properties": {"id": "1855387994", "name": "Das Lernzentum (Helliwood media & education)", "street": "", "zip-code": "", "city": "", "planning-area-id": 10200526}}, {"type": "Feature", "geometry": {"type": "Point", "coordinates": [13.4217523, 52.4967726]}, "properties": {"id": "1867142844", "name": "Institut für Phytotherapie", "street": "Paul-Lincke-Ufer 42-43", "zip-code": 10999.0, "city": "Berlin", "planning-area-id": 2300417}}, {"type": "Feature", "geometry": {"type": "Point", "coordinates": [13.3999915, 52.5309477]}, "properties": {"id": "2133391708", "name": "Neue Schule für Fotografie", "street": "Brunnenstraße 188-190", "zip-code": 10119.0, "city": "Berlin", "planning-area-id": 1100415}}, {"type": "Feature", "geometry": {"type": "Point", "coordinates": [13.4463857, 52.4940876]}, "properties": {"id": "2134648578", "name": "InBit Institut", "street": "", "zip-code": "", "city": "", "planning-area-id": 9100101}}, {"type": "Feature", "geometry": {"type": "Point", "coordinates": [13.2479778, 52.6108823]}, "properties": {"id": "2136734352", "name": "Fachschule für Sozialpädagogik", "street": "Am Bärensprung 58", "zip-code": 13503.0, "city": "Berlin", "planning-area-id": 12400619}}, {"type": "Feature", "geometry": {"type": "Point", "coordinates": [13.3350661, 52.4824554]}, "properties": {"id": "2180504961", "name": "Wangari Maathai International School", "street": "Babelsberger Straße 24-25", "zip-code": 10715.0, "city": "Berlin", "planning-area-id": 4501153}}, {"type": "Feature", "geometry": {"type": "Point", "coordinates": [13.4201501, 52.4935666]}, "properties": {"id": "2232813894", "name": "Hermann-Hesse-Gymnasium (Haus 3)", "street": "", "zip-code": "", "city": "", "planning-area-id": 2200213}}, {"type": "Feature", "geometry": {"type": "Point", "coordinates": [13.3429326, 52.5237443]}, "properties": {"id": "2379197943", "name": "indisoft GmbH", "street": "Stromstraße 3b", "zip-code": 10555.0, "city": "Berlin", "planning-area-id": 1200626}}, {"type": "Feature", "geometry": {"type": "Point", "coordinates": [13.3653305, 52.5533306]}, "properties": {"id": "2431140182", "name": "das kleine atelier", "street": "Oudenarder Straße 32", "zip-code": 13347.0, "city": "Berlin", "planning-area-id": 1401049}}, {"type": "Feature", "geometry": {"type": "Point", "coordinates": [13.4414278, 52.5424451]}, "properties": {"id": "2538629447", "name": "Pepper Mont", "street": "Greifswalder Straße 88", "zip-code": 10409.0, "city": "Berlin", "planning-area-id": 3601449}}, {"type": "Feature", "geometry": {"type": "Point", "coordinates": [13.4415246, 52.5425347]}, "properties": {"id": "2538629492", "name": "Freie Sekundarschule Peppermont", "street": "Greifswalder Straße 88", "zip-code": 10409.0, "city": "Berlin", "planning-area-id": 3601449}}, {"type": "Feature", "geometry": {"type": "Point", "coordinates": [13.4417282, 52.557281]}, "properties": {"id": "2610154858", "name": "Berlin Bilingual School", "street": "Rudolf-Baschant-Straße 2", "zip-code": 13086.0, "city": "Berlin", "planning-area-id": 3500932}}, {"type": "Feature", "geometry": {"type": "Point", "coordinates": [13.384161, 52.4961309]}, "properties": {"id": "2629122240", "name": "Taxischule Metropolis", "street": "", "zip-code": "", "city": "", "planning-area-id": 2200208}}, {"type": "Feature", "geometry": {"type": "Point", "coordinates": [13.4420839, 52.4972267]}, "properties": {"id": "2665133376", "name": "Bildungsteam", "street": "Cuvrystraße 20", "zip-code": 10997.0, "city": "Berlin", "planning-area-id": 2300419}}, {"type": "Feature", "geometry": {"type": "Point", "coordinates": [13.3811302, 52.566071]}, "properties": {"id": "2952353502", "name": "Quinoa Schule", "street": "Kühnemannstraße 26", "zip-code": 13409.0, "city": "Berlin", "planning-area-id": 1300731}}, {"type": "Feature", "geometry": {"type": "Point", "coordinates": [13.3795238, 52.4899704]}, "properties": {"id": "3053179146", "name": "TAXI Schule", "street": "", "zip-code": "", "city": "", "planning-area-id": 2200209}}, {"type": "Feature", "geometry": {"type": "Point", "coordinates": [13.418127, 52.5396656]}, "properties": {"id": "3090369566", "name": "iek", "street": "Husemannstraße 32", "zip-code": 10435.0, "city": "Berlin", "planning-area-id": 3701555}}, {"type": "Feature", "geometry": {"type": "Point", "coordinates": [13.3845541, 52.5155186]}, "properties": {"id": "3093478831", "name": "Schule bei der Botschaft der Russischen Föderation", "street": "Behrenstraße 64-65", "zip-code": 10117.0, "city": "Berlin", "planning-area-id": 1100206}}, {"type": "Feature", "geometry": {"type": "Point", "coordinates": [13.2698957, 52.4546353]}, "properties": {"id": "3347795761", "name": "Quentin-Blake-Europa-Schule", "street": "Hüttenweg 40", "zip-code": 14195.0, "city": "Berlin", "planning-area-id": 6400842}}, {"type": "Feature", "geometry": {"type": "Point", "coordinates": [13.3294623, 52.4880673]}, "properties": {"id": "3465132015", "name": "Svenska Skolan i Berlin", "street": "Landhausstraße 26-28", "zip-code": 10717.0, "city": "Berlin", "planning-area-id": 4501149}}, {"type": "Feature", "geometry": {"type": "Point", "coordinates": [13.4475016, 52.5122062]}, "properties": {"id": "3644290194", "name": "Be The - Therapie bei Lernschwierigkeiten", "street": "Am Comeniusplatz 2", "zip-code": 10243.0, "city": "Berlin", "planning-area-id": 2400624}}, {"type": "Feature", "geometry": {"type": "Point", "coordinates": [13.3394889, 52.4951245]}, "properties": {"id": "3666540069", "name": "Yogah Schule", "street": "Motzstraße 62", "zip-code": 10777.0, "city": "Berlin", "planning-area-id": 7100101}}, {"type": "Feature", "geometry": {"type": "Point", "coordinates": [13.3919599, 52.5019732]}, "properties": {"id": "4149486091", "name": "Liebmann-Schule", "street": "Friedrichstraße 13", "zip-code": 10969.0, "city": "Berlin", "planning-area-id": 2100102}}, {"type": "Feature", "geometry": {"type": "Point", "coordinates": [13.3421366, 52.6062681]}, "properties": {"id": "4194642895", "name": "private Goethe Grundschule", "street": "Wittenauer Straße 112", "zip-code": 13435.0, "city": "Berlin", "planning-area-id": 12601031}}, {"type": "Feature", "geometry": {"type": "Point", "coordinates": [13.1948238, 52.5730595]}, "properties": {"id": "4298064770", "name": "Hort der ESS", "street": "", "zip-code": 13587.0, "city": "Berlin", "planning-area-id": 5100101}}, {"type": "Feature", "geometry": {"type": "Point", "coordinates": [13.35938, 52.5040253]}, "properties": {"id": "4368419896", "name": "Internationale Lomonossow-Schule", "street": "Genthiner Straße 20", "zip-code": 10785.0, "city": "", "planning-area-id": 1100103}}, {"type": "Feature", "geometry": {"type": "Point", "coordinates": [13.4329748, 52.5207044]}, "properties": {"id": "4560824228", "name": "KreativitätsGymnasium Berlin", "street": "Strausberger Straße 38", "zip-code": 10243.0, "city": "Berlin", "planning-area-id": 2400521}}, {"type": "Feature", "geometry": {"type": "Point", "coordinates": [13.4322586, 52.5209736]}, "properties": {"id": "4560824229", "name": "KreativitätsGrundschule Friedrichshain", "street": "Strausberger Straße 38", "zip-code": 10243.0, "city": "Berlin", "planning-area-id": 2400521}}, {"type": "Feature", "geometry": {"type": "Point", "coordinates": [13.3064187, 52.5001343]}, "properties": {"id": "4612831609", "name": "Wall Street English", "street": "", "zip-code": "", "city": "", "planning-area-id": 4500936}}, {"type": "Feature", "geometry": {"type": "Point", "coordinates": [13.3774542, 52.4908034]}, "properties": {"id": "4850314524", "name": "Cumbancha", "street": "Möckernstraße 68", "zip-code": 10965.0, "city": "", "planning-area-id": 2200209}}, {"type": "Feature", "geometry": {"type": "Point", "coordinates": [13.2797555, 52.5328938]}, "properties": {"id": "4864189821", "name": "EIIE EURASIA Institute for International Education GmbH", "street": "", "zip-code": 13627.0, "city": "", "planning-area-id": 5300840}}, {"type": "Feature", "geometry": {"type": "Point", "coordinates": [13.4477802, 52.5279354]}, "properties": {"id": "4932662327", "name": "Piano Cano", "street": "Cotheniusstraße 3", "zip-code": 10407.0, "city": "Berlin", "planning-area-id": 3601452}}, {"type": "Feature", "geometry": {"type": "Point", "coordinates": [13.394612, 52.4544038]}, "properties": {"id": "5477749794", "name": "Samuel-Hahnemann-Schule", "street": "Colditzstraße 34-36", "zip-code": 12099.0, "city": "Berlin", "planning-area-id": 7400927}}, {"type": "Feature", "geometry": {"type": "Point", "coordinates": [13.4468273, 52.4227343]}, "properties": {"id": "5661514223", "name": "Schule am Hasenhegerweg", "street": "Hasenhegerweg 12", "zip-code": 12353.0, "city": "Berlin", "planning-area-id": 8200833}}, {"type": "Feature", "geometry": {"type": "Point", "coordinates": [13.4468112, 52.4224497]}, "properties": {"id": "5661514224", "name": "Lisa-Tetzner-Grundschule", "street": "Hasenhegerweg 12", "zip-code": 12353.0, "city": "Berlin", "planning-area-id": 8200833}}, {"type": "Feature", "geometry": {"type": "Point", "coordinates": [13.4885479, 52.5236819]}, "properties": {"id": "5695079683", "name": "OTA - Tanyildiz Schweißtechnik", "street": "Josef-Orlopp-Straße 45 - 49", "zip-code": 10365.0, "city": "Berlin", "planning-area-id": 11300721}}, {"type": "Feature", "geometry": {"type": "Point", "coordinates": [13.4273152, 52.5347819]}, "properties": {"id": "5790175872", "name": "Corrie-ten-Boom-Schule", "street": "Christburger Straße 14C", "zip-code": 10405.0, "city": "Berlin", "planning-area-id": 3701658}}, {"type": "Feature", "geometry": {"type": "Point", "coordinates": [13.4278408, 52.5346465]}, "properties": {"id": "5790175875", "name": "Elisabeth-Abegg-Grundschule", "street": "Christburger Straße 14C", "zip-code": 10405.0, "city": "Berlin", "planning-area-id": 3701658}}, {"type": "Feature", "geometry": {"type": "Point", "coordinates": [13.3541252, 52.4858093]}, "properties": {"id": "5907019898", "name": "Privates Europa-Gymnasium Berlin", "street": "Hauptstraße 27", "zip-code": 10827.0, "city": "Berlin", "planning-area-id": 7200409}}, {"type": "Feature", "geometry": {"type": "Point", "coordinates": [13.2634016, 52.5095435]}, "properties": {"id": "5997094437", "name": "Moser Schule Schweizer Gymnasium gGmbH", "street": "", "zip-code": "", "city": "", "planning-area-id": 4200310}}, {"type": "Feature", "geometry": {"type": "Point", "coordinates": [13.4062656, 52.5273506]}, "properties": {"id": "6058583254", "name": "", "street": "Mulackstraße 8", "zip-code": 10119.0, "city": "Berlin", "planning-area-id": 1100309}}, {"type": "Feature", "geometry": {"type": "Point", "coordinates": [13.2887102, 52.4811108]}, "properties": {"id": "6153498939", "name": "Institut für Verhaltenstherapie Berlin", "street": "Hohenzollerndamm 125;126", "zip-code": 14199.0, "city": "Berlin", "planning-area-id": 4400830}}, {"type": "Feature", "geometry": {"type": "Point", "coordinates": [13.3976982, 52.5375362]}, "properties": {"id": "6215800460", "name": "Mal- und Zeichenschule Prib", "street": "Brunnenstraße 45", "zip-code": 10115.0, "city": "Berlin", "planning-area-id": 1100416}}, {"type": "Feature", "geometry": {"type": "Point", "coordinates": [13.3704694, 52.5505701]}, "properties": {"id": "6251995791", "name": "Produktionsschule Mitte", "street": "", "zip-code": "", "city": "", "planning-area-id": 1401044}}, {"type": "Feature", "geometry": {"type": "Point", "coordinates": [13.5072943, 52.6331664]}, "properties": {"id": "6410792688", "name": "Akademie der Gesundheit", "street": "Schwanebecker Chaussee 4 E-H", "zip-code": 13125.0, "city": "", "planning-area-id": 3100102}}, {"type": "Feature", "geometry": {"type": "Point", "coordinates": [13.4097119, 52.5533032]}, "properties": {"id": "6422859463", "name": "Freie Grundschule Pfefferwerk", "street": "Schönfließer Straße 7", "zip-code": 10439.0, "city": "Berlin", "planning-area-id": 3601141}}, {"type": "Feature", "geometry": {"type": "Point", "coordinates": [13.4096543, 52.552951]}, "properties": {"id": "6422859464", "name": "Freie Sekundarschule PepperMont", "street": "", "zip-code": "", "city": "", "planning-area-id": 3601141}}, {"type": "Feature", "geometry": {"type": "Point", "coordinates": [13.2824239, 52.5886224]}, "properties": {"id": "7133350404", "name": "Julius-Leber-Oberschule", "street": "Treskowstraße 26-31", "zip-code": 13507.0, "city": "Berlin", "planning-area-id": 12200515}}, {"type": "Feature", "geometry": {"type": "Point", "coordinates": [13.2827444, 52.5881558]}, "properties": {"id": "7133350405", "name": "Franz-Marc-Grundschule", "street": "Treskowstraße 26-31", "zip-code": 13507.0, "city": "Berlin", "planning-area-id": 12200515}}, {"type": "Feature", "geometry": {"type": "Point", "coordinates": [13.3164868, 52.4866263]}, "properties": {"id": "7685796317", "name": "Prestige Kosmetikakademie", "street": "Berliner Straße 53", "zip-code": 10713.0, "city": "Berlin", "planning-area-id": 4501146}}, {"type": "Feature", "geometry": {"type": "Point", "coordinates": [13.3196702, 52.481561]}, "properties": {"id": "7774237459", "name": "Grund-Bildungs-Zentrum Berlin", "street": "Paretzer Straße 1", "zip-code": 10713.0, "city": "Berlin", "planning-area-id": 4501148}}, {"type": "Feature", "geometry": {"type": "Point", "coordinates": [13.3920468, 52.5014874]}, "properties": {"id": "8050485559", "name": "Galilei Grundschule", "street": "Friedrichstraße 13", "zip-code": 10969.0, "city": "Berlin", "planning-area-id": 2100102}}, {"type": "Feature", "geometry": {"type": "Point", "coordinates": [13.3589568, 52.5402175]}, "properties": {"id": "8589000133", "name": "Kristall Grundschule", "street": "Tegeler Straße 13", "zip-code": 13353.0, "city": "Berlin", "planning-area-id": 1401047}}, {"type": "Feature", "geometry": {"type": "Point", "coordinates": [13.4023268, 52.5846554]}, "properties": {"id": "8907860456", "name": "Naturschule am Brosepark", "street": "", "zip-code": "", "city": "", "planning-area-id": 3200206}}, {"type": "Feature", "geometry": {"type": "Point", "coordinates": [13.5378599, 52.4186282]}, "properties": {"id": "9215908289", "name": "Grundschule am Berg", "street": "", "zip-code": "", "city": "", "planning-area-id": 9300920}}, {"type": "Feature", "geometry": {"type": "Point", "coordinates": [13.3099724, 52.4953754]}, "properties": {"id": "9502964060", "name": "Berliner Schule für Zen Shiatsu", "street": "", "zip-code": "", "city": "", "planning-area-id": 4501043}}, {"type": "Feature", "geometry": {"type": "Point", "coordinates": [13.5365868, 52.5427625]}, "properties": {"id": "9674270517", "name": "SENECA INTENSIV Studios", "street": "Georg-Knorr-Straße 4 / Haus 10", "zip-code": 12681.0, "city": "", "planning-area-id": 10100205}}, {"type": "Feature", "geometry": {"type": "Point", "coordinates": [13.3013341, 52.5143176]}, "properties": {"id": "9737166477", "name": "Backschule Charlotte", "street": "", "zip-code": "", "city": "", "planning-area-id": 4300621}}, {"type": "Feature", "geometry": {"type": "Point", "coordinates": [13.3959795, 52.5262549]}, "properties": {"id": "9777048055", "name": "Grundschule am Koppemplatz Standort Auguststr", "street": "", "zip-code": "", "city": "", "planning-area-id": 1100309}}, {"type": "Feature", "geometry": {"type": "Point", "coordinates": [13.2474075, 52.6127734]}, "properties": {"id": "9953624692", "name": "Demokratische Schule X", "street": "Ruppiner Chaussee 211", "zip-code": 13503.0, "city": "Berlin", "planning-area-id": 12400618}}, {"type": "Feature", "geometry": {"type": "Point", "coordinates": [13.5508288, 52.546377]}, "properties": {"id": "10273324300", "name": "Peter-Pan-Grundschule", "street": "", "zip-code": "", "city": "", "planning-area-id": 10100210}}, {"type": "Feature", "geometry": {"type": "Point", "coordinates": [13.323479, 52.4593632]}, "properties": {"id": "10671322645", "name": "fjs - freie journalisten schule", "street": "", "zip-code": "", "city": "", "planning-area-id": 6100102}}, {"type": "Feature", "geometry": {"type": "Point", "coordinates": [13.4293941, 52.5011469]}, "properties": {"id": "10719032094", "name": "Wir-Raum GFK", "street": "Pücklerstraße 26", "zip-code": 10997.0, "city": "Berlin", "planning-area-id": 2300315}}, {"type": "Feature", "geometry": {"type": "Point", "coordinates": [13.453285, 52.5329551]}, "properties": {"id": "10788214205", "name": "Ironhack Berlin", "street": "", "zip-code": 10407.0, "city": "", "planning-area-id": 3601450}}, {"type": "Feature", "geometry": {"type": "Point", "coordinates": [13.5798614, 52.5220834]}, "properties": {"id": "11060589005", "name": "Grundschule an der Wuhle", "street": "", "zip-code": "", "city": "", "planning-area-id": 10200629}}, {"type": "Feature", "geometry": {"type": "Point", "coordinates": [13.5805919, 52.5216824]}, "properties": {"id": "11060597012", "name": "Sporthalle - Grundschule an der Wuhle", "street": "", "zip-code": "", "city": "", "planning-area-id": 10200629}}, {"type": "Feature", "geometry": {"type": "Point", "coordinates": [13.3893155, 52.5549661]}, "properties": {"id": "11191369537", "name": "Berlin Comics Schule", "street": "Stettiner Straße 30", "zip-code": 13357.0, "city": "", "planning-area-id": 1300733}}, {"type": "Feature", "geometry": {"type": "Point", "coordinates": [13.3439077, 52.5230665]}, "properties": {"id": "11197523749", "name": "Seminarschiff", "street": "", "zip-code": "", "city": "", "planning-area-id": 1200626}}, {"type": "Feature", "geometry": {"type": "Point", "coordinates": [13.6308577, 52.4450342]}, "properties": {"id": "11198242339", "name": "Surfpaddelschule", "street": "", "zip-code": "", "city": "", "planning-area-id": 9501737}}, {"type": "Feature", "geometry": {"type": "Point", "coordinates": [13.2634904, 52.4373607]}, "properties": {"id": "11267498757", "name": "Freie Schule Anne Sophie", "street": "", "zip-code": 14169.0, "city": "", "planning-area-id": 6400841}}, {"type": "Feature", "geometry": {"type": "Point", "coordinates": [13.4533132, 52.4685185]}, "properties": {"id": "11287862770", "name": "b-trend-setting", "street": "Lahnstraße 19", "zip-code": 12055.0, "city": "Berlin", "planning-area-id": 8100521}}, {"type": "Feature", "geometry": {"type": "Point", "coordinates": [13.4363004, 52.4988468]}, "properties": {"id": "11357840631", "name": "Shiatsu Schule Kreuzberg", "street": "Lübbener Straße 26", "zip-code": 10997.0, "city": "Berlin", "planning-area-id": 2300419}}, {"type": "Feature", "geometry": {"type": "Point", "coordinates": [13.4174416, 52.5455422]}, "properties": {"id": "11425591669", "name": "Elinor-Ostrom-Schule (2. Schulstandort)", "street": "Pappelallee 30-31", "zip-code": 10437.0, "city": "", "planning-area-id": 3601347}}, {"type": "Feature", "geometry": {"type": "Point", "coordinates": [13.42251, 52.4744236]}, "properties": {"id": "11525305289", "name": "Evangelische Schule Neukölln Oberstufe", "street": "", "zip-code": "", "city": "", "planning-area-id": 8100103}}, {"type": "Feature", "geometry": {"type": "Point", "coordinates": [13.3213912, 52.491079]}, "properties": {"id": "11536527384", "name": "Nelson-Mandela-Schule", "street": "Pfalzburger Straße 23", "zip-code": 10717.0, "city": "Berlin", "planning-area-id": 4501147}}, {"type": "Feature", "geometry": {"type": "Point", "coordinates": [13.5232934, 52.4618963]}, "properties": {"id": "11769563161", "name": "Volkshochschule Treptow-Köpenick", "street": "", "zip-code": "", "city": "", "planning-area-id": 9200511}}]}