{"type": "FeatureCollection", "features": [{"type": "Feature", "geometry": {"type": "Point", "coordinates": [13.59854, 52.507]}, "properties": {"id": "266680057", "name": "Augenarzt Dr. med. Bashar Moustafa", "street": "Münsterberger Weg 122", "zip-code": 12621, "lat": 52.507, "lon": 13.59854, "planning-area-id": 10400836}}, {"type": "Feature", "geometry": {"type": "Point", "coordinates": [13.36266, 52.54302]}, "properties": {"id": "268915280", "name": "Dr. Katja Meißner", "street": "Willdenowstraße 5B", "zip-code": 13353, "lat": 52.54302, "lon": 13.36266, "planning-area-id": 1401047}}, {"type": "Feature", "geometry": {"type": "Point", "coordinates": [13.16631, 52.52217]}, "properties": {"id": "362631112", "name": "Medizinisches Versorgungszentrum Heerstraße Nord", "street": "Obstallee 22A", "zip-code": 13593, "lat": 52.52217, "lon": 13.16631, "planning-area-id": 5200527}}, {"type": "Feature", "geometry": {"type": "Point", "coordinates": [13.59005, 52.50626]}, "properties": {"id": "407094165", "street": "Karlstraße 12a", "zip-code": 12621, "lat": 52.50626, "lon": 13.59005, "planning-area-id": 10400836}}, {"type": "Feature", "geometry": {"type": "Point", "coordinates": [13.55755, 52.505]}, "properties": {"id": "409925339", "name": "Polimedica", "lat": 52.505, "lon": 13.55755, "planning-area-id": 10300733}}, {"type": "Feature", "geometry": {"type": "Point", "coordinates": [13.40368, 52.38648]}, "properties": {"id": "420517141", "name": "Agnes Kranz", "street": "Bahnhofstraße 51", "zip-code": 12305, "lat": 52.38648, "lon": 13.40368, "planning-area-id": 7601544}}, {"type": "Feature", "geometry": {"type": "Point", "coordinates": [13.39944, 52.38547]}, "properties": {"id": "420517414", "name": "Arztpraxis Mehdi Zadeh", "street": "Briesingstraße 13A", "zip-code": 12307, "lat": 52.38547, "lon": 13.39944, "planning-area-id": 7601544}}, {"type": "Feature", "geometry": {"type": "Point", "coordinates": [13.21429, 52.43919]}, "properties": {"id": "443669345", "name": "Kinderarztpraxis am Schlachtensee", "street": "Altvaterstraße 2", "zip-code": 14129, "lat": 52.43919, "lon": 13.21429, "planning-area-id": 6400737}}, {"type": "Feature", "geometry": {"type": "Point", "coordinates": [13.56857, 52.40502]}, "properties": {"id": "497180977", "name": "Praxis Dipl.-Med. Thomas Domnik", "street": "Grottewitzstraße 25", "zip-code": 12526, "lat": 52.40502, "lon": 13.56857, "planning-area-id": 9301024}}, {"type": "Feature", "geometry": {"type": "Point", "coordinates": [13.57262, 52.4001]}, "properties": {"id": "497183294", "name": "Dr. med. Stefan Donat", "street": "Krumme Straße 10a", "zip-code": 12526, "lat": 52.4001, "lon": 13.57262, "planning-area-id": 9301025}}, {"type": "Feature", "geometry": {"type": "Point", "coordinates": [13.44172, 52.47061]}, "properties": {"id": "506410619", "name": "Dr. Darian Dalmis", "street": "Karl-Marx-Straße 215", "zip-code": 12055, "lat": 52.47061, "lon": 13.44172, "planning-area-id": 8100417}}, {"type": "Feature", "geometry": {"type": "Point", "coordinates": [13.28533, 52.58751]}, "properties": {"id": "525495501", "name": "Dr. med. Leia Anvari", "street": "Berliner Straße 12", "zip-code": 13507, "lat": 52.58751, "lon": 13.28533, "planning-area-id": 12200515}}, {"type": "Feature", "geometry": {"type": "Point", "coordinates": [13.37614, 52.54265]}, "properties": {"id": "531228825", "name": "Dr. med. Klaus Dierlich", "street": "Neue Hochstraße 24", "zip-code": 13347, "lat": 52.54265, "lon": 13.37614, "planning-area-id": 1300836}}, {"type": "Feature", "geometry": {"type": "Point", "coordinates": [13.37417, 52.54216]}, "properties": {"id": "567148666", "name": "Kinderpraxis Denise Bosch Rosa", "street": "Schönwalder Straße 28", "zip-code": 13347, "lat": 52.54216, "lon": 13.37417, "planning-area-id": 1300836}}, {"type": "Feature", "geometry": {"type": "Point", "coordinates": [13.45091, 52.52263]}, "properties": {"id": "567546837", "name": "Dr. med. Birgit Klee", "street": "Straßmannstraße 23", "zip-code": 10249, "lat": 52.52263, "lon": 13.45091, "planning-area-id": 2500726}}, {"type": "Feature", "geometry": {"type": "Point", "coordinates": [13.45079, 52.52374]}, "properties": {"id": "567546841", "name": "Dr. med. Ayhan Dogan", "street": "Ebelingstraße 15", "zip-code": 10249, "lat": 52.52374, "lon": 13.45079, "planning-area-id": 2500726}}, {"type": "Feature", "geometry": {"type": "Point", "coordinates": [13.37008, 52.54299]}, "properties": {"id": "575192282", "name": "Dr. med Baris Sahin", "lat": 52.54299, "lon": 13.37008, "planning-area-id": 1300836}}, {"type": "Feature", "geometry": {"type": "Point", "coordinates": [13.37045, 52.42172]}, "properties": {"id": "582854283", "name": "Kathrin Repp", "street": "Marienfelder Allee 43-45", "zip-code": 12277, "lat": 52.42172, "lon": 13.37045, "planning-area-id": 7601237}}, {"type": "Feature", "geometry": {"type": "Point", "coordinates": [13.40133, 52.53752]}, "properties": {"id": "610474614", "name": "Gemeinschaftspraxis Arkonaplatz", "street": "Arkonaplatz 5", "zip-code": 10435, "lat": 52.53752, "lon": 13.40133, "planning-area-id": 1100416}}, {"type": "Feature", "geometry": {"type": "Point", "coordinates": [13.48008, 52.52489]}, "properties": {"id": "612811382", "name": "Radiologisches Zentrum", "street": "Möllendorffstraße 52", "zip-code": 10367, "lat": 52.52489, "lon": 13.48008, "planning-area-id": 11300620}}, {"type": "Feature", "geometry": {"type": "Point", "coordinates": [13.49682, 52.51208]}, "properties": {"id": "612814377", "name": "Nierenzentrum Frankfurter Allee", "street": "Frankfurter Allee 241", "zip-code": 10365, "lat": 52.51208, "lon": 13.49682, "planning-area-id": 11300725}}, {"type": "Feature", "geometry": {"type": "Point", "coordinates": [13.44542, 52.44528]}, "properties": {"id": "620850014", "name": "Dr. Dominic Mutlu", "street": "Paster-Behrens-Straße 54", "zip-code": 12359, "lat": 52.44528, "lon": 13.44542, "planning-area-id": 8200727}}, {"type": "Feature", "geometry": {"type": "Point", "coordinates": [13.41651, 52.53852]}, "properties": {"id": "667893281", "name": "Praxis an der Kulturbrauerei", "street": "Hagenauer Straße 1", "zip-code": 10435, "lat": 52.53852, "lon": 13.41651, "planning-area-id": 3701555}}, {"type": "Feature", "geometry": {"type": "Point", "coordinates": [13.49637, 52.41688]}, "properties": {"id": "699536409", "name": "Mohamad Al-Raai", "street": "Alt-Rudow 70", "zip-code": 12355, "lat": 52.41688, "lon": 13.49637, "planning-area-id": 8401243}}, {"type": "Feature", "geometry": {"type": "Point", "coordinates": [13.35957, 52.43395]}, "properties": {"id": "739999336", "name": "Peter Kraemer & Khadijeh Jahangir-Bakhtiary", "street": "Kamenzer Damm 40", "zip-code": 12249, "lat": 52.43395, "lon": 13.35957, "planning-area-id": 6200316}}, {"type": "Feature", "geometry": {"type": "Point", "coordinates": [13.43165, 52.48729]}, "properties": {"id": "745730922", "name": "Arztpraxis Abdelhamid Brahimi", "lat": 52.48729, "lon": 13.43165, "planning-area-id": 8100312}}, {"type": "Feature", "geometry": {"type": "Point", "coordinates": [13.40291, 52.58141]}, "properties": {"id": "747200086", "name": "Hausarztpraxis am Ossietzkyplatz", "street": "Dietzgenstraße 17", "zip-code": 13156, "lat": 52.58141, "lon": 13.40291, "planning-area-id": 3200206}}, {"type": "Feature", "geometry": {"type": "Point", "coordinates": [13.40402, 52.58236]}, "properties": {"id": "747457640", "name": "Dr.med. Stephan Oertel", "street": "Dietzgenstraße 26", "zip-code": 13156, "lat": 52.58236, "lon": 13.40402, "planning-area-id": 3200207}}, {"type": "Feature", "geometry": {"type": "Point", "coordinates": [13.40431, 52.58202]}, "properties": {"id": "747457659", "name": "Dr. med. André Weller", "street": "Dietzgenstraße 22", "zip-code": 13156, "lat": 52.58202, "lon": 13.40431, "planning-area-id": 3200207}}, {"type": "Feature", "geometry": {"type": "Point", "coordinates": [13.40152, 52.58699]}, "properties": {"id": "747509370", "name": "Wolfgang Kühne", "lat": 52.58699, "lon": 13.40152, "planning-area-id": 3200205}}, {"type": "Feature", "geometry": {"type": "Point", "coordinates": [13.56668, 52.44493]}, "properties": {"id": "761371651", "name": "Karin-Ilona Richter", "lat": 52.44493, "lon": 13.56668, "planning-area-id": 9200819}}, {"type": "Feature", "geometry": {"type": "Point", "coordinates": [13.36506, 52.4145]}, "properties": {"id": "783980696", "name": "Dr. Bärbel Ennuschat", "street": "Marienfelder Allee 133", "zip-code": 12277, "lat": 52.4145, "lon": 13.36506, "planning-area-id": 7601237}}, {"type": "Feature", "geometry": {"type": "Point", "coordinates": [13.43393, 52.53538]}, "properties": {"id": "814795064", "name": "Dr. med. Matthias Oelrich", "street": "Danziger Straße 126", "zip-code": 10407, "lat": 52.53538, "lon": 13.43393, "planning-area-id": 3701660}}, {"type": "Feature", "geometry": {"type": "Point", "coordinates": [13.34257, 52.51893]}, "properties": {"id": "816598832", "name": "Augenärztin Breitenbach", "street": "Bartningallee 5", "zip-code": 10557, "lat": 52.51893, "lon": 13.34257, "planning-area-id": 1200629}}, {"type": "Feature", "geometry": {"type": "Point", "coordinates": [13.43855, 52.47673]}, "properties": {"id": "821966643", "name": "DOCS of BERLIN", "street": "Karl-Marx-Straße 142", "zip-code": 12043, "lat": 52.47673, "lon": 13.43855, "planning-area-id": 8100207}}, {"type": "Feature", "geometry": {"type": "Point", "coordinates": [13.41843, 52.4995]}, "properties": {"id": "848507627", "name": "Georg Laszlo Kruppa", "street": "Skalitzer Straße 136", "zip-code": 10999, "lat": 52.4995, "lon": 13.41843, "planning-area-id": 2300314}}, {"type": "Feature", "geometry": {"type": "Point", "coordinates": [13.4126, 52.50325]}, "properties": {"id": "871633756", "name": "Praxisgemeinschaft Moritzplatz", "street": "Oranienstraße 53", "zip-code": 10969, "lat": 52.50325, "lon": 13.4126, "planning-area-id": 2100104}}, {"type": "Feature", "geometry": {"type": "Point", "coordinates": [13.42249, 52.49969]}, "properties": {"id": "872178153", "name": "Dr. med. Karim Soltani Allgemeinmedizin", "street": "Mariannenstraße 9-10", "zip-code": 10999, "lat": 52.49969, "lon": 13.42249, "planning-area-id": 2300314}}, {"type": "Feature", "geometry": {"type": "Point", "coordinates": [13.42246, 52.49966]}, "properties": {"id": "872180781", "name": "J. Ekteshafi Augenheilkunde", "street": "Mariannenstraße 9-10", "zip-code": 10999, "lat": 52.49966, "lon": 13.42246, "planning-area-id": 2300314}}, {"type": "Feature", "geometry": {"type": "Point", "coordinates": [13.41989, 52.50176]}, "properties": {"id": "872541543", "name": "Gynäkologisches Versorgungszentrum Kreuzberg MVZ", "lat": 52.50176, "lon": 13.41989, "planning-area-id": 2300314}}, {"type": "Feature", "geometry": {"type": "Point", "coordinates": [13.49827, 52.51517]}, "properties": {"id": "913248492", "name": "Wirbelsäulenzentrum Vertebral", "street": "Siegfriedstraße 201", "zip-code": 10365, "lat": 52.51517, "lon": 13.49827, "planning-area-id": 11300725}}, {"type": "Feature", "geometry": {"type": "Point", "coordinates": [13.15501, 52.53189]}, "properties": {"id": "929462289", "name": "Frauenarztpraxis Berlin", "lat": 52.53189, "lon": 13.15501, "planning-area-id": 5200423}}, {"type": "Feature", "geometry": {"type": "Point", "coordinates": [13.34804, 52.54096]}, "properties": {"id": "941475632", "name": "Dr. med. Zadan Plagens", "street": "Föhrer Straße 7", "zip-code": 13353, "lat": 52.54096, "lon": 13.34804, "planning-area-id": 1401046}}, {"type": "Feature", "geometry": {"type": "Point", "coordinates": [13.2369, 52.43723]}, "properties": {"id": "974783005", "name": "Dr. Susanne Kraas", "street": "Karl-Hofer-Straße 39", "zip-code": 14163, "lat": 52.43723, "lon": 13.2369, "planning-area-id": 6400839}}, {"type": "Feature", "geometry": {"type": "Point", "coordinates": [13.32356, 52.49223]}, "properties": {"id": "976653171", "name": "FaceSculptClinic", "street": "Uhlandstraße 131", "zip-code": 10717, "lat": 52.49223, "lon": 13.32356, "planning-area-id": 4501149}}, {"type": "Feature", "geometry": {"type": "Point", "coordinates": [13.42042, 52.39299]}, "properties": {"id": "988277355", "street": "Skarbinastraße 79", "zip-code": 12309, "lat": 52.39299, "lon": 13.42042, "planning-area-id": 7601545}}, {"type": "Feature", "geometry": {"type": "Point", "coordinates": [13.43602, 52.41811]}, "properties": {"id": "1008402408", "name": "Praxis Dr. Lotfi", "lat": 52.41811, "lon": 13.43602, "planning-area-id": 8200832}}, {"type": "Feature", "geometry": {"type": "Point", "coordinates": [13.26102, 52.41078]}, "properties": {"id": "1054886527", "name": "Arzt für Allgemeinmedizin", "street": "Breitensteinweg 15", "zip-code": 14165, "lat": 52.41078, "lon": 13.26102, "planning-area-id": 6300525}}, {"type": "Feature", "geometry": {"type": "Point", "coordinates": [13.23145, 52.43826]}, "properties": {"id": "1075315511", "name": "Orthopädische Praxis am Mexikoplatz", "street": "Limastraße 2", "zip-code": 14163, "lat": 52.43826, "lon": 13.23145, "planning-area-id": 6400838}}, {"type": "Feature", "geometry": {"type": "Point", "coordinates": [13.23329, 52.43794]}, "properties": {"id": "1075315526", "name": "Pneumologie am Mexikoplatz", "street": "Argentinische Allee 1", "zip-code": 14163, "lat": 52.43794, "lon": 13.23329, "planning-area-id": 6400839}}, {"type": "Feature", "geometry": {"type": "Point", "coordinates": [13.44108, 52.54549]}, "properties": {"id": "1143805317", "name": "Algemeinmedizin und Sportarztpraxis", "street": "Mandelstraße 2", "zip-code": 10409, "lat": 52.54549, "lon": 13.44108, "planning-area-id": 3601245}}, {"type": "Feature", "geometry": {"type": "Point", "coordinates": [13.40504, 52.58312]}, "properties": {"id": "1163348417", "name": "Arztpraxis Heine", "street": "Wackenbergstraße 8", "zip-code": 13156, "lat": 52.58312, "lon": 13.40504, "planning-area-id": 3200207}}, {"type": "Feature", "geometry": {"type": "Point", "coordinates": [13.27889, 52.51804]}, "properties": {"id": "1168898031", "name": "Oliver von Berg", "lat": 52.51804, "lon": 13.27889, "planning-area-id": 4200308}}, {"type": "Feature", "geometry": {"type": "Point", "coordinates": [13.60899, 52.5167]}, "properties": {"id": "1223197339", "name": "Orthopädie Dr. Ralf Schröder", "street": "Ridbacher Straße 28", "zip-code": 12621, "lat": 52.5167, "lon": 13.60899, "planning-area-id": 10400835}}, {"type": "Feature", "geometry": {"type": "Point", "coordinates": [13.19215, 52.5287]}, "properties": {"id": "1231426108", "name": "Kontor Spandau", "street": "Seeburger Straße 8", "zip-code": 13581, "lat": 52.5287, "lon": 13.19215, "planning-area-id": 5200629}}, {"type": "Feature", "geometry": {"type": "Point", "coordinates": [13.23948, 52.6139]}, "properties": {"id": "1233470948", "name": "Dr. Karsten Paetzel, Dr. Cornelia Hoffmann", "lat": 52.6139, "lon": 13.23948, "planning-area-id": 12400619}}, {"type": "Feature", "geometry": {"type": "Point", "coordinates": [13.23241, 52.6133]}, "properties": {"id": "1233471137", "name": "Praxis am Dachsbau", "lat": 52.6133, "lon": 13.23241, "planning-area-id": 12400619}}, {"type": "Feature", "geometry": {"type": "Point", "coordinates": [13.4198, 52.49694]}, "properties": {"id": "1246211697", "name": "Karola Brandt", "street": "Kottbusser Straße 16", "zip-code": 10999, "lat": 52.49694, "lon": 13.4198, "planning-area-id": 2300417}}, {"type": "Feature", "geometry": {"type": "Point", "coordinates": [13.3935, 52.43302]}, "properties": {"id": "1247539693", "name": "Arztpraxis im Hausstockweg", "street": "Hausstockweg 57", "zip-code": 12107, "lat": 52.43302, "lon": 13.3935, "planning-area-id": 7501134}}, {"type": "Feature", "geometry": {"type": "Point", "coordinates": [13.2867, 52.51003]}, "properties": {"id": "1252990393", "name": "Medizinisches Behandlungszentrum Lietzensee", "street": "Kaiserdamm 98", "zip-code": 14057, "lat": 52.51003, "lon": 13.2867, "planning-area-id": 4300415}}, {"type": "Feature", "geometry": {"type": "Point", "coordinates": [13.44942, 52.5179]}, "properties": {"id": "1258800198", "name": "R. Kling", "lat": 52.5179, "lon": 13.44942, "planning-area-id": 2400522}}, {"type": "Feature", "geometry": {"type": "Point", "coordinates": [13.43889, 52.51697]}, "properties": {"id": "1272323910", "name": "familycare Berlin", "street": "Karl-Marx-Allee 82-84", "zip-code": 10243, "lat": 52.51697, "lon": 13.43889, "planning-area-id": 2400623}}, {"type": "Feature", "geometry": {"type": "Point", "coordinates": [13.45184, 52.51948]}, "properties": {"id": "1272472318", "name": "Chirurgische Praxis Hofmann & Wierth", "street": "Petersburger Straße 72a", "zip-code": 10249, "lat": 52.51948, "lon": 13.45184, "planning-area-id": 2400522}}, {"type": "Feature", "geometry": {"type": "Point", "coordinates": [13.47049, 52.51127]}, "properties": {"id": "1283595011", "name": "Kinderarztpraxis am Traveplatz", "street": "Müggelstraße 22", "zip-code": 10247, "lat": 52.51127, "lon": 13.47049, "planning-area-id": 2500832}}, {"type": "Feature", "geometry": {"type": "Point", "coordinates": [13.39376, 52.54055]}, "properties": {"id": "1301803182", "name": "Müller Eyecare", "street": "Brunnenstraße 121", "zip-code": 13355, "lat": 52.54055, "lon": 13.39376, "planning-area-id": 1300835}}, {"type": "Feature", "geometry": {"type": "Point", "coordinates": [13.18704, 52.51726]}, "properties": {"id": "1305299272", "name": "Dr. med. Eberhard Zühlsdorff", "street": "Graetschelsteig 2", "zip-code": 13595, "lat": 52.51726, "lon": 13.18704, "planning-area-id": 5200633}}, {"type": "Feature", "geometry": {"type": "Point", "coordinates": [13.36024, 52.54521]}, "properties": {"id": "1306876596", "street": "Müllerstraße 156a", "zip-code": 13353, "lat": 52.54521, "lon": 13.36024, "planning-area-id": 1401047}}, {"type": "Feature", "geometry": {"type": "Point", "coordinates": [13.40695, 52.58624]}, "properties": {"id": "1307667993", "name": "Dr. Med. Gabriele Ulsemer", "lat": 52.58624, "lon": 13.40695, "planning-area-id": 3200207}}, {"type": "Feature", "geometry": {"type": "Point", "coordinates": [13.19522, 52.53592]}, "properties": {"id": "1336552408", "name": "Praxisgemeinschaft am Bahnhof Spandau", "lat": 52.53592, "lon": 13.19522, "planning-area-id": 5100316}}, {"type": "Feature", "geometry": {"type": "Point", "coordinates": [13.20209, 52.53709]}, "properties": {"id": "1336835358", "name": "Ärztehaus", "lat": 52.53709, "lon": 13.20209, "planning-area-id": 5100316}}, {"type": "Feature", "geometry": {"type": "Point", "coordinates": [13.30861, 52.4784]}, "properties": {"id": "1396396808", "name": "Aturo", "street": "Mecklenburgische Straße 27", "zip-code": 14197, "lat": 52.4784, "lon": 13.30861, "planning-area-id": 4400830}}, {"type": "Feature", "geometry": {"type": "Point", "coordinates": [13.42846, 52.53701]}, "properties": {"id": "1401087611", "name": "Sabine Pohlentz", "street": "Winsstraße 34", "zip-code": 10405, "lat": 52.53701, "lon": 13.42846, "planning-area-id": 3701658}}, {"type": "Feature", "geometry": {"type": "Point", "coordinates": [13.52591, 52.40255]}, "properties": {"id": "1421230365", "name": "Dipl.-Med. Claudia Schütz Dermatologin", "street": "Ortolfstraße 206A", "zip-code": 12524, "lat": 52.40255, "lon": 13.52591, "planning-area-id": 9300922}}, {"type": "Feature", "geometry": {"type": "Point", "coordinates": [13.55552, 52.51687]}, "properties": {"id": "1433678439", "lat": 52.51687, "lon": 13.55552, "planning-area-id": 10300731}}, {"type": "Feature", "geometry": {"type": "Point", "coordinates": [13.47976, 52.5171]}, "properties": {"id": "1435405367", "name": "Dr. Kerstin Franke", "street": "Möllendorffstraße 106-107", "zip-code": 10367, "lat": 52.5171, "lon": 13.47976, "planning-area-id": 11300722}}, {"type": "Feature", "geometry": {"type": "Point", "coordinates": [13.30357, 52.50221]}, "properties": {"id": "1507687080", "name": "Dr. Schlich / Dr. Schorn", "street": "Dahlmannstraße 7", "zip-code": 10629, "lat": 52.50221, "lon": 13.30357, "planning-area-id": 4500936}}, {"type": "Feature", "geometry": {"type": "Point", "coordinates": [13.33717, 52.52022]}, "properties": {"id": "1515662237", "name": "Dr. med. Arijana Radeljik", "street": "Levetzowstraße 16", "zip-code": 10555, "lat": 52.52022, "lon": 13.33717, "planning-area-id": 1200522}}, {"type": "Feature", "geometry": {"type": "Point", "coordinates": [13.28126, 52.51019]}, "properties": {"id": "1515676194", "name": "Dermatologie am Kaiserdamm", "street": "Kaiserdamm 26", "zip-code": 14057, "lat": 52.51019, "lon": 13.28126, "planning-area-id": 4200311}}, {"type": "Feature", "geometry": {"type": "Point", "coordinates": [13.38316, 52.48385]}, "properties": {"id": "1524609032", "name": "Frauenarzt Prof. Dr. Dr. R-Y. Ridha", "street": "Manfred-von-Richthofen-Straße 10", "zip-code": 12101, "lat": 52.48385, "lon": 13.38316, "planning-area-id": 7400720}}, {"type": "Feature", "geometry": {"type": "Point", "coordinates": [13.35566, 52.59772]}, "properties": {"id": "1575415121", "name": "Eilers Lönnecker - Onkologie", "street": "Senftenberger Ring 5A", "zip-code": 13439, "lat": 52.59772, "lon": 13.35566, "planning-area-id": 12601134}}, {"type": "Feature", "geometry": {"type": "Point", "coordinates": [13.42181, 52.53837]}, "properties": {"id": "1584765821", "name": "Praxis für Kinder- und Jugendlichenpsychotherapie", "street": "Rykestraße 35", "zip-code": 10405, "lat": 52.53837, "lon": 13.42181, "planning-area-id": 3701555}}, {"type": "Feature", "geometry": {"type": "Point", "coordinates": [13.33761, 52.47157]}, "properties": {"id": "1613061216", "name": "Dr. med. Andreas Kärsten", "street": "Fregestraße 74a", "zip-code": 12159, "lat": 52.47157, "lon": 13.33761, "planning-area-id": 7300618}}, {"type": "Feature", "geometry": {"type": "Point", "coordinates": [13.46375, 52.51617]}, "properties": {"id": "1643127241", "name": "Dr. Nadine Schmickaly", "street": "Silvio-Meier-Straße 7", "zip-code": 10247, "lat": 52.51617, "lon": 13.46375, "planning-area-id": 2500728}}, {"type": "Feature", "geometry": {"type": "Point", "coordinates": [13.555, 52.51691]}, "properties": {"id": "1646165802", "lat": 52.51691, "lon": 13.555, "planning-area-id": 10300731}}, {"type": "Feature", "geometry": {"type": "Point", "coordinates": [13.55622, 52.52284]}, "properties": {"id": "1646165831", "name": "Ärtinnen und Arzt", "lat": 52.52284, "lon": 13.55622, "planning-area-id": 10300731}}, {"type": "Feature", "geometry": {"type": "Point", "coordinates": [13.41683, 52.55823]}, "properties": {"id": "1658078748", "name": "Robert Klose & Barbara Nikolaus", "lat": 52.55823, "lon": 13.41683, "planning-area-id": 3400827}}, {"type": "Feature", "geometry": {"type": "Point", "coordinates": [13.33817, 52.50322]}, "properties": {"id": "1685085152", "name": "Berliner CityChirurg", "lat": 52.50322, "lon": 13.33817, "planning-area-id": 4501042}}, {"type": "Feature", "geometry": {"type": "Point", "coordinates": [13.33713, 52.46805]}, "properties": {"id": "1694534895", "name": "Dr. med. Ch. Heckmann", "street": "Fregestraße 58", "zip-code": 12159, "lat": 52.46805, "lon": 13.33713, "planning-area-id": 7300618}}, {"type": "Feature", "geometry": {"type": "Point", "coordinates": [13.43875, 52.56838]}, "properties": {"id": "1695512705", "name": "Dipl.-Med. Christine Nowitzki", "street": "Romain-Rolland-Straße 71", "zip-code": 13089, "lat": 52.56838, "lon": 13.43875, "planning-area-id": 3300516}}, {"type": "Feature", "geometry": {"type": "Point", "coordinates": [13.39762, 52.58023]}, "properties": {"id": "1786030962", "name": "Lungenarztpraxis Dr. Wiemer", "lat": 52.58023, "lon": 13.39762, "planning-area-id": 3200206}}, {"type": "Feature", "geometry": {"type": "Point", "coordinates": [13.33456, 52.52439]}, "properties": {"id": "1789045839", "name": "Dr. med. Ron Philipps", "street": "Alt-Moabit 77", "zip-code": 10555, "lat": 52.52439, "lon": 13.33456, "planning-area-id": 1200522}}, {"type": "Feature", "geometry": {"type": "Point", "coordinates": [13.33338, 52.52461]}, "properties": {"id": "1807906154", "name": "Hautarzt Praxis Helena Dröge", "street": "Alt-Moabit 39", "zip-code": 10555, "lat": 52.52461, "lon": 13.33338, "planning-area-id": 1200521}}, {"type": "Feature", "geometry": {"type": "Point", "coordinates": [13.35184, 52.49765]}, "properties": {"id": "1915578942", "name": "Laser Skin", "street": "Nollendorfstraße 28", "zip-code": 10777, "lat": 52.49765, "lon": 13.35184, "planning-area-id": 7100102}}, {"type": "Feature", "geometry": {"type": "Point", "coordinates": [13.54649, 52.43569]}, "properties": {"id": "1930491521", "name": "Dr. med. Katrin Sattelkau", "street": "Thomas-Müntzer-Straße 19", "zip-code": 12489, "lat": 52.43569, "lon": 13.54649, "planning-area-id": 9200716}}, {"type": "Feature", "geometry": {"type": "Point", "coordinates": [13.53666, 52.43138]}, "properties": {"id": "1930491527", "name": "ARZ", "street": "Albert-Einstein-Straße 4", "zip-code": 12489, "lat": 52.43138, "lon": 13.53666, "planning-area-id": 9200715}}, {"type": "Feature", "geometry": {"type": "Point", "coordinates": [13.28998, 52.5182]}, "properties": {"id": "1948871670", "name": "Dr. med. Beate Blank-Knaut;Wolf-Dieter Knaut", "street": "Klausenerplatz 19", "zip-code": 14059, "lat": 52.5182, "lon": 13.28998, "planning-area-id": 4300413}}, {"type": "Feature", "geometry": {"type": "Point", "coordinates": [13.43278, 52.49687]}, "properties": {"id": "1965863421", "name": "Anne Reichmann", "street": "Wiener Straße 26", "zip-code": 10999, "lat": 52.49687, "lon": 13.43278, "planning-area-id": 2300418}}, {"type": "Feature", "geometry": {"type": "Point", "coordinates": [13.2903, 52.47296]}, "properties": {"id": "1975066961", "name": "Orthopädiezentrum Schmargendorf", "lat": 52.47296, "lon": 13.2903, "planning-area-id": 4400832}}, {"type": "Feature", "geometry": {"type": "Point", "coordinates": [13.32259, 52.56522]}, "properties": {"id": "1979152023", "name": "Augenärzte Quurke und Blohmer", "lat": 52.56522, "lon": 13.32259, "planning-area-id": 12200309}}, {"type": "Feature", "geometry": {"type": "Point", "coordinates": [13.53857, 52.52759]}, "properties": {"id": "2021434125", "name": "Zahnklinik Ost", "street": "Helene-Weigel-Platz 2", "zip-code": 12681, "lat": 52.52759, "lon": 13.53857, "planning-area-id": 10100312}}, {"type": "Feature", "geometry": {"type": "Point", "coordinates": [13.54178, 52.52765]}, "properties": {"id": "2021445735", "name": "Dr. med. Heidrun Höppner", "street": "Helene-Weigel-Platz 10", "zip-code": 12681, "lat": 52.52765, "lon": 13.54178, "planning-area-id": 10100312}}, {"type": "Feature", "geometry": {"type": "Point", "coordinates": [13.54239, 52.52686]}, "properties": {"id": "2021506140", "name": "Dr. med. Christiane Sachse und Dr. med. Stefan Prollius Urologie", "street": "Helene-Weigel-Platz 11", "zip-code": 12681, "lat": 52.52686, "lon": 13.54239, "planning-area-id": 10100312}}, {"type": "Feature", "geometry": {"type": "Point", "coordinates": [13.34213, 52.5422]}, "properties": {"id": "2031211182", "name": "Erste Hilfe für Kinder", "lat": 52.5422, "lon": 13.34213, "planning-area-id": 1400938}}, {"type": "Feature", "geometry": {"type": "Point", "coordinates": [13.46973, 52.46608]}, "properties": {"id": "2039616248", "name": "Dr.med. Irmgard Wiecha, Augenheilkunde", "lat": 52.46608, "lon": 13.46973, "planning-area-id": 8100521}}, {"type": "Feature", "geometry": {"type": "Point", "coordinates": [13.43156, 52.46667]}, "properties": {"id": "2117481094", "name": "Dr. Otmar Seitz", "lat": 52.46667, "lon": 13.43156, "planning-area-id": 8100105}}, {"type": "Feature", "geometry": {"type": "Point", "coordinates": [13.39807, 52.42362]}, "properties": {"id": "2161242331", "name": "UroBerlin", "street": "Albulaweg 27", "zip-code": 12107, "lat": 52.42362, "lon": 13.39807, "planning-area-id": 7501134}}, {"type": "Feature", "geometry": {"type": "Point", "coordinates": [13.32352, 52.50698]}, "properties": {"id": "2245253678", "name": "HNO Praxis am Savignyplatz", "street": "Carmerstraße 7", "zip-code": 10623, "lat": 52.50698, "lon": 13.32352, "planning-area-id": 4300624}}, {"type": "Feature", "geometry": {"type": "Point", "coordinates": [13.32987, 52.46602]}, "properties": {"id": "2291573031", "name": "Galina Heymann", "street": "Rheinstraße 44", "zip-code": 12161, "lat": 52.46602, "lon": 13.32987, "planning-area-id": 7300618}}, {"type": "Feature", "geometry": {"type": "Point", "coordinates": [13.35429, 52.54679]}, "properties": {"id": "2299873185", "name": "Praxis41", "street": "Genter Straße 41", "zip-code": 13353, "lat": 52.54679, "lon": 13.35429, "planning-area-id": 1400942}}, {"type": "Feature", "geometry": {"type": "Point", "coordinates": [13.61358, 52.50869]}, "properties": {"id": "2305070506", "name": "Derma Berlin", "street": "Hönower Straße 48", "zip-code": 12623, "lat": 52.50869, "lon": 13.61358, "planning-area-id": 10400939}}, {"type": "Feature", "geometry": {"type": "Point", "coordinates": [13.56319, 52.40171]}, "properties": {"id": "2308204312", "name": "Praxis Dr. med. Marcus & Sabine Wagner", "lat": 52.40171, "lon": 13.56319, "planning-area-id": 9301024}}, {"type": "Feature", "geometry": {"type": "Point", "coordinates": [13.394, 52.4894]}, "properties": {"id": "2329997112", "name": "Ulrike Steinhoff", "street": "Marheinekeplatz 15", "zip-code": 10961, "lat": 52.4894, "lon": 13.394, "planning-area-id": 2200211}}, {"type": "Feature", "geometry": {"type": "Point", "coordinates": [13.32385, 52.50557]}, "properties": {"id": "2336898160", "name": "Orthopädie Boehland thefuncdoc", "street": "Kantstraße 147", "zip-code": 10623, "lat": 52.50557, "lon": 13.32385, "planning-area-id": 4300624}}, {"type": "Feature", "geometry": {"type": "Point", "coordinates": [13.40504, 52.52353]}, "properties": {"id": "2344314518", "name": "Neurologie am Hackeschen Markt", "lat": 52.52353, "lon": 13.40504, "planning-area-id": 1100309}}, {"type": "Feature", "geometry": {"type": "Point", "coordinates": [13.34546, 52.43702]}, "properties": {"id": "2354523816", "name": "Andre Baumgartner", "street": "Leonorenstraße 95", "zip-code": 12247, "lat": 52.43702, "lon": 13.34546, "planning-area-id": 6200313}}, {"type": "Feature", "geometry": {"type": "Point", "coordinates": [13.31661, 52.44626]}, "properties": {"id": "2368426801", "name": "Claudia Linke", "street": "Marschnerstraße 12", "zip-code": 12203, "lat": 52.44626, "lon": 13.31661, "planning-area-id": 6300630}}, {"type": "Feature", "geometry": {"type": "Point", "coordinates": [13.39207, 52.49988]}, "properties": {"id": "2382136284", "name": "Hubert Schulbin & Miriam Speer", "street": "Mehringplatz 11", "zip-code": 10969, "lat": 52.49988, "lon": 13.39207, "planning-area-id": 2100102}}, {"type": "Feature", "geometry": {"type": "Point", "coordinates": [13.38909, 52.51923]}, "properties": {"id": "2395938967", "name": "DocOrtho", "street": "Friedrichstraße 94", "zip-code": 10117, "lat": 52.51923, "lon": 13.38909, "planning-area-id": 1100206}}, {"type": "Feature", "geometry": {"type": "Point", "coordinates": [13.28526, 52.58726]}, "properties": {"id": "2421735920", "name": "Augenarztpraxis Dr. Urszula Kaczmarek;Dr. Tina Hertling", "street": "Brunowstraße 52", "zip-code": 13507, "lat": 52.58726, "lon": 13.28526, "planning-area-id": 12200515}}, {"type": "Feature", "geometry": {"type": "Point", "coordinates": [13.26762, 52.53554]}, "properties": {"id": "2425353970", "name": "Hausarztpraxis Siemensstadt", "street": "Quellweg 9", "zip-code": 13629, "lat": 52.53554, "lon": 13.26762, "planning-area-id": 5300841}}, {"type": "Feature", "geometry": {"type": "Point", "coordinates": [13.46189, 52.50983]}, "properties": {"id": "2439358437", "name": "Baumeister/Schleiermacher", "street": "Seumestraße 21", "zip-code": 10245, "lat": 52.50983, "lon": 13.46189, "planning-area-id": 2500833}}, {"type": "Feature", "geometry": {"type": "Point", "coordinates": [13.45803, 52.55003]}, "properties": {"id": "2451527849", "street": "Berliner Allee 97", "zip-code": 13088, "lat": 52.55003, "lon": 13.45803, "planning-area-id": 3500935}}, {"type": "Feature", "geometry": {"type": "Point", "coordinates": [13.39865, 52.38586]}, "properties": {"id": "2470100411", "name": "Kinderarztpraxis - Dr. Wilke", "street": "Briesingstraße 6", "zip-code": 12307, "lat": 52.38586, "lon": 13.39865, "planning-area-id": 7601544}}, {"type": "Feature", "geometry": {"type": "Point", "coordinates": [13.37651, 52.49095]}, "properties": {"id": "2476693013", "name": "Praxis am Kreuzberg", "street": "Katzbachstraße 2", "zip-code": 10965, "lat": 52.49095, "lon": 13.37651, "planning-area-id": 2200209}}, {"type": "Feature", "geometry": {"type": "Point", "coordinates": [13.43404, 52.48527]}, "properties": {"id": "2482699009", "name": "Hausärztliche Gemeinschaftspraxis Bamberg & Zitscher", "street": "Weichselstraße 59", "zip-code": 12045, "lat": 52.48527, "lon": 13.43404, "planning-area-id": 8100312}}, {"type": "Feature", "geometry": {"type": "Point", "coordinates": [13.45765, 52.49213]}, "properties": {"id": "2521156202", "name": "Augenarztpraxis Dr. Azar Hasanli", "street": "Am Treptower Park 75", "zip-code": 12435, "lat": 52.49213, "lon": 13.45765, "planning-area-id": 9100101}}, {"type": "Feature", "geometry": {"type": "Point", "coordinates": [13.38892, 52.48932]}, "properties": {"id": "2542741215", "name": "Praxis für Kinderheilkunde Dr. Berns", "street": "Bergmannstraße 5", "zip-code": 10961, "lat": 52.48932, "lon": 13.38892, "planning-area-id": 2200211}}, {"type": "Feature", "geometry": {"type": "Point", "coordinates": [13.40292, 52.48897]}, "properties": {"id": "2621960760", "name": "Dr. Helma Hesse", "street": "Bergmannstraße 59", "zip-code": 10961, "lat": 52.48897, "lon": 13.40292, "planning-area-id": 2200211}}, {"type": "Feature", "geometry": {"type": "Point", "coordinates": [13.58392, 52.52124]}, "properties": {"id": "2631985288", "name": "Die Helle Praxis", "street": "Teterower Ring 58", "zip-code": 12619, "lat": 52.52124, "lon": 13.58392, "planning-area-id": 10200629}}, {"type": "Feature", "geometry": {"type": "Point", "coordinates": [13.58377, 52.52121]}, "properties": {"id": "2631985290", "name": "Dipl.-Med. Berit Kempf", "street": "Teterower Ring 60", "zip-code": 12619, "lat": 52.52121, "lon": 13.58377, "planning-area-id": 10200629}}, {"type": "Feature", "geometry": {"type": "Point", "coordinates": [13.58479, 52.52138]}, "properties": {"id": "2631985291", "name": "Kinderärztliche Praxisgemeinschaft", "street": "Teterower Ring 48", "zip-code": 12619, "lat": 52.52138, "lon": 13.58479, "planning-area-id": 10200629}}, {"type": "Feature", "geometry": {"type": "Point", "coordinates": [13.45797, 52.59308]}, "properties": {"id": "2637167738", "name": "Ärtzin für Allgemeinmedizin Dr. med Wladow", "lat": 52.59308, "lon": 13.45797, "planning-area-id": 3300514}}, {"type": "Feature", "geometry": {"type": "Point", "coordinates": [13.72066, 52.43734]}, "properties": {"id": "2640145314", "name": "Arztpraxis Wilhelmshagen", "street": "Grenzbergeweg 12", "zip-code": 12589, "lat": 52.43734, "lon": 13.72066, "planning-area-id": 9501838}}, {"type": "Feature", "geometry": {"type": "Point", "coordinates": [13.43748, 52.46953]}, "properties": {"id": "2645597402", "name": "Brigitte Kahan", "street": "Selkestraße 1", "zip-code": 12051, "lat": 52.46953, "lon": 13.43748, "planning-area-id": 8100208}}, {"type": "Feature", "geometry": {"type": "Point", "coordinates": [13.31827, 52.51747]}, "properties": {"id": "2648384916", "name": "Dr. med. Anja Lilge, Dr. med. Sebastian Kuss", "street": "Guerickestraße 11", "lat": 52.51747, "lon": 13.31827, "planning-area-id": 4300622}}, {"type": "Feature", "geometry": {"type": "Point", "coordinates": [13.32163, 52.5023]}, "properties": {"id": "2669802714", "name": "Esthetic-Infopoint Klinik am Kurfürstendamm", "street": "Knesebeckstraße 35-37", "zip-code": 10623, "lat": 52.5023, "lon": 13.32163, "planning-area-id": 4501041}}, {"type": "Feature", "geometry": {"type": "Point", "coordinates": [13.6249, 52.4502]}, "properties": {"id": "2671139561", "name": "Praxis am Marktplatz", "street": "Bölschestraße 27", "zip-code": 12587, "lat": 52.4502, "lon": 13.6249, "planning-area-id": 9501737}}, {"type": "Feature", "geometry": {"type": "Point", "coordinates": [13.43495, 52.53561]}, "properties": {"id": "2680530317", "name": "Dr. med. Monika Went", "street": "Danziger Straße 129", "zip-code": 10407, "lat": 52.53561, "lon": 13.43495, "planning-area-id": 3601451}}, {"type": "Feature", "geometry": {"type": "Point", "coordinates": [13.31717, 52.49162]}, "properties": {"id": "2686551438", "name": "Clinica Vita", "street": "Hohenzollerndamm 28a", "zip-code": 10713, "lat": 52.49162, "lon": 13.31717, "planning-area-id": 4501044}}, {"type": "Feature", "geometry": {"type": "Point", "coordinates": [13.30359, 52.42761]}, "properties": {"id": "2691708881", "name": "Augenarzt Dr. Mathias Altmeyer", "lat": 52.42761, "lon": 13.30359, "planning-area-id": 6300632}}, {"type": "Feature", "geometry": {"type": "Point", "coordinates": [13.30229, 52.52038]}, "properties": {"id": "2718245783", "name": "Dr. Marco Thomas", "lat": 52.52038, "lon": 13.30229, "planning-area-id": 4300619}}, {"type": "Feature", "geometry": {"type": "Point", "coordinates": [13.27131, 52.48556]}, "properties": {"id": "2726891322", "name": "Dr. med. Gisela Fuß", "street": "Schwedlerstraße 11", "zip-code": 14193, "lat": 52.48556, "lon": 13.27131, "planning-area-id": 4400728}}, {"type": "Feature", "geometry": {"type": "Point", "coordinates": [13.38163, 52.49376]}, "properties": {"id": "2780522237", "lat": 52.49376, "lon": 13.38163, "planning-area-id": 2200208}}, {"type": "Feature", "geometry": {"type": "Point", "coordinates": [13.44248, 52.49888]}, "properties": {"id": "2796338447", "name": "Daniel Engert, Annette Cotanidis", "lat": 52.49888, "lon": 13.44248, "planning-area-id": 2300419}}, {"type": "Feature", "geometry": {"type": "Point", "coordinates": [13.36606, 52.54658]}, "properties": {"id": "2805930433", "name": "Dr. med. Ulrich Müller", "street": "Plantagenstraße 10", "zip-code": 13347, "lat": 52.54658, "lon": 13.36606, "planning-area-id": 1401043}}, {"type": "Feature", "geometry": {"type": "Point", "coordinates": [13.41295, 52.55853]}, "properties": {"id": "2821462304", "name": "Dr. med. Cathleen Barth", "street": "Berliner Straße 53", "zip-code": 13189, "lat": 52.55853, "lon": 13.41295, "planning-area-id": 3400826}}, {"type": "Feature", "geometry": {"type": "Point", "coordinates": [13.2582, 52.51652]}, "properties": {"id": "2822029842", "name": "Praxis Neuweiler", "street": "Olympische Straße 10", "zip-code": 14052, "lat": 52.51652, "lon": 13.2582, "planning-area-id": 4200309}}, {"type": "Feature", "geometry": {"type": "Point", "coordinates": [13.42287, 52.48067]}, "properties": {"id": "2822998260", "name": "Urologie & Gesundheitskonzept", "street": "Flughafenstraße 72", "zip-code": 12049, "lat": 52.48067, "lon": 13.42287, "planning-area-id": 8100101}}, {"type": "Feature", "geometry": {"type": "Point", "coordinates": [13.42823, 52.48024]}, "properties": {"id": "2852276952", "name": "Orthopaedium", "street": "Boddinstraße 22", "zip-code": 12053, "lat": 52.48024, "lon": 13.42823, "planning-area-id": 8100206}}, {"type": "Feature", "geometry": {"type": "Point", "coordinates": [13.39781, 52.53465]}, "properties": {"id": "2857712873", "name": "Frauenarztpraxis Abhari", "street": "Brunnenstraße 160", "zip-code": 10115, "lat": 52.53465, "lon": 13.39781, "planning-area-id": 1100415}}, {"type": "Feature", "geometry": {"type": "Point", "coordinates": [13.43671, 52.42391]}, "properties": {"id": "2864467601", "name": "Hausarztpraxis Osterberg", "lat": 52.42391, "lon": 13.43671, "planning-area-id": 8200730}}, {"type": "Feature", "geometry": {"type": "Point", "coordinates": [13.43602, 52.41808]}, "properties": {"id": "2867705809", "name": "Kinderärztin Inys-Marika Parera Carbonero", "lat": 52.41808, "lon": 13.43602, "planning-area-id": 8200832}}, {"type": "Feature", "geometry": {"type": "Point", "coordinates": [13.19673, 52.5235]}, "properties": {"id": "2877320034", "name": "Dr. med. Annette Lubasch", "lat": 52.5235, "lon": 13.19673, "planning-area-id": 5200630}}, {"type": "Feature", "geometry": {"type": "Point", "coordinates": [13.19678, 52.52351]}, "properties": {"id": "2877320035", "name": "Dr. med. Marcus Rücker", "lat": 52.52351, "lon": 13.19678, "planning-area-id": 5200630}}, {"type": "Feature", "geometry": {"type": "Point", "coordinates": [13.19687, 52.52116]}, "properties": {"id": "2877326320", "name": "Clemens Hache", "lat": 52.52116, "lon": 13.19687, "planning-area-id": 5200630}}, {"type": "Feature", "geometry": {"type": "Point", "coordinates": [13.19758, 52.51905]}, "properties": {"id": "2877328152", "name": "Dres. Christian Thies & Meike Günther", "lat": 52.51905, "lon": 13.19758, "planning-area-id": 5200630}}, {"type": "Feature", "geometry": {"type": "Point", "coordinates": [13.4535, 52.51948]}, "properties": {"id": "2901987909", "name": "Dr. D. Händel", "street": "Thaerstraße 47", "zip-code": 10249, "lat": 52.51948, "lon": 13.4535, "planning-area-id": 2500726}}, {"type": "Feature", "geometry": {"type": "Point", "coordinates": [13.47079, 52.60175]}, "properties": {"id": "2928757440", "name": "Ruthild Gruner", "street": "Blankenburger Chaussee 35", "zip-code": 13125, "lat": 52.60175, "lon": 13.47079, "planning-area-id": 3300412}}, {"type": "Feature", "geometry": {"type": "Point", "coordinates": [13.45527, 52.5934]}, "properties": {"id": "2930937203", "name": "Augenarzt", "street": "Alt-Blankenburg 29", "zip-code": 13129, "lat": 52.5934, "lon": 13.45527, "planning-area-id": 3300514}}, {"type": "Feature", "geometry": {"type": "Point", "coordinates": [13.37338, 52.45807]}, "properties": {"id": "2938074459", "name": "Kinderarztpraxis Tempelhof", "street": "Burgemeisterstraße 34", "zip-code": 12103, "lat": 52.45807, "lon": 13.37338, "planning-area-id": 7400823}}, {"type": "Feature", "geometry": {"type": "Point", "coordinates": [13.2993, 52.50783]}, "properties": {"id": "2940544338", "name": "Medical Office Berlin", "street": "Pestalozzistraße 58", "zip-code": 10627, "lat": 52.50783, "lon": 13.2993, "planning-area-id": 4300416}}, {"type": "Feature", "geometry": {"type": "Point", "coordinates": [13.36213, 52.56734]}, "properties": {"id": "2953783035", "name": "Allgemeinarzt Tanja Kosi", "street": "Residenzstraße 33", "zip-code": 13409, "lat": 52.56734, "lon": 13.36213, "planning-area-id": 12100204}}, {"type": "Feature", "geometry": {"type": "Point", "coordinates": [13.3936, 52.58013]}, "properties": {"id": "2957918586", "name": "Gerhard Peters", "street": "Wilhelm-Wolff-Straße 29", "zip-code": 13156, "lat": 52.58013, "lon": 13.3936, "planning-area-id": 3200206}}, {"type": "Feature", "geometry": {"type": "Point", "coordinates": [13.16289, 52.46364]}, "properties": {"id": "3020046655", "name": "Praxis für Kinder- und Jugendpsychiatrie", "street": "Havelhöhe 221", "zip-code": 14089, "lat": 52.46364, "lon": 13.16289, "planning-area-id": 5400942}}, {"type": "Feature", "geometry": {"type": "Point", "coordinates": [13.60558, 52.53741]}, "properties": {"id": "3021115083", "name": "Sahar Fazeli-Marinkovic", "street": "Peter-Weiss-Gasse 1", "zip-code": 12627, "lat": 52.53741, "lon": 13.60558, "planning-area-id": 10200421}}, {"type": "Feature", "geometry": {"type": "Point", "coordinates": [13.60198, 52.53786]}, "properties": {"id": "3021115916", "name": "Herr Dr. med. Andreas Meinecke", "street": "Janusz-Korczak-Straße 12", "zip-code": 12627, "lat": 52.53786, "lon": 13.60198, "planning-area-id": 10200421}}, {"type": "Feature", "geometry": {"type": "Point", "coordinates": [13.45416, 52.54769]}, "properties": {"id": "3039050431", "name": "Arztpraxis Dr. med. Antje Bodamer", "street": "Bizetstraße 48", "zip-code": 13088, "lat": 52.54769, "lon": 13.45416, "planning-area-id": 3500936}}, {"type": "Feature", "geometry": {"type": "Point", "coordinates": [13.44996, 52.48973]}, "properties": {"id": "3039142154", "name": "Praxis Khalaf", "street": "Karl-Kunger-Straße 48", "zip-code": 12435, "lat": 52.48973, "lon": 13.44996, "planning-area-id": 9100101}}, {"type": "Feature", "geometry": {"type": "Point", "coordinates": [13.30409, 52.42692]}, "properties": {"id": "3039549337", "name": "Urologische Gemeinschaftspraxis", "street": "Lausanner Straße 85", "zip-code": 12205, "lat": 52.42692, "lon": 13.30409, "planning-area-id": 6300632}}, {"type": "Feature", "geometry": {"type": "Point", "coordinates": [13.33564, 52.43243]}, "properties": {"id": "3039574834", "name": "Dr. med. Christian Lechelt", "street": "Elisabethstraße 31", "zip-code": 12247, "lat": 52.43243, "lon": 13.33564, "planning-area-id": 6200314}}, {"type": "Feature", "geometry": {"type": "Point", "coordinates": [13.31964, 52.49171]}, "properties": {"id": "3050033746", "name": "Chirurgicum Berlin", "zip-code": 10719, "lat": 52.49171, "lon": 13.31964, "planning-area-id": 4501147}}, {"type": "Feature", "geometry": {"type": "Point", "coordinates": [13.31277, 52.501]}, "properties": {"id": "3056521036", "name": "TEMEDOS Privatpraxis für Allgemeinmedizin und integrative Medizin", "street": "Kurfürstendamm 61", "zip-code": 10707, "lat": 52.501, "lon": 13.31277, "planning-area-id": 4501040}}, {"type": "Feature", "geometry": {"type": "Point", "coordinates": [13.43525, 52.48062]}, "properties": {"id": "3058754378", "name": "Dr. med. Hans-Joachim Greiner", "street": "Karl-Marx-Straße 88", "zip-code": 12043, "lat": 52.48062, "lon": 13.43525, "planning-area-id": 8100206}}, {"type": "Feature", "geometry": {"type": "Point", "coordinates": [13.49757, 52.54709]}, "properties": {"id": "3059172051", "name": "Igor Ladyshenskij", "street": "Konrad-Wolf-Straße 13a", "zip-code": 13055, "lat": 52.54709, "lon": 13.49757, "planning-area-id": 11200411}}, {"type": "Feature", "geometry": {"type": "Point", "coordinates": [13.34159, 52.49469]}, "properties": {"id": "3072343933", "name": "Dr. med. Renate Griebler", "street": "Münchener Straße 3", "zip-code": 10777, "lat": 52.49469, "lon": 13.34159, "planning-area-id": 7100101}}, {"type": "Feature", "geometry": {"type": "Point", "coordinates": [13.386, 52.46843]}, "properties": {"id": "3179936459", "name": "Augenarzt Dr. Amir Karandish", "street": "Tempelhofer Damm 125", "zip-code": 12099, "lat": 52.46843, "lon": 13.386, "planning-area-id": 7400927}}, {"type": "Feature", "geometry": {"type": "Point", "coordinates": [13.50339, 52.50986]}, "properties": {"id": "3247240561", "name": "Dr. med. Jana Böldt", "street": "Einbecker Straße 37", "zip-code": 10317, "lat": 52.50986, "lon": 13.50339, "planning-area-id": 11400931}}, {"type": "Feature", "geometry": {"type": "Point", "coordinates": [13.27021, 52.45158]}, "properties": {"id": "3249815642", "name": "Dr. Christian Rose", "street": "Clayallee 175", "zip-code": 14195, "lat": 52.45158, "lon": 13.27021, "planning-area-id": 6400842}}, {"type": "Feature", "geometry": {"type": "Point", "coordinates": [13.33991, 52.54235]}, "properties": {"id": "3260438704", "name": "Experimentelle Chirurgie und Regenerative Medizin", "lat": 52.54235, "lon": 13.33991, "planning-area-id": 1400938}}, {"type": "Feature", "geometry": {"type": "Point", "coordinates": [13.4854, 52.61629]}, "properties": {"id": "3300157793", "name": "Kinderarztpraxis Karow", "street": "Bucher Chaussee 1-3", "zip-code": 13125, "lat": 52.61629, "lon": 13.4854, "planning-area-id": 3300411}}, {"type": "Feature", "geometry": {"type": "Point", "coordinates": [13.48545, 52.61631]}, "properties": {"id": "3300157794", "name": "Gynäkologe", "lat": 52.61631, "lon": 13.48545, "planning-area-id": 3300411}}, {"type": "Feature", "geometry": {"type": "Point", "coordinates": [13.61883, 52.52978]}, "properties": {"id": "3313604945", "name": "Dr. Frank Mielke und Dr. Marion Mielke", "street": "Mittweidaer Straße 11-15", "zip-code": 12627, "lat": 52.52978, "lon": 13.61883, "planning-area-id": 10200525}}, {"type": "Feature", "geometry": {"type": "Point", "coordinates": [13.29557, 52.44292]}, "properties": {"id": "3316598757", "name": "Hausarztpraxis in Lichterfelde-West Dr. Katharina Stark · Dr. med. Henning Stuht · Boris Warneck Fachärzte für Allgemeinmedizin/Innere Medizin", "street": "Baseler Straße 3", "zip-code": 12205, "lat": 52.44292, "lon": 13.29557, "planning-area-id": 6300634}}, {"type": "Feature", "geometry": {"type": "Point", "coordinates": [13.51727, 52.57208]}, "properties": {"id": "3325166986", "name": "Allgemeinärztin Annette Gurzynski", "street": "Neubrandenburger Straße 86", "zip-code": 13059, "lat": 52.57208, "lon": 13.51727, "planning-area-id": 11100205}}, {"type": "Feature", "geometry": {"type": "Point", "coordinates": [13.27718, 52.52108]}, "properties": {"id": "3330737659", "name": "Durchgangsarzt", "lat": 52.52108, "lon": 13.27718, "planning-area-id": 4200308}}, {"type": "Feature", "geometry": {"type": "Point", "coordinates": [13.38809, 52.51959]}, "properties": {"id": "3333780293", "name": "Dr. Bek, Dr. Lozo, Dr. Föhse & Kollegen", "street": "Friedrichstraße 147", "zip-code": 10117, "lat": 52.51959, "lon": 13.38809, "planning-area-id": 1100206}}, {"type": "Feature", "geometry": {"type": "Point", "coordinates": [13.3229, 52.50363]}, "properties": {"id": "3358347399", "name": "Dr. Med, Gerhard Perchalla", "street": "Knesebeckstraße 74", "zip-code": 10623, "lat": 52.50363, "lon": 13.3229, "planning-area-id": 4501041}}, {"type": "Feature", "geometry": {"type": "Point", "coordinates": [13.29231, 52.4582]}, "properties": {"id": "3377697127", "name": "Dr. Irina Klemmt", "street": "Königin-Luise-Straße 37", "zip-code": 14195, "lat": 52.4582, "lon": 13.29231, "planning-area-id": 6400844}}, {"type": "Feature", "geometry": {"type": "Point", "coordinates": [13.41433, 52.55033]}, "properties": {"id": "3377709972", "name": "Gemeinschaftspraxis für Nuklearmedizin Dipl.Med. Thomas Alexander Dr.med Jochen Krätschmer Susan Krüger", "street": "Schönhauser Allee 82", "zip-code": 10439, "lat": 52.55033, "lon": 13.41433, "planning-area-id": 3601243}}, {"type": "Feature", "geometry": {"type": "Point", "coordinates": [13.44555, 52.49217]}, "properties": {"id": "3442720887", "name": "Ilona Reh", "street": "Karl-Kunger-Straße 6", "zip-code": 12435, "lat": 52.49217, "lon": 13.44555, "planning-area-id": 9100101}}, {"type": "Feature", "geometry": {"type": "Point", "coordinates": [13.34926, 52.49798]}, "properties": {"id": "3495544095", "name": "Praxis Jessen & Kollegen", "street": "Motzstraße 19", "zip-code": 10777, "lat": 52.49798, "lon": 13.34926, "planning-area-id": 7100102}}, {"type": "Feature", "geometry": {"type": "Point", "coordinates": [13.41879, 52.53729]}, "properties": {"id": "3519174204", "name": "Dr. med. Dorothea Sperling", "street": "Kollwitzstraße 73", "zip-code": 10435, "lat": 52.53729, "lon": 13.41879, "planning-area-id": 3701555}}, {"type": "Feature", "geometry": {"type": "Point", "coordinates": [13.55541, 52.39906]}, "properties": {"id": "3531173234", "name": "Augentagesklinik Berlin-Bohnsdorf", "street": "Dorfplatz 6", "zip-code": 12526, "lat": 52.39906, "lon": 13.55541, "planning-area-id": 9301025}}, {"type": "Feature", "geometry": {"type": "Point", "coordinates": [13.57376, 52.41193]}, "properties": {"id": "3531173480", "name": "Praxis für Allgemeinmedizin Romy Meyer, Dr. med. Bijay Pokhrel", "street": "Richterstraße 12", "zip-code": 12526, "lat": 52.41193, "lon": 13.57376, "planning-area-id": 9301126}}, {"type": "Feature", "geometry": {"type": "Point", "coordinates": [13.57071, 52.41026]}, "properties": {"id": "3531181024", "name": "Praxis Dagmar Klausch", "lat": 52.41026, "lon": 13.57071, "planning-area-id": 9301024}}, {"type": "Feature", "geometry": {"type": "Point", "coordinates": [13.57245, 52.40016]}, "properties": {"id": "3531191526", "name": "Praxis Dr. med. Claudia Lorkowski", "lat": 52.40016, "lon": 13.57245, "planning-area-id": 9301025}}, {"type": "Feature", "geometry": {"type": "Point", "coordinates": [13.3512, 52.49248]}, "properties": {"id": "3547205121", "name": "Dr. med. Nikolaus Höllen", "street": "Kyffhäuserstraße 11", "zip-code": 10781, "lat": 52.49248, "lon": 13.3512, "planning-area-id": 7100204}}, {"type": "Feature", "geometry": {"type": "Point", "coordinates": [13.4643, 52.50513]}, "properties": {"id": "3612819081", "name": "Dr. med. Claas Mehlhop", "street": "Matkowskystraße 2", "zip-code": 10245, "lat": 52.50513, "lon": 13.4643, "planning-area-id": 2500834}}, {"type": "Feature", "geometry": {"type": "Point", "coordinates": [13.38529, 52.46403]}, "properties": {"id": "3617048838", "name": "Patienten Praxis", "street": "Tempelhofer Damm 158-160", "zip-code": 12099, "lat": 52.46403, "lon": 13.38529, "planning-area-id": 7400824}}, {"type": "Feature", "geometry": {"type": "Point", "coordinates": [13.32096, 52.50214]}, "properties": {"id": "3631135734", "name": "Kantpraxis", "street": "Kurfürstendamm 42", "zip-code": 10719, "lat": 52.50214, "lon": 13.32096, "planning-area-id": 4501041}}, {"type": "Feature", "geometry": {"type": "Point", "coordinates": [13.44784, 52.51229]}, "properties": {"id": "3644421193", "name": "Kinderarzt Dr. Busch", "street": "Am Comeniusplatz 1", "zip-code": 10243, "lat": 52.51229, "lon": 13.44784, "planning-area-id": 2400624}}, {"type": "Feature", "geometry": {"type": "Point", "coordinates": [13.41374, 52.53208]}, "properties": {"id": "3644905695", "name": "Dipl.- Med. André Krüger", "street": "Kollwitzstraße 14", "zip-code": 10405, "lat": 52.53208, "lon": 13.41374, "planning-area-id": 3701556}}, {"type": "Feature", "geometry": {"type": "Point", "coordinates": [13.4237, 52.53709]}, "properties": {"id": "3649492751", "name": "Calmez & Ewald", "street": "Christburger Straße 50", "zip-code": 10405, "lat": 52.53709, "lon": 13.4237, "planning-area-id": 3701658}}, {"type": "Feature", "geometry": {"type": "Point", "coordinates": [13.33444, 52.50364]}, "properties": {"id": "3676977425", "name": "Dr Maia Berenzon", "lat": 52.50364, "lon": 13.33444, "planning-area-id": 4501042}}, {"type": "Feature", "geometry": {"type": "Point", "coordinates": [13.41257, 52.54923]}, "properties": {"id": "3684274323", "name": "Dr. Wagner", "street": "Schönhauser Allee 118", "zip-code": 10437, "lat": 52.54923, "lon": 13.41257, "planning-area-id": 3601142}}, {"type": "Feature", "geometry": {"type": "Point", "coordinates": [13.49657, 52.50496]}, "properties": {"id": "3741754195", "name": "Dr. med. Aline Kahl", "street": "Wönnichstraße 64", "zip-code": 10317, "lat": 52.50496, "lon": 13.49657, "planning-area-id": 11400929}}, {"type": "Feature", "geometry": {"type": "Point", "coordinates": [13.50001, 52.50525]}, "properties": {"id": "3741811284", "name": "Andreas Bär", "street": "Bietzkestraße 1", "zip-code": 10315, "lat": 52.50525, "lon": 13.50001, "planning-area-id": 11400929}}, {"type": "Feature", "geometry": {"type": "Point", "coordinates": [13.50732, 52.52733]}, "properties": {"id": "3756450109", "name": "Radiologische Praxis am KEH", "street": "Herzbergstraße 79", "zip-code": 10365, "lat": 52.52733, "lon": 13.50732, "planning-area-id": 11300721}}, {"type": "Feature", "geometry": {"type": "Point", "coordinates": [13.34411, 52.54165]}, "properties": {"id": "3767970062", "name": "Erste Hilfe Chirurgie", "lat": 52.54165, "lon": 13.34411, "planning-area-id": 1400938}}, {"type": "Feature", "geometry": {"type": "Point", "coordinates": [13.34326, 52.5423]}, "properties": {"id": "3767970163", "name": "Erste Hilfe Entbindung", "lat": 52.5423, "lon": 13.34326, "planning-area-id": 1400938}}, {"type": "Feature", "geometry": {"type": "Point", "coordinates": [13.34504, 52.54241]}, "properties": {"id": "3767970165", "name": "Erste Hilfe Innere Medizin", "street": "Mittelallee 11", "lat": 52.54241, "lon": 13.34504, "planning-area-id": 1400938}}, {"type": "Feature", "geometry": {"type": "Point", "coordinates": [13.57459, 52.488]}, "properties": {"id": "3779595517", "name": "Arztpraxis Dr. Sylva Mitterdiami", "street": "Chemnitzer Straße 196", "lat": 52.488, "lon": 13.57459, "planning-area-id": 10400837}}, {"type": "Feature", "geometry": {"type": "Point", "coordinates": [13.36289, 52.56592]}, "properties": {"id": "3780866188", "name": "Schulz und Buhrmeister Orthopädietechnik", "street": "Residenzstraße 39", "zip-code": 13409, "lat": 52.56592, "lon": 13.36289, "planning-area-id": 12100204}}, {"type": "Feature", "geometry": {"type": "Point", "coordinates": [13.3183, 52.45794]}, "properties": {"id": "3793792757", "name": "Dr. med. Franziska Schwirkmann-Tjon", "street": "Grunewaldstraße 6", "zip-code": 12165, "lat": 52.45794, "lon": 13.3183, "planning-area-id": 6100102}}, {"type": "Feature", "geometry": {"type": "Point", "coordinates": [13.35234, 52.48495]}, "properties": {"id": "3799268654", "name": "Die Radiologie Berlin Praxisgemeinschaft", "street": "Eisenacher Straße 60/61", "zip-code": 10823, "lat": 52.48495, "lon": 13.35234, "planning-area-id": 7200409}}, {"type": "Feature", "geometry": {"type": "Point", "coordinates": [13.57986, 52.45967]}, "properties": {"id": "3803786802", "name": "Praxis für Dermatologie und Venerologie", "lat": 52.45967, "lon": 13.57986, "planning-area-id": 9502043}}, {"type": "Feature", "geometry": {"type": "Point", "coordinates": [13.41804, 52.54188]}, "properties": {"id": "3811492221", "name": "Kinderarztpraxis Hubermann & Kollegen", "street": "Schliemannstraße 10", "zip-code": 10437, "lat": 52.54188, "lon": 13.41804, "planning-area-id": 3601347}}, {"type": "Feature", "geometry": {"type": "Point", "coordinates": [13.34826, 52.49954]}, "properties": {"id": "3826451963", "name": "Dr. Juri Kirsten", "street": "Kalckreuthstraße 16", "zip-code": 10777, "lat": 52.49954, "lon": 13.34826, "planning-area-id": 7100102}}, {"type": "Feature", "geometry": {"type": "Point", "coordinates": [13.34796, 52.49887]}, "properties": {"id": "3826451964", "name": "Dr. Med. Irene Ernst", "street": "Kalckreuthstraße 6", "zip-code": 10777, "lat": 52.49887, "lon": 13.34796, "planning-area-id": 7100102}}, {"type": "Feature", "geometry": {"type": "Point", "coordinates": [13.35222, 52.49941]}, "properties": {"id": "3826452021", "name": "Matthias Dahms Zahnarztpraxis", "street": "Nollendorfplatz 3-4", "zip-code": 10777, "lat": 52.49941, "lon": 13.35222, "planning-area-id": 7100102}}, {"type": "Feature", "geometry": {"type": "Point", "coordinates": [13.39303, 52.4994]}, "properties": {"id": "3831364976", "name": "Dr. Cemile Opitz", "street": "Mehringplatz 7", "zip-code": 10969, "lat": 52.4994, "lon": 13.39303, "planning-area-id": 2100102}}, {"type": "Feature", "geometry": {"type": "Point", "coordinates": [13.36872, 52.56098]}, "properties": {"id": "3832401943", "name": "Dr. med. Sina Bloching", "street": "Residenzstraße 95", "zip-code": 13409, "lat": 52.56098, "lon": 13.36872, "planning-area-id": 12100101}}, {"type": "Feature", "geometry": {"type": "Point", "coordinates": [13.36875, 52.56093]}, "properties": {"id": "3832422033", "name": "Medizinisches Versorgungszentrum für Neurologie und Psychiatrie", "street": "Residenzstraße 95", "zip-code": 13409, "lat": 52.56093, "lon": 13.36875, "planning-area-id": 12100101}}, {"type": "Feature", "geometry": {"type": "Point", "coordinates": [13.36876, 52.56088]}, "properties": {"id": "3832423809", "name": "Dr. Wanda von Zglinicki", "street": "Residenzstraße 95", "zip-code": 13409, "lat": 52.56088, "lon": 13.36876, "planning-area-id": 12100101}}, {"type": "Feature", "geometry": {"type": "Point", "coordinates": [13.36884, 52.56091]}, "properties": {"id": "3832429887", "name": "Dr. med. Ekkehard Welker", "street": "Residenzstraße 95", "zip-code": 13409, "lat": 52.56091, "lon": 13.36884, "planning-area-id": 12100101}}, {"type": "Feature", "geometry": {"type": "Point", "coordinates": [13.36868, 52.56095]}, "properties": {"id": "3832434390", "name": "Dipl.-Med. Sylvia Friedel", "street": "Residenzstraße 95", "zip-code": 13409, "lat": 52.56095, "lon": 13.36868, "planning-area-id": 12100101}}, {"type": "Feature", "geometry": {"type": "Point", "coordinates": [13.45365, 52.51966]}, "properties": {"id": "3837278297", "name": "Dr. med. Lothar Müller", "street": "Thaerstraße 46", "zip-code": 10249, "lat": 52.51966, "lon": 13.45365, "planning-area-id": 2500726}}, {"type": "Feature", "geometry": {"type": "Point", "coordinates": [13.36322, 52.50077]}, "properties": {"id": "3837620656", "name": "Kleintierpraxis im Kiez", "lat": 52.50077, "lon": 13.36322, "planning-area-id": 1100103}}, {"type": "Feature", "geometry": {"type": "Point", "coordinates": [13.31722, 52.50231]}, "properties": {"id": "3861765081", "name": "Docboom!", "zip-code": 10629, "lat": 52.50231, "lon": 13.31722, "planning-area-id": 4501041}}, {"type": "Feature", "geometry": {"type": "Point", "coordinates": [13.45607, 52.49417]}, "properties": {"id": "3874578114", "name": "Dialyse am Treptower Park", "street": "Puschkinallee 6ab", "zip-code": 12435, "lat": 52.49417, "lon": 13.45607, "planning-area-id": 9100101}}, {"type": "Feature", "geometry": {"type": "Point", "coordinates": [13.57989, 52.45965]}, "properties": {"id": "3878798863", "name": "Diagnostikum Berlin", "lat": 52.45965, "lon": 13.57989, "planning-area-id": 9502043}}, {"type": "Feature", "geometry": {"type": "Point", "coordinates": [13.58005, 52.46001]}, "properties": {"id": "3878798864", "name": "Frauenärztinnen Köpenick", "street": "Mahlsdorfer Straße 106-107", "zip-code": 12555, "lat": 52.46001, "lon": 13.58005, "planning-area-id": 9502043}}, {"type": "Feature", "geometry": {"type": "Point", "coordinates": [13.58002, 52.45997]}, "properties": {"id": "3878798865", "name": "Praxisgemeinschaft Orthopädie Jan Burkhardt, Carsten Roth, Stefan Wilke", "street": "Kaulsdorfer Straße 105-106", "zip-code": 12555, "lat": 52.45997, "lon": 13.58002, "planning-area-id": 9502043}}, {"type": "Feature", "geometry": {"type": "Point", "coordinates": [13.5177, 52.46347]}, "properties": {"id": "3883215891", "name": "Dr. Sven Dreher", "street": "Schillerpromenade 2", "zip-code": 12459, "lat": 52.46347, "lon": 13.5177, "planning-area-id": 9200511}}, {"type": "Feature", "geometry": {"type": "Point", "coordinates": [13.51535, 52.46227]}, "properties": {"id": "3883283589", "name": "Dr. Martina Edel", "street": "Wilhelminenhofstraße 19", "zip-code": 12459, "lat": 52.46227, "lon": 13.51535, "planning-area-id": 9200511}}, {"type": "Feature", "geometry": {"type": "Point", "coordinates": [13.51613, 52.46434]}, "properties": {"id": "3906219507", "name": "Dr. A. Kluge, W. Becker, Dr. L. Noesselt", "street": "Griechische Allee 14", "zip-code": 12459, "lat": 52.46434, "lon": 13.51613, "planning-area-id": 9200511}}, {"type": "Feature", "geometry": {"type": "Point", "coordinates": [13.33437, 52.59081]}, "properties": {"id": "3910269663", "name": "Praxis Dr. Assheuer", "street": "Oranienburger Straße 66", "zip-code": 13437, "lat": 52.59081, "lon": 13.33437, "planning-area-id": 12500926}}, {"type": "Feature", "geometry": {"type": "Point", "coordinates": [13.48026, 52.50834]}, "properties": {"id": "3910272086", "name": "Praxis Dr. K. Bugenhagen", "street": "Schulze-Boysen-Straße 35", "zip-code": 10365, "lat": 52.50834, "lon": 13.48026, "planning-area-id": 11300826}}, {"type": "Feature", "geometry": {"type": "Point", "coordinates": [13.30661, 52.49963]}, "properties": {"id": "3923385927", "name": "Dipl. med. A. Kuzyshyn", "street": "Kurfürstendamm 163", "zip-code": 10709, "lat": 52.49963, "lon": 13.30661, "planning-area-id": 4500938}}, {"type": "Feature", "geometry": {"type": "Point", "coordinates": [13.44089, 52.55155]}, "properties": {"id": "3938207560", "name": "Dr. med. Ingolf Hintner", "street": "Langhansstraße 117", "zip-code": 13086, "lat": 52.55155, "lon": 13.44089, "planning-area-id": 3500934}}, {"type": "Feature", "geometry": {"type": "Point", "coordinates": [13.33931, 52.47511]}, "properties": {"id": "3955630874", "name": "Praxis Martin Bauer", "street": "Hauptstraße 71", "zip-code": 12159, "lat": 52.47511, "lon": 13.33931, "planning-area-id": 7300517}}, {"type": "Feature", "geometry": {"type": "Point", "coordinates": [13.51167, 52.45657]}, "properties": {"id": "3957014457", "name": "HNO Praxis Dr. Bärbel Bremer", "street": "Spreestraße 2", "zip-code": 12439, "lat": 52.45657, "lon": 13.51167, "planning-area-id": 9200613}}, {"type": "Feature", "geometry": {"type": "Point", "coordinates": [13.29857, 52.44156]}, "properties": {"id": "3964060162", "name": "Hautarztpraxis Dr. Critzmann, Dr. Lazos", "street": "Drakestraße 29a", "zip-code": 12205, "lat": 52.44156, "lon": 13.29857, "planning-area-id": 6300633}}, {"type": "Feature", "geometry": {"type": "Point", "coordinates": [13.42665, 52.47581]}, "properties": {"id": "3964658978", "name": "Peter Somogyi", "lat": 52.47581, "lon": 13.42665, "planning-area-id": 8100103}}, {"type": "Feature", "geometry": {"type": "Point", "coordinates": [13.41221, 52.53286]}, "properties": {"id": "3988571457", "name": "Dipl.-Med. Stefan Raabe", "lat": 52.53286, "lon": 13.41221, "planning-area-id": 3701554}}, {"type": "Feature", "geometry": {"type": "Point", "coordinates": [13.45238, 52.48925]}, "properties": {"id": "4006392903", "name": "Dr. med. Filiz Şenyuva", "street": "Plesser Straße 2", "zip-code": 12435, "lat": 52.48925, "lon": 13.45238, "planning-area-id": 9100101}}, {"type": "Feature", "geometry": {"type": "Point", "coordinates": [13.4143, 52.52887]}, "properties": {"id": "4015403305", "name": "Hautarztpraxis Lee | Stefaniak", "street": "Straßburger Straße 7C", "zip-code": 10405, "lat": 52.52887, "lon": 13.4143, "planning-area-id": 3701556}}, {"type": "Feature", "geometry": {"type": "Point", "coordinates": [13.44611, 52.52344]}, "properties": {"id": "4037327189", "name": "Peter Hopp", "lat": 52.52344, "lon": 13.44611, "planning-area-id": 2400522}}, {"type": "Feature", "geometry": {"type": "Point", "coordinates": [13.33051, 52.46518]}, "properties": {"id": "4060089945", "name": "Halime Kama-Cetinkaya", "street": "Peschkestraße 5", "zip-code": 12161, "lat": 52.46518, "lon": 13.33051, "planning-area-id": 6100103}}, {"type": "Feature", "geometry": {"type": "Point", "coordinates": [13.54368, 52.43519]}, "properties": {"id": "4079101626", "name": "Dr. med. Brigitte Bachmann", "street": "Anna-Seghers-Straße 118", "zip-code": 12489, "lat": 52.43519, "lon": 13.54368, "planning-area-id": 9200716}}, {"type": "Feature", "geometry": {"type": "Point", "coordinates": [13.54429, 52.43627]}, "properties": {"id": "4083545028", "name": "Praxis für Mund-, Kiefer-, Gesichtschirurgie", "street": "Dörpfeldstraße 11", "zip-code": 12489, "lat": 52.43627, "lon": 13.54429, "planning-area-id": 9200716}}, {"type": "Feature", "geometry": {"type": "Point", "coordinates": [13.4596, 52.51579]}, "properties": {"id": "4109919208", "name": "Praxis Weber& Klonz", "lat": 52.51579, "lon": 13.4596, "planning-area-id": 2500727}}, {"type": "Feature", "geometry": {"type": "Point", "coordinates": [13.29121, 52.63272]}, "properties": {"id": "4126845314", "name": "Radiologie Frohnau", "street": "Zeltinger Platz 10", "zip-code": 13465, "lat": 52.63272, "lon": 13.29121, "planning-area-id": 12400721}}, {"type": "Feature", "geometry": {"type": "Point", "coordinates": [13.29059, 52.63313]}, "properties": {"id": "4126848892", "name": "Augenarzt Dr. med. Ina Kannengießer", "street": "Zeltinger Platz 4-6", "lat": 52.63313, "lon": 13.29059, "planning-area-id": 12400721}}, {"type": "Feature", "geometry": {"type": "Point", "coordinates": [13.38453, 52.4507]}, "properties": {"id": "4134206858", "name": "MRCT", "street": "Mariendorfer Damm 26", "zip-code": 12109, "lat": 52.4507, "lon": 13.38453, "planning-area-id": 7501030}}, {"type": "Feature", "geometry": {"type": "Point", "coordinates": [13.46998, 52.4294]}, "properties": {"id": "4134264589", "name": "Gesundheitszentrum Radiologie", "street": "Lipschitzallee 20/22", "zip-code": 12351, "lat": 52.4294, "lon": 13.46998, "planning-area-id": 8300934}}, {"type": "Feature", "geometry": {"type": "Point", "coordinates": [13.2878, 52.51589]}, "properties": {"id": "4134304689", "name": "Dr. med. Beckmann, U.; Schartz, J.; Behrendt, D.; Dr. ing. Knof, J; Dr. med. Nasseri", "street": "Sophie-Charlotten-Straße 92", "zip-code": 14059, "lat": 52.51589, "lon": 13.2878, "planning-area-id": 4300413}}, {"type": "Feature", "geometry": {"type": "Point", "coordinates": [13.3229, 52.50243]}, "properties": {"id": "4134320892", "name": "Radiologiezentrum", "street": "Kurfürstendamm 37", "zip-code": 10719, "lat": 52.50243, "lon": 13.3229, "planning-area-id": 4501041}}, {"type": "Feature", "geometry": {"type": "Point", "coordinates": [13.38807, 52.51955]}, "properties": {"id": "4136509089", "name": "Frau Dr. med.Edith Lozo", "street": "Friedrichstraße 147", "zip-code": 10117, "lat": 52.51955, "lon": 13.38807, "planning-area-id": 1100206}}, {"type": "Feature", "geometry": {"type": "Point", "coordinates": [13.36236, 52.56823]}, "properties": {"id": "4141241032", "name": "Residenzpraxis - Hausärztliche Internisten", "street": "Residenzstraße 127", "zip-code": 13409, "lat": 52.56823, "lon": 13.36236, "planning-area-id": 12100103}}, {"type": "Feature", "geometry": {"type": "Point", "coordinates": [13.463, 52.51843]}, "properties": {"id": "4150755740", "name": "Nicole Findeisen", "street": "Bänschstraße 32", "zip-code": 10247, "lat": 52.51843, "lon": 13.463, "planning-area-id": 2500728}}, {"type": "Feature", "geometry": {"type": "Point", "coordinates": [13.26141, 52.48696]}, "properties": {"id": "4208552042", "name": "Sander", "street": "Auerbachstraße 9", "zip-code": 14193, "lat": 52.48696, "lon": 13.26141, "planning-area-id": 4400729}}, {"type": "Feature", "geometry": {"type": "Point", "coordinates": [13.48893, 52.46452]}, "properties": {"id": "4226861438", "name": "Gastroenterologie Baumschulenweg", "street": "Kiefholzstraße 250", "zip-code": 12437, "lat": 52.46452, "lon": 13.48893, "planning-area-id": 9100304}}, {"type": "Feature", "geometry": {"type": "Point", "coordinates": [13.33408, 52.42587]}, "properties": {"id": "4245062869", "name": "Praxis Hapatsch Kaplani", "street": "Parallelstraße 14b", "zip-code": 12209, "lat": 52.42587, "lon": 13.33408, "planning-area-id": 6200314}}, {"type": "Feature", "geometry": {"type": "Point", "coordinates": [13.61881, 52.54055]}, "properties": {"id": "4293494855", "name": "Gemeinschaftspraxis, Dr. med. J. Klinkmüller/ Dr. med. St. Dix", "street": "Louis-Lewin-Straße 125", "zip-code": 12627, "lat": 52.54055, "lon": 13.61881, "planning-area-id": 10200423}}, {"type": "Feature", "geometry": {"type": "Point", "coordinates": [13.31664, 52.49841]}, "properties": {"id": "4295703856", "name": "Dr. med. Monika Schmidt", "street": "Pariser Straße 35", "zip-code": 10707, "lat": 52.49841, "lon": 13.31664, "planning-area-id": 4501043}}, {"type": "Feature", "geometry": {"type": "Point", "coordinates": [13.26068, 52.51595]}, "properties": {"id": "4301002392", "name": "Dr. med. Petra Sandow", "street": "Reichsstraße 81", "zip-code": 14052, "lat": 52.51595, "lon": 13.26068, "planning-area-id": 4200310}}, {"type": "Feature", "geometry": {"type": "Point", "coordinates": [13.20321, 52.54132]}, "properties": {"id": "4316387483", "name": "Dr. Holger Liermann", "street": "Friedrichstraße 6", "zip-code": 13585, "lat": 52.54132, "lon": 13.20321, "planning-area-id": 5100315}}, {"type": "Feature", "geometry": {"type": "Point", "coordinates": [13.20445, 52.54146]}, "properties": {"id": "4316387484", "name": "Dr. med. Florentine Jungbluth", "street": "Friedrichstraße 3", "zip-code": 13585, "lat": 52.54146, "lon": 13.20445, "planning-area-id": 5100315}}, {"type": "Feature", "geometry": {"type": "Point", "coordinates": [13.4453, 52.51638]}, "properties": {"id": "4320942589", "name": "Guthke & Schneider", "street": "Karl-Marx-Allee 106", "zip-code": 10243, "lat": 52.51638, "lon": 13.4453, "planning-area-id": 2400624}}, {"type": "Feature", "geometry": {"type": "Point", "coordinates": [13.15571, 52.53254]}, "properties": {"id": "4332297469", "name": "Arztpraxis Allgemeinarzt", "lat": 52.53254, "lon": 13.15571, "planning-area-id": 5200423}}, {"type": "Feature", "geometry": {"type": "Point", "coordinates": [13.32825, 52.42844]}, "properties": {"id": "4363686648", "name": "Dr. med. Maria Halfter-Ziegler", "street": "Lankwitzer Straße 1", "zip-code": 12209, "lat": 52.42844, "lon": 13.32825, "planning-area-id": 6200422}}, {"type": "Feature", "geometry": {"type": "Point", "coordinates": [13.40311, 52.53522]}, "properties": {"id": "4364698411", "name": "Dr. Michael Latzke", "street": "Zionskirchstraße 33", "zip-code": 10119, "lat": 52.53522, "lon": 13.40311, "planning-area-id": 1100416}}, {"type": "Feature", "geometry": {"type": "Point", "coordinates": [13.53818, 52.42071]}, "properties": {"id": "4365093035", "name": "Gemeinschaftspraxis Löser, Kaden, Deleré, Knappe", "street": "Rudower Straße 60", "zip-code": 12524, "lat": 52.42071, "lon": 13.53818, "planning-area-id": 9300920}}, {"type": "Feature", "geometry": {"type": "Point", "coordinates": [13.47161, 52.51275]}, "properties": {"id": "4377719394", "name": "Ärztinnen Friedrichshain - Gemeinschaftspraxis Dr. med. Antonia Schmid und Katrin Stöber", "street": "Müggelstraße 28", "zip-code": 10247, "lat": 52.51275, "lon": 13.47161, "planning-area-id": 2500832}}, {"type": "Feature", "geometry": {"type": "Point", "coordinates": [13.66323, 52.41112]}, "properties": {"id": "4396132791", "name": "Hausarztpraxis", "street": "Alt-Müggelheim 8", "zip-code": 12559, "lat": 52.41112, "lon": 13.66323, "planning-area-id": 9401635}}, {"type": "Feature", "geometry": {"type": "Point", "coordinates": [13.66231, 52.41238]}, "properties": {"id": "4396185289", "name": "Hausarztpraxis Dr. Marion Tillig", "street": "Alt-Müggelheim 17", "lat": 52.41238, "lon": 13.66231, "planning-area-id": 9401635}}, {"type": "Feature", "geometry": {"type": "Point", "coordinates": [13.31843, 52.45797]}, "properties": {"id": "4406743865", "name": "MVZ Berliner Orthopäden - Dr. Peschke und Laurenz", "street": "Grunewaldstraße 6", "zip-code": 12165, "lat": 52.45797, "lon": 13.31843, "planning-area-id": 6100102}}, {"type": "Feature", "geometry": {"type": "Point", "coordinates": [13.40613, 52.55253]}, "properties": {"id": "4424716989", "name": "Arztpraxis Driesener Straße", "street": "Driesener Straße 11", "zip-code": 10439, "lat": 52.55253, "lon": 13.40613, "planning-area-id": 3601141}}, {"type": "Feature", "geometry": {"type": "Point", "coordinates": [13.31503, 52.44886]}, "properties": {"id": "4429361799", "name": "Dr. med. Gisela Wilke", "zip-code": 12203, "lat": 52.44886, "lon": 13.31503, "planning-area-id": 6300633}}, {"type": "Feature", "geometry": {"type": "Point", "coordinates": [13.3429, 52.50317]}, "properties": {"id": "4430430492", "name": "Orthós", "street": "Ansbacher Straße 17-19", "zip-code": 10787, "lat": 52.50317, "lon": 13.3429, "planning-area-id": 7100101}}, {"type": "Feature", "geometry": {"type": "Point", "coordinates": [13.3429, 52.50319]}, "properties": {"id": "4430430493", "name": "Kardios. Kardiologen in Berlin", "street": "Ansbacher Straße 17-19", "zip-code": 10787, "lat": 52.50319, "lon": 13.3429, "planning-area-id": 7100101}}, {"type": "Feature", "geometry": {"type": "Point", "coordinates": [13.3878, 52.52606]}, "properties": {"id": "4431412493", "name": "Hämatologie Onkologie Berlin-Mitte, Dr. Christian Sperling", "street": "Friedrichstraße 113A", "zip-code": 10117, "lat": 52.52606, "lon": 13.3878, "planning-area-id": 1100309}}, {"type": "Feature", "geometry": {"type": "Point", "coordinates": [13.28702, 52.58805]}, "properties": {"id": "4439380195", "name": "Âugenärztin Brigitte Pewesin", "lat": 52.58805, "lon": 13.28702, "planning-area-id": 12200515}}, {"type": "Feature", "geometry": {"type": "Point", "coordinates": [13.47873, 52.48061]}, "properties": {"id": "4444771735", "name": "Dr. med. Beate Ristow", "lat": 52.48061, "lon": 13.47873, "planning-area-id": 9100203}}, {"type": "Feature", "geometry": {"type": "Point", "coordinates": [13.47884, 52.48053]}, "properties": {"id": "4444772219", "name": "Augenarztpraxis am Plänterwald", "lat": 52.48053, "lon": 13.47884, "planning-area-id": 9100203}}, {"type": "Feature", "geometry": {"type": "Point", "coordinates": [13.3187, 52.5665]}, "properties": {"id": "4446880409", "name": "Facharzt für innere Medizin Thomas Egri", "lat": 52.5665, "lon": 13.3187, "planning-area-id": 12200309}}, {"type": "Feature", "geometry": {"type": "Point", "coordinates": [13.31935, 52.56633]}, "properties": {"id": "4446880410", "name": "Frauenarzt Felix Schümchen", "lat": 52.56633, "lon": 13.31935, "planning-area-id": 12200309}}, {"type": "Feature", "geometry": {"type": "Point", "coordinates": [13.32626, 52.42966]}, "properties": {"id": "4457055990", "name": "HNO-Praxis", "lat": 52.42966, "lon": 13.32626, "planning-area-id": 6200421}}, {"type": "Feature", "geometry": {"type": "Point", "coordinates": [13.41047, 52.39441]}, "properties": {"id": "4485201591", "name": "Dr. Med. Peer Bornmann", "street": "Groß-Ziethener Straße 35", "zip-code": 12309, "lat": 52.39441, "lon": 13.41047, "planning-area-id": 7601443}}, {"type": "Feature", "geometry": {"type": "Point", "coordinates": [13.41027, 52.39438]}, "properties": {"id": "4485201592", "name": "Andreas Groß", "street": "Groß-Ziethener Straße 35", "zip-code": 12309, "lat": 52.39438, "lon": 13.41027, "planning-area-id": 7601443}}, {"type": "Feature", "geometry": {"type": "Point", "coordinates": [13.41038, 52.3944]}, "properties": {"id": "4485202190", "name": "Dr. med. H. und A. Fazel", "street": "Groß-Ziethener Straße 35", "zip-code": 12309, "lat": 52.3944, "lon": 13.41038, "planning-area-id": 7601443}}, {"type": "Feature", "geometry": {"type": "Point", "coordinates": [13.47295, 52.51369]}, "properties": {"id": "4513645689", "name": "AID Friedrichshain", "street": "Frankfurter Allee 100", "lat": 52.51369, "lon": 13.47295, "planning-area-id": 2500832}}, {"type": "Feature", "geometry": {"type": "Point", "coordinates": [13.42921, 52.50216]}, "properties": {"id": "4552427089", "name": "Praxis für Kinder- und Jugendmedizin", "lat": 52.50216, "lon": 13.42921, "planning-area-id": 2300315}}, {"type": "Feature", "geometry": {"type": "Point", "coordinates": [13.28093, 52.59067]}, "properties": {"id": "4555674789", "name": "HNO Praxis am Tegeler Hafen", "zip-code": 13507, "lat": 52.59067, "lon": 13.28093, "planning-area-id": 12200515}}, {"type": "Feature", "geometry": {"type": "Point", "coordinates": [13.3824, 52.55215]}, "properties": {"id": "4580200590", "name": "Taner Denli", "street": "Badstraße 23", "zip-code": 13357, "lat": 52.55215, "lon": 13.3824, "planning-area-id": 1300733}}, {"type": "Feature", "geometry": {"type": "Point", "coordinates": [13.34176, 52.43375]}, "properties": {"id": "4580669498", "name": "Praxis Dr. med. Joachim Mercks", "street": "Kaiser-Wilhelm-Straße 53", "zip-code": 12247, "lat": 52.43375, "lon": 13.34176, "planning-area-id": 6200314}}, {"type": "Feature", "geometry": {"type": "Point", "coordinates": [13.47953, 52.5036]}, "properties": {"id": "4595174279", "name": "Barbara Teigelkamp", "street": "Geusenstraße 8", "zip-code": 10317, "lat": 52.5036, "lon": 13.47953, "planning-area-id": 11400927}}, {"type": "Feature", "geometry": {"type": "Point", "coordinates": [13.40256, 52.38689]}, "properties": {"id": "4601139750", "name": "Dr. Heinrich, Andreas", "street": "Bahnhofstraße 17", "zip-code": 12305, "lat": 52.38689, "lon": 13.40256, "planning-area-id": 7601544}}, {"type": "Feature", "geometry": {"type": "Point", "coordinates": [13.54244, 52.41943]}, "properties": {"id": "4608665240", "name": "Dr. Ramona Grygas", "street": "Grünauer Straße 60", "zip-code": 12524, "lat": 52.41943, "lon": 13.54244, "planning-area-id": 9300920}}, {"type": "Feature", "geometry": {"type": "Point", "coordinates": [13.24008, 52.4451]}, "properties": {"id": "4622036690", "name": "Dr. Sörensen Praxis für Rheumatologie", "street": "Argentinische Allee 42", "zip-code": 14163, "lat": 52.4451, "lon": 13.24008, "planning-area-id": 6400838}}, {"type": "Feature", "geometry": {"type": "Point", "coordinates": [13.32713, 52.43523]}, "properties": {"id": "4643129389", "name": "Dr. med. Gertrud Stifel", "zip-code": 12207, "lat": 52.43523, "lon": 13.32713, "planning-area-id": 6200421}}, {"type": "Feature", "geometry": {"type": "Point", "coordinates": [13.33756, 52.52502]}, "properties": {"id": "4686722631", "name": "Kinderarzt Dr. Wiesner, Dr. Griebenow", "street": "Bochumer Straße 1", "zip-code": 10555, "lat": 52.52502, "lon": 13.33756, "planning-area-id": 1200522}}, {"type": "Feature", "geometry": {"type": "Point", "coordinates": [13.32016, 52.50138]}, "properties": {"id": "4724173877", "name": "Zentrum für Pränataldiagnostik", "lat": 52.50138, "lon": 13.32016, "planning-area-id": 4501041}}, {"type": "Feature", "geometry": {"type": "Point", "coordinates": [13.40377, 52.53531]}, "properties": {"id": "4733874602", "name": "Dr. med. Nadja Kassim", "street": "Zionskirchstraße 25", "zip-code": 10119, "lat": 52.53531, "lon": 13.40377, "planning-area-id": 1100416}}, {"type": "Feature", "geometry": {"type": "Point", "coordinates": [13.40588, 52.53787]}, "properties": {"id": "4733989049", "name": "Dr. Carsten Beck", "street": "Schwedter Straße 37", "zip-code": 10435, "lat": 52.53787, "lon": 13.40588, "planning-area-id": 3701554}}, {"type": "Feature", "geometry": {"type": "Point", "coordinates": [13.4077, 52.39357]}, "properties": {"id": "4762111856", "name": "H. Stuckstedde", "street": "Groß-Ziethener Straße 2", "zip-code": 12309, "lat": 52.39357, "lon": 13.4077, "planning-area-id": 7601545}}, {"type": "Feature", "geometry": {"type": "Point", "coordinates": [13.43573, 52.48083]}, "properties": {"id": "4775249777", "name": "HNO Neukölln", "street": "Erkstraße 1A", "zip-code": 12043, "lat": 52.48083, "lon": 13.43573, "planning-area-id": 8100415}}, {"type": "Feature", "geometry": {"type": "Point", "coordinates": [13.43783, 52.48303]}, "properties": {"id": "4775283259", "name": "HNO Praxis Sonnenallee", "street": "Sonnenallee 87", "zip-code": 12045, "lat": 52.48303, "lon": 13.43783, "planning-area-id": 8100312}}, {"type": "Feature", "geometry": {"type": "Point", "coordinates": [13.29197, 52.63339]}, "properties": {"id": "4779836166", "name": "Olaf Peters Facharzt für Innere Medizin und Pneumologie", "street": "Zeltinger Platz 16", "zip-code": 13465, "lat": 52.63339, "lon": 13.29197, "planning-area-id": 12400721}}, {"type": "Feature", "geometry": {"type": "Point", "coordinates": [13.39011, 52.5043]}, "properties": {"id": "4783227156", "name": "Dr. Dieter Immler und Kollegen", "street": "Puttkamerstraße 6", "zip-code": 10969, "lat": 52.5043, "lon": 13.39011, "planning-area-id": 2100102}}, {"type": "Feature", "geometry": {"type": "Point", "coordinates": [13.34376, 52.524]}, "properties": {"id": "4789716424", "name": "Orthopädisches Zentrum Spreebogen", "street": "Alt-Moabit 90B", "zip-code": 10559, "lat": 52.524, "lon": 13.34376, "planning-area-id": 1200626}}, {"type": "Feature", "geometry": {"type": "Point", "coordinates": [13.3036, 52.51597]}, "properties": {"id": "4809449233", "name": "Dr. med. Eva Laufs", "street": "Gierkezeile 34", "zip-code": 10585, "lat": 52.51597, "lon": 13.3036, "planning-area-id": 4300621}}, {"type": "Feature", "geometry": {"type": "Point", "coordinates": [13.3983, 52.56792]}, "properties": {"id": "4812222803", "name": "Marc Leetz", "lat": 52.56792, "lon": 13.3983, "planning-area-id": 3400721}}, {"type": "Feature", "geometry": {"type": "Point", "coordinates": [13.39528, 52.56534]}, "properties": {"id": "4831523440", "name": "Dipl.-Psychologe/Psychotherapeut Wolfgang Gründler-Stang", "street": "Wollankstraße 108", "zip-code": 13187, "lat": 52.56534, "lon": 13.39528, "planning-area-id": 3400721}}, {"type": "Feature", "geometry": {"type": "Point", "coordinates": [13.39567, 52.5656]}, "properties": {"id": "4831523441", "name": "Dr. med. Erika Zahn", "street": "Wollankstraße 110", "zip-code": 13187, "lat": 52.5656, "lon": 13.39567, "planning-area-id": 3400721}}, {"type": "Feature", "geometry": {"type": "Point", "coordinates": [13.39673, 52.56693]}, "properties": {"id": "4831523442", "name": "Sabrina Stempin & Hossai Willis", "street": "Wollankstraße 11", "zip-code": 13187, "lat": 52.56693, "lon": 13.39673, "planning-area-id": 3400721}}, {"type": "Feature", "geometry": {"type": "Point", "coordinates": [13.3896, 52.52673]}, "properties": {"id": "4839123423", "name": "Schwerpunktpraxis Mitte", "street": "Linienstraße 127", "zip-code": 10115, "lat": 52.52673, "lon": 13.3896, "planning-area-id": 1100309}}, {"type": "Feature", "geometry": {"type": "Point", "coordinates": [13.42438, 52.48979]}, "properties": {"id": "4839187521", "name": "Ärzte am Hermannplatz", "street": "Kottbusser Damm 72", "zip-code": 10967, "lat": 52.48979, "lon": 13.42438, "planning-area-id": 8100311}}, {"type": "Feature", "geometry": {"type": "Point", "coordinates": [13.4359, 52.46206]}, "properties": {"id": "4839187522", "name": "Nasila Nouniaz-Wirbelauer", "street": "Wederstraße 85", "zip-code": 12347, "lat": 52.46206, "lon": 13.4359, "planning-area-id": 8200622}}, {"type": "Feature", "geometry": {"type": "Point", "coordinates": [13.3877, 52.52608]}, "properties": {"id": "4842527022", "name": "Hautarztpraxis Dr. Hasert", "street": "Friedrichstraße 113A", "zip-code": 10117, "lat": 52.52608, "lon": 13.3877, "planning-area-id": 1100309}}, {"type": "Feature", "geometry": {"type": "Point", "coordinates": [13.38669, 52.43402]}, "properties": {"id": "4845302927", "name": "Orthopädiezentrum Körtingstrasse", "street": "Körtingstraße 10-12", "zip-code": 12107, "lat": 52.43402, "lon": 13.38669, "planning-area-id": 7501133}}, {"type": "Feature", "geometry": {"type": "Point", "coordinates": [13.40119, 52.55345]}, "properties": {"id": "4847568234", "name": "Zentrum für Infektiologie Finnländische Straße", "street": "Finnländische Straße 14", "lat": 52.55345, "lon": 13.40119, "planning-area-id": 3601140}}, {"type": "Feature", "geometry": {"type": "Point", "coordinates": [13.52764, 52.42478]}, "properties": {"id": "4890379783", "name": "Dr. med. Cornelia Janke", "lat": 52.42478, "lon": 13.52764, "planning-area-id": 9300920}}, {"type": "Feature", "geometry": {"type": "Point", "coordinates": [13.52058, 52.4805]}, "properties": {"id": "4902790920", "name": "Arztpraxis HI26", "street": "Ehrlichstraße 26", "lat": 52.4805, "lon": 13.52058, "planning-area-id": 11501341}}, {"type": "Feature", "geometry": {"type": "Point", "coordinates": [13.37204, 52.56081]}, "properties": {"id": "4918199243", "name": "Hausarzt Dr. med Beata Bylinski, Marek Bylinski", "lat": 52.56081, "lon": 13.37204, "planning-area-id": 12100101}}, {"type": "Feature", "geometry": {"type": "Point", "coordinates": [13.57797, 52.46]}, "properties": {"id": "4937558372", "name": "Lungenpraxis Köpenick", "street": "Alte Kaulsdorfer Straße 26", "zip-code": 12555, "lat": 52.46, "lon": 13.57797, "planning-area-id": 9502043}}, {"type": "Feature", "geometry": {"type": "Point", "coordinates": [13.35687, 52.48596]}, "properties": {"id": "4944997007", "name": "Gemeinschaftspraxis Kaiser-Wilhelm-Passage", "street": "Richard-von-Weizsäcker-Platz 1-2", "zip-code": 10827, "lat": 52.48596, "lon": 13.35687, "planning-area-id": 7200410}}, {"type": "Feature", "geometry": {"type": "Point", "coordinates": [13.3101, 52.50068]}, "properties": {"id": "4949728991", "name": "Dermatologie des Westens", "lat": 52.50068, "lon": 13.3101, "planning-area-id": 4501040}}, {"type": "Feature", "geometry": {"type": "Point", "coordinates": [13.42298, 52.4766]}, "properties": {"id": "4978163423", "name": "Praxis für Allgemeinmedizin", "street": "Schillerpromenade 36", "zip-code": 12049, "lat": 52.4766, "lon": 13.42298, "planning-area-id": 8100102}}, {"type": "Feature", "geometry": {"type": "Point", "coordinates": [13.49671, 52.41452]}, "properties": {"id": "4990230184", "lat": 52.41452, "lon": 13.49671, "planning-area-id": 8401244}}, {"type": "Feature", "geometry": {"type": "Point", "coordinates": [13.49677, 52.4146]}, "properties": {"id": "4990230198", "lat": 52.4146, "lon": 13.49677, "planning-area-id": 8401244}}, {"type": "Feature", "geometry": {"type": "Point", "coordinates": [13.49674, 52.41456]}, "properties": {"id": "4990230199", "lat": 52.41456, "lon": 13.49674, "planning-area-id": 8401244}}, {"type": "Feature", "geometry": {"type": "Point", "coordinates": [13.4945, 52.41511]}, "properties": {"id": "4990230205", "name": "MVZ Innere Medizin", "lat": 52.41511, "lon": 13.4945, "planning-area-id": 8401244}}, {"type": "Feature", "geometry": {"type": "Point", "coordinates": [13.49269, 52.41953]}, "properties": {"id": "4990230211", "name": "HNO in Rudow", "street": "Alt-Rudow 34", "zip-code": 12357, "lat": 52.41953, "lon": 13.49269, "planning-area-id": 8401243}}, {"type": "Feature", "geometry": {"type": "Point", "coordinates": [13.32007, 52.50143]}, "properties": {"id": "5022332883", "name": "Orthopädie Berlin", "lat": 52.50143, "lon": 13.32007, "planning-area-id": 4501041}}, {"type": "Feature", "geometry": {"type": "Point", "coordinates": [13.19521, 52.53582]}, "properties": {"id": "5030353911", "name": "Dr. med. Jochen Glass", "lat": 52.53582, "lon": 13.19521, "planning-area-id": 5100316}}, {"type": "Feature", "geometry": {"type": "Point", "coordinates": [13.19513, 52.53583]}, "properties": {"id": "5030382721", "name": "Katja Jannicke", "lat": 52.53583, "lon": 13.19513, "planning-area-id": 5100316}}, {"type": "Feature", "geometry": {"type": "Point", "coordinates": [13.19518, 52.53581]}, "properties": {"id": "5030382722", "name": "Dr. med. Wieland Zittwitz", "lat": 52.53581, "lon": 13.19518, "planning-area-id": 5100316}}, {"type": "Feature", "geometry": {"type": "Point", "coordinates": [13.19518, 52.53584]}, "properties": {"id": "5030382724", "name": "Uta Dorothea Stephan", "lat": 52.53584, "lon": 13.19518, "planning-area-id": 5100316}}, {"type": "Feature", "geometry": {"type": "Point", "coordinates": [13.1952, 52.53579]}, "properties": {"id": "5030382725", "name": "Dr. med. Katja Przytarski", "lat": 52.53579, "lon": 13.1952, "planning-area-id": 5100316}}, {"type": "Feature", "geometry": {"type": "Point", "coordinates": [13.45017, 52.50805]}, "properties": {"id": "5050656121", "name": "Bartholomäus Gabrys", "street": "Revaler Straße 100", "zip-code": 10243, "lat": 52.50805, "lon": 13.45017, "planning-area-id": 2400624}}, {"type": "Feature", "geometry": {"type": "Point", "coordinates": [13.3197, 52.45657]}, "properties": {"id": "5056974012", "name": "Praxis für Neurologie Dr. med. Schlote & Hr. Dr. Nohr", "street": "Schloßstraße 40", "zip-code": 12165, "lat": 52.45657, "lon": 13.3197, "planning-area-id": 6100101}}, {"type": "Feature", "geometry": {"type": "Point", "coordinates": [13.31957, 52.45658]}, "properties": {"id": "5056974013", "name": "Praxis für Gynäkologie, Geburtshilfe & stationäre OP´s Dr. Peter Lichtenberg", "lat": 52.45658, "lon": 13.31957, "planning-area-id": 6100101}}, {"type": "Feature", "geometry": {"type": "Point", "coordinates": [13.31956, 52.45663]}, "properties": {"id": "5056974014", "name": "Praxis für Urologie Dr. Juhnke & Hr. Möhler", "street": "Schloßstraße 40", "zip-code": 12165, "lat": 52.45663, "lon": 13.31956, "planning-area-id": 6100101}}, {"type": "Feature", "geometry": {"type": "Point", "coordinates": [13.31945, 52.45662]}, "properties": {"id": "5056974015", "name": "Praxis für Kinderheilkunde Dr. Brand & Dr. Weiten", "lat": 52.45662, "lon": 13.31945, "planning-area-id": 6100101}}, {"type": "Feature", "geometry": {"type": "Point", "coordinates": [13.3194, 52.45664]}, "properties": {"id": "5056974016", "name": "Praxis für Augenheilkunde Dr. Sabine Jaeck", "lat": 52.45664, "lon": 13.3194, "planning-area-id": 6100101}}, {"type": "Feature", "geometry": {"type": "Point", "coordinates": [13.31933, 52.45667]}, "properties": {"id": "5056974017", "name": "HNO-Praxis Dr. med. Lukas Schnitzler & Kollegen", "street": "Schloßstraße 40", "zip-code": 12165, "lat": 52.45667, "lon": 13.31933, "planning-area-id": 6100101}}, {"type": "Feature", "geometry": {"type": "Point", "coordinates": [13.31946, 52.45667]}, "properties": {"id": "5056974018", "name": "Dr. Annette Berger", "lat": 52.45667, "lon": 13.31946, "planning-area-id": 6100101}}, {"type": "Feature", "geometry": {"type": "Point", "coordinates": [13.30936, 52.46569]}, "properties": {"id": "5056974019", "name": "Dr. med. Nadia Rancsó", "lat": 52.46569, "lon": 13.30936, "planning-area-id": 6100101}}, {"type": "Feature", "geometry": {"type": "Point", "coordinates": [13.31933, 52.45672]}, "properties": {"id": "5056974020", "name": "Hausarztpraxis Berlin", "lat": 52.45672, "lon": 13.31933, "planning-area-id": 6100101}}, {"type": "Feature", "geometry": {"type": "Point", "coordinates": [13.46979, 52.50591]}, "properties": {"id": "5077036504", "name": "Diabetologie am Ostkreuz", "street": "Neue Bahnhofstraße 27", "lat": 52.50591, "lon": 13.46979, "planning-area-id": 2500834}}, {"type": "Feature", "geometry": {"type": "Point", "coordinates": [13.39362, 52.58008]}, "properties": {"id": "5102220322", "name": "Dr. Sonja Bülau", "street": "Wilhelm-Wolff-Straße 29", "zip-code": 13156, "lat": 52.58008, "lon": 13.39362, "planning-area-id": 3200206}}, {"type": "Feature", "geometry": {"type": "Point", "coordinates": [13.26731, 52.53741]}, "properties": {"id": "5105686231", "name": "Dr. Al-Saidi", "zip-code": 13629, "lat": 52.53741, "lon": 13.26731, "planning-area-id": 5300841}}, {"type": "Feature", "geometry": {"type": "Point", "coordinates": [13.42512, 52.48689]}, "properties": {"id": "5133964243", "name": "Dr. med. Damian Johannes Zydra", "street": "Hermannplatz 5", "zip-code": 10967, "lat": 52.48689, "lon": 13.42512, "planning-area-id": 8100314}}, {"type": "Feature", "geometry": {"type": "Point", "coordinates": [13.41867, 52.54246]}, "properties": {"id": "5137692868", "name": "Praxis am Helmi", "street": "Schliemannstraße 13", "zip-code": 10437, "lat": 52.54246, "lon": 13.41867, "planning-area-id": 3601347}}, {"type": "Feature", "geometry": {"type": "Point", "coordinates": [13.50413, 52.5647]}, "properties": {"id": "5145185021", "name": "Praxis für Dermatologie Eicholtz & Börner", "street": "Zingster Straße 2", "zip-code": 13051, "lat": 52.5647, "lon": 13.50413, "planning-area-id": 11100307}}, {"type": "Feature", "geometry": {"type": "Point", "coordinates": [13.50367, 52.56372]}, "properties": {"id": "5166229521", "name": "Dr. med. Kathrin Görmer", "street": "Zingster Straße 1a", "zip-code": 13051, "lat": 52.56372, "lon": 13.50367, "planning-area-id": 11100308}}, {"type": "Feature", "geometry": {"type": "Point", "coordinates": [13.32845, 52.56432]}, "properties": {"id": "5175515866", "name": "Mark Dukpa", "lat": 52.56432, "lon": 13.32845, "planning-area-id": 12100205}}, {"type": "Feature", "geometry": {"type": "Point", "coordinates": [13.32845, 52.56431]}, "properties": {"id": "5175527823", "name": "Dr. Ulrike Kähne & Dr. Peter Winter", "street": "Ollenhauerstraße 3-5", "zip-code": 13403, "lat": 52.56431, "lon": 13.32845, "planning-area-id": 12100205}}, {"type": "Feature", "geometry": {"type": "Point", "coordinates": [13.32846, 52.56438]}, "properties": {"id": "5175527848", "name": "Dr. Hagner", "lat": 52.56438, "lon": 13.32846, "planning-area-id": 12100205}}, {"type": "Feature", "geometry": {"type": "Point", "coordinates": [13.32846, 52.5644]}, "properties": {"id": "5175529461", "name": "Wolfgang Hanuschik", "lat": 52.5644, "lon": 13.32846, "planning-area-id": 12100205}}, {"type": "Feature", "geometry": {"type": "Point", "coordinates": [13.32847, 52.56432]}, "properties": {"id": "5175535186", "name": "Urovivat", "lat": 52.56432, "lon": 13.32847, "planning-area-id": 12100205}}, {"type": "Feature", "geometry": {"type": "Point", "coordinates": [13.32847, 52.56442]}, "properties": {"id": "5175539921", "name": "Dr. Joachim Schaal - Ines Neuschulz", "street": "Ollenhauerstraße 3", "zip-code": 13403, "lat": 52.56442, "lon": 13.32847, "planning-area-id": 12100205}}, {"type": "Feature", "geometry": {"type": "Point", "coordinates": [13.32847, 52.56444]}, "properties": {"id": "5175540646", "name": "Kurepkat Aalburg", "lat": 52.56444, "lon": 13.32847, "planning-area-id": 12100205}}, {"type": "Feature", "geometry": {"type": "Point", "coordinates": [13.28502, 52.48881]}, "properties": {"id": "5176025707", "name": "Dr. med. Jan Lokies", "street": "Hubertusallee 34", "zip-code": 14193, "lat": 52.48881, "lon": 13.28502, "planning-area-id": 4400726}}, {"type": "Feature", "geometry": {"type": "Point", "coordinates": [13.28502, 52.48888]}, "properties": {"id": "5176025708", "name": "Dr. med. Frank Eickhoff", "street": "Hubertusallee 34", "zip-code": 14193, "lat": 52.48888, "lon": 13.28502, "planning-area-id": 4400726}}, {"type": "Feature", "geometry": {"type": "Point", "coordinates": [13.41162, 52.5675]}, "properties": {"id": "5180885687", "name": "Kinderärztin Bartholomäus", "zip-code": 13187, "lat": 52.5675, "lon": 13.41162, "planning-area-id": 3400723}}, {"type": "Feature", "geometry": {"type": "Point", "coordinates": [13.44834, 52.50523]}, "properties": {"id": "5181354049", "name": "Augen-Tagesklinik", "street": "Warschauer Straße 34-36", "zip-code": 10243, "lat": 52.50523, "lon": 13.44834, "planning-area-id": 2400625}}, {"type": "Feature", "geometry": {"type": "Point", "coordinates": [13.45764, 52.49217]}, "properties": {"id": "5198591315", "name": "Burkhard Kunow, Facharzt für Hals-Nasen-Ohrenheilkunde, Sportmedizin, Akupunktur", "street": "Am Treptower Park 75", "zip-code": 12435, "lat": 52.49217, "lon": 13.45764, "planning-area-id": 9100101}}, {"type": "Feature", "geometry": {"type": "Point", "coordinates": [13.31037, 52.52555]}, "properties": {"id": "5201598623", "name": "Praxis Dr. med. J. Nicklas", "street": "Kaiserin-Augusta-Allee 90", "zip-code": 10589, "lat": 52.52555, "lon": 13.31037, "planning-area-id": 4300518}}, {"type": "Feature", "geometry": {"type": "Point", "coordinates": [13.30453, 52.5118]}, "properties": {"id": "5204793854", "name": "Sporthopaedicum", "street": "Bismarckstraße 45-47", "zip-code": 10627, "lat": 52.5118, "lon": 13.30453, "planning-area-id": 4300621}}, {"type": "Feature", "geometry": {"type": "Point", "coordinates": [13.57635, 52.46357]}, "properties": {"id": "5214057822", "name": "Hausarztpraxis Dr. Fleck", "street": "Kaulsdorfer Straße 245", "lat": 52.46357, "lon": 13.57635, "planning-area-id": 9502043}}, {"type": "Feature", "geometry": {"type": "Point", "coordinates": [13.38196, 52.49202]}, "properties": {"id": "5217579948", "name": "Stephanie Moore", "street": "Hagelberger Straße 19a", "zip-code": 10965, "lat": 52.49202, "lon": 13.38196, "planning-area-id": 2200209}}, {"type": "Feature", "geometry": {"type": "Point", "coordinates": [13.38332, 52.52308]}, "properties": {"id": "5225049465", "name": "medneo Diagnostikzentrum Berlin-Mitte", "street": "Reinhardtstraße 23-27", "zip-code": 10117, "lat": 52.52308, "lon": 13.38332, "planning-area-id": 1100308}}, {"type": "Feature", "geometry": {"type": "Point", "coordinates": [13.34476, 52.49108]}, "properties": {"id": "5225882637", "name": "Michael Honke", "street": "Martin-Luther-Straße 56", "lat": 52.49108, "lon": 13.34476, "planning-area-id": 7200307}}, {"type": "Feature", "geometry": {"type": "Point", "coordinates": [13.44876, 52.50901]}, "properties": {"id": "5230847663", "name": "Dr. med. K. Kluge", "street": "Marchlewskistraße 101", "zip-code": 10243, "lat": 52.50901, "lon": 13.44876, "planning-area-id": 2400624}}, {"type": "Feature", "geometry": {"type": "Point", "coordinates": [13.42833, 52.53736]}, "properties": {"id": "5255538049", "name": "Klaus Lammerschmidt & Tanja Stein", "street": "Winsstraße 40", "zip-code": 10405, "lat": 52.53736, "lon": 13.42833, "planning-area-id": 3701658}}, {"type": "Feature", "geometry": {"type": "Point", "coordinates": [13.33921, 52.48827]}, "properties": {"id": "5256231821", "name": "Matthias Scheffler", "street": "Bayerischer Platz 7", "zip-code": 10779, "lat": 52.48827, "lon": 13.33921, "planning-area-id": 7200307}}, {"type": "Feature", "geometry": {"type": "Point", "coordinates": [13.35647, 52.48666]}, "properties": {"id": "5284640592", "name": "Praxis Saleheddin Abdulla", "street": "Hauptstraße 19", "zip-code": 10827, "lat": 52.48666, "lon": 13.35647, "planning-area-id": 7200409}},