{"type": "FeatureCollection", "features": [{"type": "Feature", "geometry": {"type": "Point", "coordinates": [13.5983, 52.41042]}, "properties": {"id": "27446265", "name": "Regattastraße/Sportpromenade", "lat": 52.41042, "lon": 13.5983, "planning-area-id": 9301126}}, {"type": "Feature", "geometry": {"type": "Point", "coordinates": [13.34489, 52.54671]}, "properties": {"id": "30302050", "name": "Seestraße/Amrumer Straße", "lat": 52.54671, "lon": 13.34489, "planning-area-id": 1400942}}, {"type": "Feature", "geometry": {"type": "Point", "coordinates": [13.41388, 52.55377]}, "properties": {"id": "30303888", "name": "Schönhauser Allee/Bornholmer Straße", "lat": 52.55377, "lon": 13.41388, "planning-area-id": 3601141}}, {"type": "Feature", "geometry": {"type": "Point", "coordinates": [13.40264, 52.55529]}, "properties": {"id": "30303894", "name": "Björnsonstraße", "lat": 52.55529, "lon": 13.40264, "planning-area-id": 3601139}}, {"type": "Feature", "geometry": {"type": "Point", "coordinates": [13.41449, 52.5542]}, "properties": {"id": "30303950", "name": "Schönhauser Allee/Bornholmer Straße", "lat": 52.5542, "lon": 13.41449, "planning-area-id": 3601139}}, {"type": "Feature", "geometry": {"type": "Point", "coordinates": [13.4238, 52.55272]}, "properties": {"id": "30303956", "name": "Stahlheimer Straße/Wisbyer Straße", "lat": 52.55272, "lon": 13.4238, "planning-area-id": 3601243}}, {"type": "Feature", "geometry": {"type": "Point", "coordinates": [13.42951, 52.55141]}, "properties": {"id": "30304940", "name": "Prenzlauer Allee/Ostseestraße", "lat": 52.55141, "lon": 13.42951, "planning-area-id": 3601244}}, {"type": "Feature", "geometry": {"type": "Point", "coordinates": [13.43002, 52.55077]}, "properties": {"id": "30304944", "name": "Prenzlauer Allee/Ostseestraße", "lat": 52.55077, "lon": 13.43002, "planning-area-id": 3601245}}, {"type": "Feature", "geometry": {"type": "Point", "coordinates": [13.42997, 52.55667]}, "properties": {"id": "30304965", "name": "Prenzlauer Promenade/Am Steinberg", "lat": 52.55667, "lon": 13.42997, "planning-area-id": 3500934}}, {"type": "Feature", "geometry": {"type": "Point", "coordinates": [13.42761, 52.54523]}, "properties": {"id": "30305102", "name": "S Prenzlauer Allee", "lat": 52.54523, "lon": 13.42761, "planning-area-id": 3601245}}, {"type": "Feature", "geometry": {"type": "Point", "coordinates": [13.42447, 52.53965]}, "properties": {"id": "30305106", "name": "Prenzlauer Allee/Danziger Straße", "lat": 52.53965, "lon": 13.42447, "planning-area-id": 3701657}}, {"type": "Feature", "geometry": {"type": "Point", "coordinates": [13.42398, 52.53875]}, "properties": {"id": "30305107", "name": "Prenzlauer Allee/Danziger Straße", "lat": 52.53875, "lon": 13.42398, "planning-area-id": 3701555}}, {"type": "Feature", "geometry": {"type": "Point", "coordinates": [13.42472, 52.53905]}, "properties": {"id": "30305113", "name": "Prenzlauer Allee/Danziger Straße", "lat": 52.53905, "lon": 13.42472, "planning-area-id": 3701657}}, {"type": "Feature", "geometry": {"type": "Point", "coordinates": [13.428, 52.53789]}, "properties": {"id": "30305114", "name": "Winsstraße", "lat": 52.53789, "lon": 13.428, "planning-area-id": 3701657}}, {"type": "Feature", "geometry": {"type": "Point", "coordinates": [13.42942, 52.53743]}, "properties": {"id": "30305118", "name": "Winsstraße", "lat": 52.53743, "lon": 13.42942, "planning-area-id": 3701657}}, {"type": "Feature", "geometry": {"type": "Point", "coordinates": [13.41278, 52.5632]}, "properties": {"id": "30305213", "name": "Masurenstraße", "lat": 52.5632, "lon": 13.41278, "planning-area-id": 3400826}}, {"type": "Feature", "geometry": {"type": "Point", "coordinates": [13.4286, 52.5818]}, "properties": {"id": "30554096", "name": "Galenusstraße", "lat": 52.5818, "lon": 13.4286, "planning-area-id": 3400724}}, {"type": "Feature", "geometry": {"type": "Point", "coordinates": [13.4276, 52.57731]}, "properties": {"id": "30554100", "name": "S Pankow-Heinersdorf", "lat": 52.57731, "lon": 13.4276, "planning-area-id": 3400724}}, {"type": "Feature", "geometry": {"type": "Point", "coordinates": [13.41925, 52.57504]}, "properties": {"id": "30554105", "name": "Mendelstraße", "lat": 52.57504, "lon": 13.41925, "planning-area-id": 3400723}}, {"type": "Feature", "geometry": {"type": "Point", "coordinates": [13.41064, 52.57116]}, "properties": {"id": "30554110", "name": "Pankow Kirche", "lat": 52.57116, "lon": 13.41064, "planning-area-id": 3400723}}, {"type": "Feature", "geometry": {"type": "Point", "coordinates": [13.43287, 52.59633]}, "properties": {"id": "30558129", "name": "Rosenthaler Straße", "lat": 52.59633, "lon": 13.43287, "planning-area-id": 3200308}}, {"type": "Feature", "geometry": {"type": "Point", "coordinates": [13.39714, 52.58009]}, "properties": {"id": "30561497", "name": "Pastor-Niemöller-Platz", "lat": 52.58009, "lon": 13.39714, "planning-area-id": 3200206}}, {"type": "Feature", "geometry": {"type": "Point", "coordinates": [13.39211, 52.58262]}, "properties": {"id": "30561525", "name": "Am Iderfenngraben", "lat": 52.58262, "lon": 13.39211, "planning-area-id": 3200206}}, {"type": "Feature", "geometry": {"type": "Point", "coordinates": [13.46023, 52.55995]}, "properties": {"id": "30624481", "name": "Pasedagplatz", "lat": 52.55995, "lon": 13.46023, "planning-area-id": 3501037}}, {"type": "Feature", "geometry": {"type": "Point", "coordinates": [13.47603, 52.55333]}, "properties": {"id": "30625116", "name": "Sulzfelder Straße", "lat": 52.55333, "lon": 13.47603, "planning-area-id": 3501038}}, {"type": "Feature", "geometry": {"type": "Point", "coordinates": [13.48037, 52.55318]}, "properties": {"id": "30625241", "name": "Hansastraße/Buschallee", "lat": 52.55318, "lon": 13.48037, "planning-area-id": 3501038}}, {"type": "Feature", "geometry": {"type": "Point", "coordinates": [13.48058, 52.55376]}, "properties": {"id": "30684945", "name": "Hansastraße/Buschallee", "lat": 52.55376, "lon": 13.48058, "planning-area-id": 3501038}}, {"type": "Feature", "geometry": {"type": "Point", "coordinates": [13.49574, 52.55993]}, "properties": {"id": "30684954", "name": "Feldtmannstraße", "lat": 52.55993, "lon": 13.49574, "planning-area-id": 11200410}}, {"type": "Feature", "geometry": {"type": "Point", "coordinates": [13.49991, 52.56137]}, "properties": {"id": "30684955", "name": "Hansastraße/Malchower Weg", "lat": 52.56137, "lon": 13.49991, "planning-area-id": 11200410}}, {"type": "Feature", "geometry": {"type": "Point", "coordinates": [13.47962, 52.5351]}, "properties": {"id": "30684982", "name": "Altenhofer Straße", "lat": 52.5351, "lon": 13.47962, "planning-area-id": 11200514}}, {"type": "Feature", "geometry": {"type": "Point", "coordinates": [13.4767, 52.53225]}, "properties": {"id": "30684987", "name": "Landsberger Allee/Weißenseer Weg", "lat": 52.53225, "lon": 13.4767, "planning-area-id": 11300620}}, {"type": "Feature", "geometry": {"type": "Point", "coordinates": [13.50633, 52.56366]}, "properties": {"id": "30689860", "name": "Prerower Platz", "lat": 52.56366, "lon": 13.50633, "planning-area-id": 11100309}}, {"type": "Feature", "geometry": {"type": "Point", "coordinates": [13.50461, 52.56385]}, "properties": {"id": "30689934", "name": "Prerower Platz", "lat": 52.56385, "lon": 13.50461, "planning-area-id": 11100308}}, {"type": "Feature", "geometry": {"type": "Point", "coordinates": [13.49739, 52.57016]}, "properties": {"id": "30689973", "name": "Zingster Straße/Ribnitzer Straße", "lat": 52.57016, "lon": 13.49739, "planning-area-id": 11100307}}, {"type": "Feature", "geometry": {"type": "Point", "coordinates": [13.52031, 52.56857]}, "properties": {"id": "30690321", "name": "Prendener Straße", "lat": 52.56857, "lon": 13.52031, "planning-area-id": 11100204}}, {"type": "Feature", "geometry": {"type": "Point", "coordinates": [13.502, 52.56613]}, "properties": {"id": "30690550", "name": "Ahrenshooper Straße", "lat": 52.56613, "lon": 13.502, "planning-area-id": 11100308}}, {"type": "Feature", "geometry": {"type": "Point", "coordinates": [13.52659, 52.56985]}, "properties": {"id": "30691227", "name": "Falkenberg", "lat": 52.56985, "lon": 13.52659, "planning-area-id": 11100205}}, {"type": "Feature", "geometry": {"type": "Point", "coordinates": [13.50917, 52.55081]}, "properties": {"id": "30692597", "name": "Gehrenseestraße", "lat": 52.55081, "lon": 13.50917, "planning-area-id": 11200410}}, {"type": "Feature", "geometry": {"type": "Point", "coordinates": [13.4615, 52.53048]}, "properties": {"id": "30693019", "name": "Oderbruchstraße", "lat": 52.53048, "lon": 13.4615, "planning-area-id": 3601450}}, {"type": "Feature", "geometry": {"type": "Point", "coordinates": [13.4869, 52.53391]}, "properties": {"id": "30694255", "name": "Zechliner Straße", "lat": 52.53391, "lon": 13.4869, "planning-area-id": 11300721}}, {"type": "Feature", "geometry": {"type": "Point", "coordinates": [13.49487, 52.53439]}, "properties": {"id": "30694268", "name": "Genslerstraße", "lat": 52.53439, "lon": 13.49487, "planning-area-id": 11300721}}, {"type": "Feature", "geometry": {"type": "Point", "coordinates": [13.50664, 52.53494]}, "properties": {"id": "30694279", "name": "Arendsweg", "lat": 52.53494, "lon": 13.50664, "planning-area-id": 11200515}}, {"type": "Feature", "geometry": {"type": "Point", "coordinates": [13.51818, 52.53573]}, "properties": {"id": "30694284", "name": "Landsberger Allee/Rhinstraße", "lat": 52.53573, "lon": 13.51818, "planning-area-id": 11200515}}, {"type": "Feature", "geometry": {"type": "Point", "coordinates": [13.52443, 52.53664]}, "properties": {"id": "30694289", "name": "Dingelstädter Straße", "lat": 52.53664, "lon": 13.52443, "planning-area-id": 10100311}}, {"type": "Feature", "geometry": {"type": "Point", "coordinates": [13.53412, 52.53909]}, "properties": {"id": "30694295", "name": "Gewerbepark Georg Knorr", "lat": 52.53909, "lon": 13.53412, "planning-area-id": 10100311}}, {"type": "Feature", "geometry": {"type": "Point", "coordinates": [13.55736, 52.5465]}, "properties": {"id": "30694319", "name": "Freizeitforum Marzahn", "lat": 52.5465, "lon": 13.55736, "planning-area-id": 10100210}}, {"type": "Feature", "geometry": {"type": "Point", "coordinates": [13.56547, 52.55371]}, "properties": {"id": "30694331", "name": "Max-Herrmann-Straße", "lat": 52.55371, "lon": 13.56547, "planning-area-id": 10100208}}, {"type": "Feature", "geometry": {"type": "Point", "coordinates": [13.56194, 52.54721]}, "properties": {"id": "30694334", "name": "Jan-Petersen-Straße", "lat": 52.54721, "lon": 13.56194, "planning-area-id": 10100210}}, {"type": "Feature", "geometry": {"type": "Point", "coordinates": [13.56826, 52.55779]}, "properties": {"id": "30694352", "name": "Wuhletalstraße", "lat": 52.55779, "lon": 13.56826, "planning-area-id": 10100206}}, {"type": "Feature", "geometry": {"type": "Point", "coordinates": [13.57185, 52.56501]}, "properties": {"id": "30694375", "name": "Niemegker Straße", "lat": 52.56501, "lon": 13.57185, "planning-area-id": 10100104}}, {"type": "Feature", "geometry": {"type": "Point", "coordinates": [13.57473, 52.56827]}, "properties": {"id": "30694376", "name": "Barnimplatz", "lat": 52.56827, "lon": 13.57473, "planning-area-id": 10100102}}, {"type": "Feature", "geometry": {"type": "Point", "coordinates": [13.57417, 52.5726]}, "properties": {"id": "30694391", "name": "Ahrensfelde/Stadtgrenze", "lat": 52.5726, "lon": 13.57417, "planning-area-id": 10100102}}, {"type": "Feature", "geometry": {"type": "Point", "coordinates": [13.57276, 52.5464]}, "properties": {"id": "30694394", "name": "Landsberger Allee/Blumberger Damm", "lat": 52.5464, "lon": 13.57276, "planning-area-id": 10100316}}, {"type": "Feature", "geometry": {"type": "Point", "coordinates": [13.57871, 52.54798]}, "properties": {"id": "30694396", "name": "Brodowiner Ring", "lat": 52.54798, "lon": 13.57871, "planning-area-id": 10100316}}, {"type": "Feature", "geometry": {"type": "Point", "coordinates": [13.58713, 52.54909]}, "properties": {"id": "30694741", "name": "Landsberger Chaussee/Zossener Straße", "lat": 52.54909, "lon": 13.58713, "planning-area-id": 10200417}}, {"type": "Feature", "geometry": {"type": "Point", "coordinates": [13.58743, 52.54546]}, "properties": {"id": "30694746", "name": "Michendorfer Straße", "lat": 52.54546, "lon": 13.58743, "planning-area-id": 10200418}}, {"type": "Feature", "geometry": {"type": "Point", "coordinates": [13.59898, 52.54388]}, "properties": {"id": "30694748", "name": "Zossener Straße/Kastanienallee", "lat": 52.54388, "lon": 13.59898, "planning-area-id": 10200419}}, {"type": "Feature", "geometry": {"type": "Point", "coordinates": [13.62114, 52.53074]}, "properties": {"id": "30694767", "name": "Riesaer Straße/Louis-Lewin-Straße", "lat": 52.53074, "lon": 13.62114, "planning-area-id": 10200524}}, {"type": "Feature", "geometry": {"type": "Point", "coordinates": [13.62347, 52.52937]}, "properties": {"id": "30694780", "name": "Riesaer Straße", "lat": 52.52937, "lon": 13.62347, "planning-area-id": 10200525}}, {"type": "Feature", "geometry": {"type": "Point", "coordinates": [13.53022, 52.52547]}, "properties": {"id": "30694949", "name": "Beilsteiner Straße", "lat": 52.52547, "lon": 13.53022, "planning-area-id": 10100311}}, {"type": "Feature", "geometry": {"type": "Point", "coordinates": [13.52111, 52.52583]}, "properties": {"id": "30694953", "name": "Allee der Kosmonauten/Rhinstraße", "lat": 52.52583, "lon": 13.52111, "planning-area-id": 10100311}}, {"type": "Feature", "geometry": {"type": "Point", "coordinates": [13.51963, 52.52544]}, "properties": {"id": "30694959", "name": "Allee der Kosmonauten/Rhinstraße", "lat": 52.52544, "lon": 13.51963, "planning-area-id": 10100311}}, {"type": "Feature", "geometry": {"type": "Point", "coordinates": [13.51926, 52.52943]}, "properties": {"id": "30694960", "name": "Meeraner Straße", "lat": 52.52943, "lon": 13.51926, "planning-area-id": 10100311}}, {"type": "Feature", "geometry": {"type": "Point", "coordinates": [13.51678, 52.53624]}, "properties": {"id": "30694967", "name": "Landsberger Allee/Rhinstraße", "lat": 52.53624, "lon": 13.51678, "planning-area-id": 11200515}}, {"type": "Feature", "geometry": {"type": "Point", "coordinates": [13.5146, 52.539]}, "properties": {"id": "30694968", "name": "Rhinstraße/Plauener Straße", "lat": 52.539, "lon": 13.5146, "planning-area-id": 11200515}}, {"type": "Feature", "geometry": {"type": "Point", "coordinates": [13.50841, 52.52546]}, "properties": {"id": "30695361", "name": "Ev. Krankenhaus KEH", "lat": 52.52546, "lon": 13.50841, "planning-area-id": 11300721}}, {"type": "Feature", "geometry": {"type": "Point", "coordinates": [13.47841, 52.52661]}, "properties": {"id": "30695385", "name": "Roederplatz", "lat": 52.52661, "lon": 13.47841, "planning-area-id": 11300617}}, {"type": "Feature", "geometry": {"type": "Point", "coordinates": [13.46266, 52.52919]}, "properties": {"id": "30695390", "name": "Karl-Lade-Straße", "lat": 52.52919, "lon": 13.46266, "planning-area-id": 11300617}}, {"type": "Feature", "geometry": {"type": "Point", "coordinates": [13.47954, 52.52333]}, "properties": {"id": "30695393", "name": "Möllendorffstraße/Storkower Straße", "lat": 52.52333, "lon": 13.47954, "planning-area-id": 11300619}}, {"type": "Feature", "geometry": {"type": "Point", "coordinates": [13.40424, 52.52042]}, "properties": {"id": "30731481", "name": "Spandauer Straße/Marienkirche", "lat": 52.52042, "lon": 13.40424, "planning-area-id": 1100310}}, {"type": "Feature", "geometry": {"type": "Point", "coordinates": [13.41473, 52.52216]}, "properties": {"id": "30731497", "name": "U Alexanderplatz", "lat": 52.52216, "lon": 13.41473, "planning-area-id": 1100310}}, {"type": "Feature", "geometry": {"type": "Point", "coordinates": [13.42046, 52.52499]}, "properties": {"id": "30731498", "name": "Mollstraße/Otto-Braun-Straße", "lat": 52.52499, "lon": 13.42046, "planning-area-id": 1100311}}, {"type": "Feature", "geometry": {"type": "Point", "coordinates": [13.42027, 52.52554]}, "properties": {"id": "30731507", "name": "Mollstraße/Otto-Braun-Straße", "lat": 52.52554, "lon": 13.42027, "planning-area-id": 2400520}}, {"type": "Feature", "geometry": {"type": "Point", "coordinates": [13.41151, 52.52088]}, "properties": {"id": "30731508", "name": "S+U Alexanderplatz/Gontardstraße", "lat": 52.52088, "lon": 13.41151, "planning-area-id": 1100310}}, {"type": "Feature", "geometry": {"type": "Point", "coordinates": [13.38736, 52.52588]}, "properties": {"id": "30731700", "name": "U Oranienburger Tor", "lat": 52.52588, "lon": 13.38736, "planning-area-id": 1100308}}, {"type": "Feature", "geometry": {"type": "Point", "coordinates": [13.41083, 52.52851]}, "properties": {"id": "30732016", "name": "U Rosa-Luxemburg-Platz", "lat": 52.52851, "lon": 13.41083, "planning-area-id": 1100310}}, {"type": "Feature", "geometry": {"type": "Point", "coordinates": [13.41165, 52.52367]}, "properties": {"id": "30732068", "name": "S+U Alexanderplatz/Memhardstraße", "lat": 52.52367, "lon": 13.41165, "planning-area-id": 1100310}}, {"type": "Feature", "geometry": {"type": "Point", "coordinates": [13.41651, 52.52784]}, "properties": {"id": "30732071", "name": "Mollstraße/Prenzlauer Allee", "lat": 52.52784, "lon": 13.41651, "planning-area-id": 3701556}}, {"type": "Feature", "geometry": {"type": "Point", "coordinates": [13.41952, 52.53121]}, "properties": {"id": "30733475", "name": "Prenzlauer Allee/Metzer Straße", "lat": 52.53121, "lon": 13.41952, "planning-area-id": 3701556}}, {"type": "Feature", "geometry": {"type": "Point", "coordinates": [13.42084, 52.53342]}, "properties": {"id": "30733478", "name": "Knaackstraße", "lat": 52.53342, "lon": 13.42084, "planning-area-id": 3701556}}, {"type": "Feature", "geometry": {"type": "Point", "coordinates": [13.4225, 52.53623]}, "properties": {"id": "30733479", "name": "Marienburger Straße", "lat": 52.53623, "lon": 13.4225, "planning-area-id": 3701555}}, {"type": "Feature", "geometry": {"type": "Point", "coordinates": [13.44165, 52.54359]}, "properties": {"id": "30733487", "name": "Thomas-Mann-Straße", "lat": 52.54359, "lon": 13.44165, "planning-area-id": 3601449}}, {"type": "Feature", "geometry": {"type": "Point", "coordinates": [13.45174, 52.54848]}, "properties": {"id": "30733493", "name": "Antonplatz", "lat": 52.54848, "lon": 13.45174, "planning-area-id": 3500936}}, {"type": "Feature", "geometry": {"type": "Point", "coordinates": [13.4408, 52.55167]}, "properties": {"id": "30733501", "name": "Friesickestraße", "lat": 52.55167, "lon": 13.4408, "planning-area-id": 3500934}}, {"type": "Feature", "geometry": {"type": "Point", "coordinates": [13.43485, 52.56224]}, "properties": {"id": "30733522", "name": "Tino-Schwierzina-Straße", "lat": 52.56224, "lon": 13.43485, "planning-area-id": 3300516}}, {"type": "Feature", "geometry": {"type": "Point", "coordinates": [13.43609, 52.56536]}, "properties": {"id": "30733524", "name": "Am Wasserturm", "lat": 52.56536, "lon": 13.43609, "planning-area-id": 3300516}}, {"type": "Feature", "geometry": {"type": "Point", "coordinates": [13.44471, 52.52916]}, "properties": {"id": "30734427", "name": "Paul-Heyse-Straße", "lat": 52.52916, "lon": 13.44471, "planning-area-id": 3601452}}, {"type": "Feature", "geometry": {"type": "Point", "coordinates": [13.45229, 52.51963]}, "properties": {"id": "30734435", "name": "Bersarinplatz", "lat": 52.51963, "lon": 13.45229, "planning-area-id": 2500726}}, {"type": "Feature", "geometry": {"type": "Point", "coordinates": [13.4526, 52.51223]}, "properties": {"id": "30734503", "name": "Grünberger Straße/Warschauer Straße", "lat": 52.51223, "lon": 13.4526, "planning-area-id": 2500833}}, {"type": "Feature", "geometry": {"type": "Point", "coordinates": [13.48476, 52.49716]}, "properties": {"id": "30736267", "name": "Kosanke-Siedlung", "lat": 52.49716, "lon": 13.48476, "planning-area-id": 11501238}}, {"type": "Feature", "geometry": {"type": "Point", "coordinates": [13.4906, 52.49314]}, "properties": {"id": "30736270", "name": "Gustav-Holzmann-Straße", "lat": 52.49314, "lon": 13.4906, "planning-area-id": 11501238}}, {"type": "Feature", "geometry": {"type": "Point", "coordinates": [13.49586, 52.48813]}, "properties": {"id": "30736271", "name": "Heizkraftwerk Klingenberg", "lat": 52.48813, "lon": 13.49586, "planning-area-id": 11501238}}, {"type": "Feature", "geometry": {"type": "Point", "coordinates": [13.52513, 52.48126]}, "properties": {"id": "30736427", "name": "S Karlshorst", "lat": 52.48126, "lon": 13.52513, "planning-area-id": 11501341}}, {"type": "Feature", "geometry": {"type": "Point", "coordinates": [13.5266, 52.49276]}, "properties": {"id": "30736431", "name": "Treskowallee/HTW", "lat": 52.49276, "lon": 13.5266, "planning-area-id": 11501339}}, {"type": "Feature", "geometry": {"type": "Point", "coordinates": [13.51905, 52.51397]}, "properties": {"id": "30736442", "name": "S Friedrichsfelde Ost", "lat": 52.51397, "lon": 13.51905, "planning-area-id": 11401032}}, {"type": "Feature", "geometry": {"type": "Point", "coordinates": [13.53947, 52.45762]}, "properties": {"id": "31524735", "name": "Weiskopffstraße", "lat": 52.45762, "lon": 13.53947, "planning-area-id": 9200512}}, {"type": "Feature", "geometry": {"type": "Point", "coordinates": [13.35163, 52.55024]}, "properties": {"id": "35528193", "name": "U Seestraße", "lat": 52.55024, "lon": 13.35163, "planning-area-id": 1400942}}, {"type": "Feature", "geometry": {"type": "Point", "coordinates": [13.50982, 52.54571]}, "properties": {"id": "50808874", "name": "Rhinstraße/Gärtnerstraße", "lat": 52.54571, "lon": 13.50982, "planning-area-id": 11200411}}, {"type": "Feature", "geometry": {"type": "Point", "coordinates": [13.48441, 52.5399]}, "properties": {"id": "52776952", "name": "Simon-Bolivar-Straße", "lat": 52.5399, "lon": 13.48441, "planning-area-id": 11200513}}, {"type": "Feature", "geometry": {"type": "Point", "coordinates": [13.60929, 52.51117]}, "properties": {"id": "59851047", "name": "S Mahlsdorf", "lat": 52.51117, "lon": 13.60929, "planning-area-id": 10400939}}, {"type": "Feature", "geometry": {"type": "Point", "coordinates": [13.57526, 52.42429]}, "properties": {"id": "79408448", "name": "Friedrich-Wolf-Straße", "lat": 52.42429, "lon": 13.57526, "planning-area-id": 9301126}}, {"type": "Feature", "geometry": {"type": "Point", "coordinates": [13.56046, 52.53806]}, "properties": {"id": "85897703", "name": "Adersleber Weg", "lat": 52.53806, "lon": 13.56046, "planning-area-id": 10100314}}, {"type": "Feature", "geometry": {"type": "Point", "coordinates": [13.43345, 52.52323]}, "properties": {"id": "87018549", "name": "Platz der Vereinten Nationen", "lat": 52.52323, "lon": 13.43345, "planning-area-id": 2400521}}, {"type": "Feature", "geometry": {"type": "Point", "coordinates": [13.42749, 52.52311]}, "properties": {"id": "87018550", "name": "Büschingstraße", "lat": 52.52311, "lon": 13.42749, "planning-area-id": 2400520}}, {"type": "Feature", "geometry": {"type": "Point", "coordinates": [13.41385, 52.54955]}, "properties": {"id": "91711812", "name": "S+U Schönhauser Allee", "lat": 52.54955, "lon": 13.41385, "planning-area-id": 3601141}}, {"type": "Feature", "geometry": {"type": "Point", "coordinates": [13.41255, 52.54495]}, "properties": {"id": "91711823", "name": "Milastraße", "lat": 52.54495, "lon": 13.41255, "planning-area-id": 3601142}}, {"type": "Feature", "geometry": {"type": "Point", "coordinates": [13.41965, 52.60606]}, "properties": {"id": "92627145", "name": "Hugenottenplatz", "lat": 52.60606, "lon": 13.41965, "planning-area-id": 3200308}}, {"type": "Feature", "geometry": {"type": "Point", "coordinates": [13.42429, 52.60724]}, "properties": {"id": "92627148", "name": "Arnouxstraße", "lat": 52.60724, "lon": 13.42429, "planning-area-id": 3200310}}, {"type": "Feature", "geometry": {"type": "Point", "coordinates": [13.43148, 52.60173]}, "properties": {"id": "92627167", "name": "Blankenfelder Straße", "lat": 52.60173, "lon": 13.43148, "planning-area-id": 3200308}}, {"type": "Feature", "geometry": {"type": "Point", "coordinates": [13.56315, 52.45652]}, "properties": {"id": "94941339", "name": "Alte Försterei", "lat": 52.45652, "lon": 13.56315, "planning-area-id": 9501939}}, {"type": "Feature", "geometry": {"type": "Point", "coordinates": [13.5586, 52.45591]}, "properties": {"id": "94941344", "name": "Spindlersfelder Straße", "lat": 52.45591, "lon": 13.5586, "planning-area-id": 9501939}}, {"type": "Feature", "geometry": {"type": "Point", "coordinates": [13.5501, 52.45662]}, "properties": {"id": "94941350", "name": "Nixenstraße", "lat": 52.45662, "lon": 13.5501, "planning-area-id": 9200512}}, {"type": "Feature", "geometry": {"type": "Point", "coordinates": [13.5436, 52.45757]}, "properties": {"id": "94941359", "name": "Freizeit- und Erholungszentrum", "lat": 52.45757, "lon": 13.5436, "planning-area-id": 9200512}}, {"type": "Feature", "geometry": {"type": "Point", "coordinates": [13.57104, 52.45161]}, "properties": {"id": "94942335", "name": "Bahnhofstraße/Lindenstraße", "lat": 52.45161, "lon": 13.57104, "planning-area-id": 9501939}}, {"type": "Feature", "geometry": {"type": "Point", "coordinates": [13.58618, 52.44104]}, "properties": {"id": "94951410", "name": "Pablo-Neruda-Straße", "lat": 52.44104, "lon": 13.58618, "planning-area-id": 9401534}}, {"type": "Feature", "geometry": {"type": "Point", "coordinates": [13.57545, 52.44434]}, "properties": {"id": "94951419", "name": "Schloßplatz Köpenick", "lat": 52.44434, "lon": 13.57545, "planning-area-id": 9401534}}, {"type": "Feature", "geometry": {"type": "Point", "coordinates": [13.56203, 52.44532]}, "properties": {"id": "94963733", "name": "S Spindlersfeld", "lat": 52.44532, "lon": 13.56203, "planning-area-id": 9200819}}, {"type": "Feature", "geometry": {"type": "Point", "coordinates": [13.61433, 52.53217]}, "properties": {"id": "95911874", "name": "Jenaer Straße", "lat": 52.53217, "lon": 13.61433, "planning-area-id": 10200524}}, {"type": "Feature", "geometry": {"type": "Point", "coordinates": [13.59276, 52.54473]}, "properties": {"id": "95914718", "name": "Alte Hellersdorfer Straße/Zossener Straße", "lat": 52.54473, "lon": 13.59276, "planning-area-id": 10200418}}, {"type": "Feature", "geometry": {"type": "Point", "coordinates": [13.59207, 52.43883]}, "properties": {"id": "95948746", "name": "Krankenhaus Köpenick/Südseite", "lat": 52.43883, "lon": 13.59207, "planning-area-id": 9401329}}, {"type": "Feature", "geometry": {"type": "Point", "coordinates": [13.55267, 52.5339]}, "properties": {"id": "96535655", "name": "Allee der Kosmonauten/Poelchaustraße", "lat": 52.5339, "lon": 13.55267, "planning-area-id": 10100314}}, {"type": "Feature", "geometry": {"type": "Point", "coordinates": [13.54904, 52.52881]}, "properties": {"id": "96535658", "name": "Boschpoler Straße", "lat": 52.52881, "lon": 13.54904, "planning-area-id": 10100312}}, {"type": "Feature", "geometry": {"type": "Point", "coordinates": [13.53647, 52.52569]}, "properties": {"id": "96536154", "name": "S Springpfuhl", "lat": 52.52569, "lon": 13.53647, "planning-area-id": 10100311}}, {"type": "Feature", "geometry": {"type": "Point", "coordinates": [13.49775, 52.51236]}, "properties": {"id": "96536918", "name": "S+U Lichtenberg/Siegfriedstraße", "lat": 52.51236, "lon": 13.49775, "planning-area-id": 11300725}}, {"type": "Feature", "geometry": {"type": "Point", "coordinates": [13.56383, 52.54209]}, "properties": {"id": "98862012", "name": "Alt-Marzahn", "lat": 52.54209, "lon": 13.56383, "planning-area-id": 10100313}}, {"type": "Feature", "geometry": {"type": "Point", "coordinates": [13.56111, 52.5502]}, "properties": {"id": "98865506", "name": "Bürgerpark Marzahn", "lat": 52.5502, "lon": 13.56111, "planning-area-id": 10100208}}, {"type": "Feature", "geometry": {"type": "Point", "coordinates": [13.57482, 52.57274]}, "properties": {"id": "98867660", "name": "Ahrensfelde/Stadtgrenze", "lat": 52.57274, "lon": 13.57482, "planning-area-id": 10100102}}, {"type": "Feature", "geometry": {"type": "Point", "coordinates": [13.47212, 52.53572]}, "properties": {"id": "98871740", "name": "Hohenschönhauser Straße", "lat": 52.53572, "lon": 13.47212, "planning-area-id": 11300616}}, {"type": "Feature", "geometry": {"type": "Point", "coordinates": [13.45712, 52.52877]}, "properties": {"id": "98878581", "name": "S Landsberger Allee", "lat": 52.52877, "lon": 13.45712, "planning-area-id": 3601450}}, {"type": "Feature", "geometry": {"type": "Point", "coordinates": [13.43827, 52.54072]}, "properties": {"id": "98878847", "name": "S Greifswalder Straße", "lat": 52.54072, "lon": 13.43827, "planning-area-id": 3601449}}, {"type": "Feature", "geometry": {"type": "Point", "coordinates": [13.48582, 52.55229]}, "properties": {"id": "98883766", "name": "Orankestrand", "lat": 52.55229, "lon": 13.48582, "planning-area-id": 3501038}}, {"type": "Feature", "geometry": {"type": "Point", "coordinates": [13.5095, 52.55086]}, "properties": {"id": "98884328", "name": "Gehrenseestraße", "lat": 52.55086, "lon": 13.5095, "planning-area-id": 11200410}}, {"type": "Feature", "geometry": {"type": "Point", "coordinates": [13.5202, 52.50471]}, "properties": {"id": "100062685", "name": "Alfred-Kowalke-Straße", "lat": 52.50471, "lon": 13.5202, "planning-area-id": 11401137}}, {"type": "Feature", "geometry": {"type": "Point", "coordinates": [13.4671, 52.54848]}, "properties": {"id": "103923024", "name": "Gounodstraße", "lat": 52.54848, "lon": 13.4671, "planning-area-id": 3500936}}, {"type": "Feature", "geometry": {"type": "Point", "coordinates": [13.50519, 52.5488]}, "properties": {"id": "113639023", "name": "Alt-Hohenschönhausen", "lat": 52.5488, "lon": 13.50519, "planning-area-id": 11200411}}, {"type": "Feature", "geometry": {"type": "Point", "coordinates": [13.63379, 52.38641]}, "properties": {"id": "123139240", "name": "Adlergestell/Vetschauer Allee", "lat": 52.38641, "lon": 13.63379, "planning-area-id": 9301227}}, {"type": "Feature", "geometry": {"type": "Point", "coordinates": [13.63493, 52.39112]}, "properties": {"id": "123139267", "name": "Lübbenauer Weg", "lat": 52.39112, "lon": 13.63493, "planning-area-id": 9301227}}, {"type": "Feature", "geometry": {"type": "Point", "coordinates": [13.57036, 52.44084]}, "properties": {"id": "129255755", "name": "Glienicker Straße", "lat": 52.44084, "lon": 13.57036, "planning-area-id": 9200819}}, {"type": "Feature", "geometry": {"type": "Point", "coordinates": [13.48053, 52.53845]}, "properties": {"id": "146866102", "name": "Sandinostraße", "lat": 52.53845, "lon": 13.48053, "planning-area-id": 11200513}}, {"type": "Feature", "geometry": {"type": "Point", "coordinates": [13.60434, 52.53892]}, "properties": {"id": "150543903", "name": "Stendaler Straße/Quedlinburger Straße", "lat": 52.53892, "lon": 13.60434, "planning-area-id": 10200421}}, {"type": "Feature", "geometry": {"type": "Point", "coordinates": [13.4293, 52.60824]}, "properties": {"id": "169494133", "name": "Navarraplatz", "lat": 52.60824, "lon": 13.4293, "planning-area-id": 3200310}}, {"type": "Feature", "geometry": {"type": "Point", "coordinates": [13.38086, 52.59454]}, "properties": {"id": "223676384", "name": "Wiesenwinkel", "lat": 52.59454, "lon": 13.38086, "planning-area-id": 3400618}}, {"type": "Feature", "geometry": {"type": "Point", "coordinates": [13.39099, 52.55532]}, "properties": {"id": "223826507", "name": "Grüntaler Straße", "lat": 52.55532, "lon": 13.39099, "planning-area-id": 1300733}}, {"type": "Feature", "geometry": {"type": "Point", "coordinates": [13.51241, 52.55519]}, "properties": {"id": "243457847", "name": "Anna-Ebermann-Straße", "lat": 52.55519, "lon": 13.51241, "planning-area-id": 11200410}}, {"type": "Feature", "geometry": {"type": "Point", "coordinates": [13.51454, 52.5587]}, "properties": {"id": "243458026", "name": "Arnimstraße", "lat": 52.5587, "lon": 13.51454, "planning-area-id": 11100309}}, {"type": "Feature", "geometry": {"type": "Point", "coordinates": [13.51016, 52.55991]}, "properties": {"id": "243458179", "name": "Rüdickenstraße", "lat": 52.55991, "lon": 13.51016, "planning-area-id": 11100309}}, {"type": "Feature", "geometry": {"type": "Point", "coordinates": [13.5037, 52.56275]}, "properties": {"id": "243458261", "name": "Prerower Platz", "lat": 52.56275, "lon": 13.5037, "planning-area-id": 11100309}}, {"type": "Feature", "geometry": {"type": "Point", "coordinates": [13.49275, 52.54425]}, "properties": {"id": "243460382", "name": "Freienwalder Straße", "lat": 52.54425, "lon": 13.49275, "planning-area-id": 11200513}}, {"type": "Feature", "geometry": {"type": "Point", "coordinates": [13.47388, 52.53569]}, "properties": {"id": "243460732", "name": "Hohenschönhauser Straße", "lat": 52.53569, "lon": 13.47388, "planning-area-id": 11200514}}, {"type": "Feature", "geometry": {"type": "Point", "coordinates": [13.47142, 52.53838]}, "properties": {"id": "243460915", "name": "Sportforum", "lat": 52.53838, "lon": 13.47142, "planning-area-id": 11200512}}, {"type": "Feature", "geometry": {"type": "Point", "coordinates": [13.46868, 52.54421]}, "properties": {"id": "243460954", "name": "Betriebshof Indira-Gandhi-Straße", "lat": 52.54421, "lon": 13.46868, "planning-area-id": 11200512}}, {"type": "Feature", "geometry": {"type": "Point", "coordinates": [13.49533, 52.57285]}, "properties": {"id": "243465044", "name": "Zingster Straße", "lat": 52.57285, "lon": 13.49533, "planning-area-id": 11100307}}, {"type": "Feature", "geometry": {"type": "Point", "coordinates": [13.49486, 52.57236]}, "properties": {"id": "243465154", "name": "Zingster Straße", "lat": 52.57236, "lon": 13.49486, "planning-area-id": 11100307}}, {"type": "Feature", "geometry": {"type": "Point", "coordinates": [13.52589, 52.56927]}, "properties": {"id": "243465657", "name": "Welsestraße", "lat": 52.56927, "lon": 13.52589, "planning-area-id": 11100203}}, {"type": "Feature", "geometry": {"type": "Point", "coordinates": [13.51001, 52.53518]}, "properties": {"id": "243830926", "name": "Schalkauer Straße", "lat": 52.53518, "lon": 13.51001, "planning-area-id": 11200515}}, {"type": "Feature", "geometry": {"type": "Point", "coordinates": [13.33957, 52.54391]}, "properties": {"id": "243847233", "name": "Virchow-Klinikum", "lat": 52.54391, "lon": 13.33957, "planning-area-id": 1400938}}, {"type": "Feature", "geometry": {"type": "Point", "coordinates": [13.35852, 52.55383]}, "properties": {"id": "243848077", "name": "Osram-Höfe", "lat": 52.55383, "lon": 13.35852, "planning-area-id": 1401048}}, {"type": "Feature", "geometry": {"type": "Point", "coordinates": [13.36679, 52.55704]}, "properties": {"id": "243848348", "name": "Louise-Schroeder-Platz", "lat": 52.55704, "lon": 13.36679, "planning-area-id": 1401049}}, {"type": "Feature", "geometry": {"type": "Point", "coordinates": [13.38376, 52.5559]}, "properties": {"id": "243849130", "name": "Osloer Straße/Prinzenallee", "lat": 52.5559, "lon": 13.38376, "planning-area-id": 1401045}}, {"type": "Feature", "geometry": {"type": "Point", "coordinates": [13.39628, 52.55482]}, "properties": {"id": "243849131", "name": "S Bornholmer Straße", "lat": 52.55482, "lon": 13.39628, "planning-area-id": 1300733}}, {"type": "Feature", "geometry": {"type": "Point", "coordinates": [13.43771, 52.57006]}, "properties": {"id": "243850922", "name": "Rothenbachstraße", "lat": 52.57006, "lon": 13.43771, "planning-area-id": 3300516}}, {"type": "Feature", "geometry": {"type": "Point", "coordinates": [13.42855, 52.54755]}, "properties": {"id": "243854585", "name": "Erich-Weinert-Straße", "lat": 52.54755, "lon": 13.42855, "planning-area-id": 3601245}}, {"type": "Feature", "geometry": {"type": "Point", "coordinates": [13.42585, 52.54192]}, "properties": {"id": "243855398", "name": "Fröbelstraße", "lat": 52.54192, "lon": 13.42585, "planning-area-id": 3701657}}, {"type": "Feature", "geometry": {"type": "Point", "coordinates": [13.51937, 52.51927]}, "properties": {"id": "243856643", "name": "Kleingartenanlage Bielefeldt", "lat": 52.51927, "lon": 13.51937, "planning-area-id": 10100311}}, {"type": "Feature", "geometry": {"type": "Point", "coordinates": [13.45401, 52.51539]}, "properties": {"id": "243995876", "name": "U Frankfurter Tor", "lat": 52.51539, "lon": 13.45401, "planning-area-id": 2500830}}, {"type": "Feature", "geometry": {"type": "Point", "coordinates": [13.45003, 52.52295]}, "properties": {"id": "243996096", "name": "Straßmannstraße", "lat": 52.52295, "lon": 13.45003, "planning-area-id": 2500726}}, {"type": "Feature", "geometry": {"type": "Point", "coordinates": [13.52402, 52.49675]}, "properties": {"id": "243996833", "name": "U Tierpark", "lat": 52.49675, "lon": 13.52402, "planning-area-id": 11401137}}, {"type": "Feature", "geometry": {"type": "Point", "coordinates": [13.52152, 52.50136]}, "properties": {"id": "243996834", "name": "Criegernweg", "lat": 52.50136, "lon": 13.52152, "planning-area-id": 11401137}}, {"type": "Feature", "geometry": {"type": "Point", "coordinates": [13.51899, 52.51057]}, "properties": {"id": "243996913", "name": "Alt-Friedrichsfelde/Rhinstraße", "lat": 52.51057, "lon": 13.51899, "planning-area-id": 11401032}}, {"type": "Feature", "geometry": {"type": "Point", "coordinates": [13.44018, 52.52414]}, "properties": {"id": "244129939", "name": "Klinikum im Friedrichshain", "lat": 52.52414, "lon": 13.44018, "planning-area-id": 2400521}}, {"type": "Feature", "geometry": {"type": "Point", "coordinates": [13.44623, 52.52593]}, "properties": {"id": "244129991", "name": "Landsberger Allee/Petersburger Straße", "lat": 52.52593, "lon": 13.44623, "planning-area-id": 2400522}}, {"type": "Feature", "geometry": {"type": "Point", "coordinates": [13.39085, 52.5359]}, "properties": {"id": "244484708", "name": "Gedenkstätte Berliner Mauer", "lat": 52.5359, "lon": 13.39085, "planning-area-id": 1300835}}, {"type": "Feature", "geometry": {"type": "Point", "coordinates": [13.41176, 52.5216]}, "properties": {"id": "244486083", "name": "S+U Alexanderplatz/Dircksenstraße", "lat": 52.5216, "lon": 13.41176, "planning-area-id": 1100310}}, {"type": "Feature", "geometry": {"type": "Point", "coordinates": [13.41941, 52.52477]}, "properties": {"id": "244486144", "name": "Mollstraße/Otto-Braun-Straße", "lat": 52.52477, "lon": 13.41941, "planning-area-id": 1100310}}, {"type": "Feature", "geometry": {"type": "Point", "coordinates": [13.38696, 52.52734]}, "properties": {"id": "244487457", "name": "Hannoversche Straße", "lat": 52.52734, "lon": 13.38696, "planning-area-id": 1100308}}, {"type": "Feature", "geometry": {"type": "Point", "coordinates": [13.45262, 52.51058]}, "properties": {"id": "245548434", "name": "Kopernikusstraße/Warschauer Straße", "lat": 52.51058, "lon": 13.45262, "planning-area-id": 2500833}}, {"type": "Feature", "geometry": {"type": "Point", "coordinates": [13.58351, 52.46294]}, "properties": {"id": "247115551", "name": "Mittelheide", "lat": 52.46294, "lon": 13.58351, "planning-area-id": 9502043}}, {"type": "Feature", "geometry": {"type": "Point", "coordinates": [13.5886, 52.46963]}, "properties": {"id": "247115795", "name": "Unter den Birken", "lat": 52.46963, "lon": 13.5886, "planning-area-id": 9502043}}, {"type": "Feature", "geometry": {"type": "Point", "coordinates": [13.58532, 52.46693]}, "properties": {"id": "247115797", "name": "Wongrowitzer Steig", "lat": 52.46693, "lon": 13.58532, "planning-area-id": 9502043}}, {"type": "Feature", "geometry": {"type": "Point", "coordinates": [13.60039, 52.4766]}, "properties": {"id": "247116364", "name": "Hultschiner Damm/Seestraße", "lat": 52.4766, "lon": 13.60039, "planning-area-id": 10400940}}, {"type": "Feature", "geometry": {"type": "Point", "coordinates": [13.60094, 52.48029]}, "properties": {"id": "247116367", "name": "Roseggerstraße", "lat": 52.48029, "lon": 13.60094, "planning-area-id": 10400940}}, {"type": "Feature", "geometry": {"type": "Point", "coordinates": [13.60173, 52.48299]}, "properties": {"id": "247116371", "name": "Erich-Baron-Weg", "lat": 52.48299, "lon": 13.60173, "planning-area-id": 10400940}}, {"type": "Feature", "geometry": {"type": "Point", "coordinates": [13.60372, 52.4857]}, "properties": {"id": "247116372", "name": "Bütower Straße", "lat": 52.4857, "lon": 13.60372, "planning-area-id": 10400940}}, {"type": "Feature", "geometry": {"type": "Point", "coordinates": [13.58007, 52.45932]}, "properties": {"id": "247119325", "name": "S Köpenick", "lat": 52.45932, "lon": 13.58007, "planning-area-id": 9502043}}, {"type": "Feature", "geometry": {"type": "Point", "coordinates": [13.58409, 52.46157]}, "properties": {"id": "247140831", "name": "Janitzkystraße", "lat": 52.46157, "lon": 13.58409, "planning-area-id": 9502042}}, {"type": "Feature", "geometry": {"type": "Point", "coordinates": [13.57911, 52.45828]}, "properties": {"id": "247140929", "name": "S Köpenick", "lat": 52.45828, "lon": 13.57911, "planning-area-id": 9501939}}, {"type": "Feature", "geometry": {"type": "Point", "coordinates": [13.58441, 52.4604]}, "properties": {"id": "247141032", "name": "Hirtestraße", "lat": 52.4604, "lon": 13.58441, "planning-area-id": 9502042}}, {"type": "Feature", "geometry": {"type": "Point", "coordinates": [13.59913, 52.47416]}, "properties": {"id": "247145793", "name": "Mahlsdorf-Süd", "lat": 52.47416, "lon": 13.59913, "planning-area-id": 9502043}}, {"type": "Feature", "geometry": {"type": "Point", "coordinates": [13.60246, 52.48396]}, "properties": {"id": "247147355", "name": "Erich-Baron-Weg", "lat": 52.48396, "lon": 13.60246, "planning-area-id": 10400940}}, {"type": "Feature", "geometry": {"type": "Point", "coordinates": [13.60758, 52.491]}, "properties": {"id": "247149554", "name": "Eichenhofweg", "lat": 52.491, "lon": 13.60758, "planning-area-id": 10400940}}, {"type": "Feature", "geometry": {"type": "Point", "coordinates": [13.60641, 52.48937]}, "properties": {"id": "247150231", "name": "Bruchsaler Straße", "lat": 52.48937, "lon": 13.60641, "planning-area-id": 10400940}}, {"type": "Feature", "geometry": {"type": "Point", "coordinates": [13.60961, 52.49376]}, "properties": {"id": "247153173", "name": "Ledebourstraße", "lat": 52.49376, "lon": 13.60961, "planning-area-id": 10400940}}, {"type": "Feature", "geometry": {"type": "Point", "coordinates": [13.61333, 52.50519]}, "properties": {"id": "247154123", "name": "Alt-Mahlsdorf", "lat": 52.50519, "lon": 13.61333, "planning-area-id": 10400939}}, {"type": "Feature", "geometry": {"type": "Point", "coordinates": [13.52587, 52.45877]}, "properties": {"id": "247156814", "name": "Rathenaustraße/HTW", "lat": 52.45877, "lon": 13.52587, "planning-area-id": 9200511}}, {"type": "Feature", "geometry": {"type": "Point", "coordinates": [13.51729, 52.47117]}, "properties": {"id": "247158622", "name": "Volkspark Wuhlheide", "lat": 52.47117, "lon": 13.51729, "planning-area-id": 9200510}}, {"type": "Feature", "geometry": {"type": "Point", "coordinates": [13.5204, 52.47416]}, "properties": {"id": "247159172", "name": "Hegemeisterweg", "lat": 52.47416, "lon": 13.5204, "planning-area-id": 11501341}}, {"type": "Feature", "geometry": {"type": "Point", "coordinates": [13.52683, 52.48635]}, "properties": {"id": "247159958", "name": "Marksburgstraße", "lat": 52.48635, "lon": 13.52683, "planning-area-id": 11501340}}, {"type": "Feature", "geometry": {"type": "Point", "coordinates": [13.5166, 52.48198]}, "properties": {"id": "247338146", "name": "Stechlinstraße", "lat": 52.48198, "lon": 13.5166, "planning-area-id": 11501341}}, {"type": "Feature", "geometry": {"type": "Point", "coordinates": [13.50796, 52.45054]}, "properties": {"id": "247352251", "name": "Pietschkerstraße", "lat": 52.45054, "lon": 13.50796, "planning-area-id": 9100407}}, {"type": "Feature", "geometry": {"type": "Point", "coordinates": [13.50682, 52.44709]}, "properties": {"id": "247352344", "name": "Sterndamm/Königsheideweg", "lat": 52.44709, "lon": 13.50682, "planning-area-id": 9100407}}, {"type": "Feature", "geometry": {"type": "Point", "coordinates": [13.57438, 52.44545]}, "properties": {"id": "247361247", "name": "Rathaus Köpenick", "lat": 52.44545, "lon": 13.57438, "planning-area-id": 9401534}}, {"type": "Feature", "geometry": {"type": "Point", "coordinates": [13.56781, 52.44491]}, "properties": {"id": "247361594", "name": "Köllnischer Platz", "lat": 52.44491, "lon": 13.56781, "planning-area-id": 9200819}}, {"type": "Feature", "geometry": {"type": "Point", "coordinates": [13.55882, 52.44179]}, "properties": {"id": "247362578", "name": "Ottomar-Geschke-Straße", "lat": 52.44179, "lon": 13.55882, "planning-area-id": 9200717}}, {"type": "Feature", "geometry": {"type": "Point", "coordinates": [13.55945, 52.44186]}, "properties": {"id": "247362579", "name": "Ottomar-Geschke-Straße", "lat": 52.44186, "lon": 13.55945, "planning-area-id": 9200819}}, {"type": "Feature", "geometry": {"type": "Point", "coordinates": [13.41675, 52.60539]}, "properties": {"id": "247436786", "name": "Guyotstraße", "lat": 52.60539, "lon": 13.41675, "planning-area-id": 3200308}}, {"type": "Feature", "geometry": {"type": "Point", "coordinates": [13.4336, 52.60712]}, "properties": {"id": "247437097", "name": "Französisch Buchholz Kirche", "lat": 52.60712, "lon": 13.4336, "planning-area-id": 3200309}}, {"type": "Feature", "geometry": {"type": "Point", "coordinates": [13.43155, 52.59269]}, "properties": {"id": "247437514", "name": "Marienstraße/Pasewalker Straße", "lat": 52.59269, "lon": 13.43155, "planning-area-id": 3200207}}, {"type": "Feature", "geometry": {"type": "Point", "coordinates": [13.43032, 52.58926]}, "properties": {"id": "247437538", "name": "Pasewalker Straße/Blankenburger Weg", "lat": 52.58926, "lon": 13.43032, "planning-area-id": 3200207}}, {"type": "Feature", "geometry": {"type": "Point", "coordinates": [13.4289, 52.58517]}, "properties": {"id": "247437706", "name": "Pankower Straße", "lat": 52.58517, "lon": 13.4289, "planning-area-id": 3400725}}, {"type": "Feature", "geometry": {"type": "Point", "coordinates": [13.41515, 52.57243]}, "properties": {"id": "247437951", "name": "Stiftsweg", "lat": 52.57243, "lon": 13.41515, "planning-area-id": 3400723}}, {"type": "Feature", "geometry": {"type": "Point", "coordinates": [13.38825, 52.5887]}, "properties": {"id": "247441704", "name": "Nordendstraße", "lat": 52.5887, "lon": 13.38825, "planning-area-id": 3200205}}, {"type": "Feature", "geometry": {"type": "Point", "coordinates": [13.38412, 52.59156]}, "properties": {"id": "247441829", "name": "Angerweg", "lat": 52.59156, "lon": 13.38412, "planning-area-id": 3400618}}, {"type": "Feature", "geometry": {"type": "Point", "coordinates": [13.37681, 52.59684]}, "properties": {"id": "247441884", "name": "Hauptstraße/Friedrich-Engels-Straße", "lat": 52.59684, "lon": 13.37681, "planning-area-id": 3400618}}, {"type": "Feature", "geometry": {"type": "Point", "coordinates": [13.40622, 52.59084]}, "properties": {"id": "247444383", "name": "Waldemarstraße", "lat": 52.59084, "lon": 13.40622, "planning-area-id": 3200207}}, {"type": "Feature", "geometry": {"type": "Point", "coordinates": [13.38841, 52.51928]}, "properties": {"id": "247600965", "name": "S+U Friedrichstraße", "lat": 52.51928, "lon": 13.38841, "planning-area-id": 1100206}}, {"type": "Feature", "geometry": {"type": "Point", "coordinates": [13.39537, 52.51942]}, "properties": {"id": "247603398", "name": "Am Kupfergraben", "lat": 52.51942, "lon": 13.39537, "planning-area-id": 1100206}}, {"type": "Feature", "geometry": {"type": "Point", "coordinates": [13.69294, 52.45152]}, "properties": {"id": "252280390", "name": "Rahnsdorf Bahnhof", "lat": 52.45152, "lon": 13.69294, "planning-area-id": 9501838}}, {"type": "Feature", "geometry": {"type": "Point", "coordinates": [13.62667, 52.4577]}, "properties": {"id": "253943340", "name": "S Friedrichshagen", "lat": 52.4577, "lon": 13.62667, "planning-area-id": 9501737}}, {"type": "Feature", "geometry": {"type": "Point", "coordinates": [13.63507, 52.45915]}, "properties": {"id": "253943345", "name": "Brösener Straße", "lat": 52.45915, "lon": 13.63507, "planning-area-id": 9501737}}, {"type": "Feature", "geometry": {"type": "Point", "coordinates": [13.66152, 52.44985]}, "properties": {"id": "253943504", "name": "Fürstenwalder Damm/Müggelseedamm", "lat": 52.44985, "lon": 13.66152, "planning-area-id": 9501737}}, {"type": "Feature", "geometry": {"type": "Point", "coordinates": [13.67115, 52.44764]}, "properties": {"id": "253943512", "name": "Licht- und Luftbad Müggelsee", "lat": 52.44764, "lon": 13.67115, "planning-area-id": 9501838}}, {"type": "Feature", "geometry": {"type": "Point", "coordinates": [13.67763, 52.44571]}, "properties": {"id": "253943514", "name": "Strandbad Müggelsee", "lat": 52.44571, "lon": 13.67763, "planning-area-id": 9501838}}, {"type": "Feature", "geometry": {"type": "Point", "coordinates": [13.68503, 52.44353]}, "properties": {"id": "253943516", "name": "Rahnsdorf/Waldschänke", "lat": 52.44353, "lon": 13.68503, "planning-area-id": 9501838}}, {"type": "Feature", "geometry": {"type": "Point", "coordinates": [13.65217, 52.45246]}, "properties": {"id": "254100382", "name": "Fürstenwalder Damm", "lat": 52.45246, "lon": 13.65217, "planning-area-id": 9501737}}, {"type": "Feature", "geometry": {"type": "Point", "coordinates": [13.58859, 52.41696]}, "properties": {"id": "254839386", "name": "Wendenschloß", "lat": 52.41696, "lon": 13.58859, "planning-area-id": 9401330}}, {"type": "Feature", "geometry": {"type": "Point", "coordinates": [13.56804, 52.55735]}, "properties": {"id": "266559224", "name": "Wuhletalstraße", "lat": 52.55735, "lon": 13.56804, "planning-area-id": 10100206}}, {"type": "Feature", "geometry": {"type": "Point", "coordinates": [13.39834, 52.57902]}, "properties": {"id": "270927391", "name": "Grabbeallee/Pastor-Niemöller-Platz", "lat": 52.57902, "lon": 13.39834, "planning-area-id": 3200206}}, {"type": "Feature", "geometry": {"type": "Point", "coordinates": [13.41167, 52.54104]}, "properties": {"id": "271766938", "name": "U Eberswalder Straße", "lat": 52.54104, "lon": 13.41167, "planning-area-id": 3601142}}, {"type": "Feature", "geometry": {"type": "Point", "coordinates": [13.43255, 52.53632]}, "properties": {"id": "271773180", "name": "Greifswalder Straße/Danziger Straße", "lat": 52.53632, "lon": 13.43255, "planning-area-id": 3701657}}, {"type": "Feature", "geometry": {"type": "Point", "coordinates": [13.43358, 52.53595]}, "properties": {"id": "271773181", "name": "Greifswalder Straße/Danziger Straße", "lat": 52.53595, "lon": 13.43358, "planning-area-id": 3601451}}, {"type": "Feature", "geometry": {"type": "Point", "coordinates": [13.43274, 52.53588]}, "properties": {"id": "271774347", "name": "Greifswalder Straße/Danziger Straße", "lat": 52.53588, "lon": 13.43274, "planning-area-id": 3701660}}, {"type": "Feature", "geometry": {"type": "Point", "coordinates": [13.43339, 52.53649]}, "properties": {"id": "271774348", "name": "Greifswalder Straße/Danziger Straße", "lat": 52.53649, "lon": 13.43339, "planning-area-id": 3601451}}, {"type": "Feature", "geometry": {"type": "Point", "coordinates": [13.43772, 52.53396]}, "properties": {"id": "271775909", "name": "Arnswalder Platz", "lat": 52.53396, "lon": 13.43772, "planning-area-id": 3601451}}, {"type": "Feature", "geometry": {"type": "Point", "coordinates": [13.4407, 52.53254]}, "properties": {"id": "271777824", "name": "Kniprodestraße/Danziger Straße", "lat": 52.53254, "lon": 13.4407, "planning-area-id": 3601451}}, {"type": "Feature", "geometry": {"type": "Point", "coordinates": [13.44699, 52.52705]}, "properties": {"id": "271777826", "name": "Landsberger Allee/Petersburger Straße", "lat": 52.52705, "lon": 13.44699, "planning-area-id": 3601452}}, {"type": "Feature", "geometry": {"type": "Point", "coordinates": [13.61562, 52.44705]}, "properties": {"id": "271779546", "name": "Spreestraße", "lat": 52.44705, "lon": 13.61562, "planning-area-id": 9501736}}, {"type": "Feature", "geometry": {"type": "Point", "coordinates": [13.48219, 52.52676]}, "properties": {"id": "276002421", "name": "Bernhard-Bästlein-Straße", "lat": 52.52676, "lon": 13.48219, "planning-area-id": 11300620}}, {"type": "Feature", "geometry": {"type": "Point", "coordinates": [13.47885, 52.51566]}, "properties": {"id": "288268231", "name": "Rathaus Lichtenberg", "lat": 52.51566, "lon": 13.47885, "planning-area-id": 11300722}}, {"type": "Feature", "geometry": {"type": "Point", "coordinates": [13.47736, 52.5138]}, "properties": {"id": "288268520", "name": "S+U Frankfurter Allee", "lat": 52.5138, "lon": 13.47736, "planning-area-id": 11300722}}, {"type": "Feature", "geometry": {"type": "Point", "coordinates": [13.40566, 52.53451]}, "properties": {"id": "315735263", "name": "Zionskirchplatz", "lat": 52.53451, "lon": 13.40566, "planning-area-id": 1100416}}, {"type": "Feature", "geometry": {"type": "Point", "coordinates": [13.41357, 52.54936]}, "properties": {"id": "318122988", "name": "S+U Schönhauser Allee", "lat": 52.54936, "lon": 13.41357, "planning-area-id": 3601141}}, {"type": "Feature", "geometry": {"type": "Point", "coordinates": [13.62484, 52.40105]}, "properties": {"id": "332067663", "name": "Richtershorn", "lat": 52.40105, "lon": 13.62484, "planning-area-id": 9301126}}, {"type": "Feature", "geometry": {"type": "Point", "coordinates": [13.60062, 52.45185]}, "properties": {"id": "349047807", "name": "Hirschgartendreieck", "lat": 52.45185, "lon": 13.60062, "planning-area-id": 9501736}}, {"type": "Feature", "geometry": {"type": "Point", "coordinates": [13.60828, 52.4531]}, "properties": {"id": "349047810", "name": "Westendsiedlung", "lat": 52.4531, "lon": 13.60828, "planning-area-id": 9501736}}, {"type": "Feature", "geometry": {"type": "Point", "coordinates": [13.61287, 52.45414]}, "properties": {"id": "349047813", "name": "Mühlweg", "lat": 52.45414, "lon": 13.61287, "planning-area-id": 9501736}}, {"type": "Feature", "geometry": {"type": "Point", "coordinates": [13.59423, 52.45301]}, "properties": {"id": "349047884", "name": "Bellevuestraße", "lat": 52.45301, "lon": 13.59423, "planning-area-id": 9501941}}, {"type": "Feature", "geometry": {"type": "Point", "coordinates": [13.60909, 52.44906]}, "properties": {"id": "349050439", "name": "Wassersportzentrum", "lat": 52.44906, "lon": 13.60909, "planning-area-id": 9501736}}, {"type": "Feature", "geometry": {"type": "Point", "coordinates": [13.63199, 52.4567]}, "properties": {"id": "349055083", "name": "Hartlebenstraße", "lat": 52.4567, "lon": 13.63199, "planning-area-id": 9501737}}, {"type": "Feature", "geometry": {"type": "Point", "coordinates": [13.63907, 52.44799]}, "properties": {"id": "349055255", "name": "Altes Wasserwerk", "lat": 52.44799, "lon": 13.63907, "planning-area-id": 9501737}}, {"type": "Feature", "geometry": {"type": "Point", "coordinates": [13.61929, 52.45565]}, "properties": {"id": "349058473", "name": "Ahornallee", "lat": 52.45565, "lon": 13.61929, "planning-area-id": 9501737}}, {"type": "Feature", "geometry": {"type": "Point", "coordinates": [13.61096, 52.51116]}, "properties": {"id": "356180843", "name": "S Mahlsdorf", "lat": 52.51116, "lon": 13.61096, "planning-area-id": 10400939}}, {"type": "Feature", "geometry": {"type": "Point", "coordinates": [13.46934, 52.50663]}, "properties": {"id": "361482764", "name": "Neue Bahnhofstraße", "lat": 52.50663, "lon": 13.46934, "planning-area-id": 2500832}}, {"type": "Feature", "geometry": {"type": "Point", "coordinates": [13.46974, 52.5064]}, "properties": {"id": "361482765", "name": "Neue Bahnhofstraße", "lat": 52.5064, "lon": 13.46974, "planning-area-id": 2500832}}, {"type": "Feature", "geometry": {"type": "Point", "coordinates": [13.41279, 52.54145]}, "properties": {"id": "365145502", "name": "U Eberswalder Straße/Pappelallee", "lat": 52.54145, "lon": 13.41279, "planning-area-id": 3601346}}, {"type": "Feature", "geometry": {"type": "Point", "coordinates": [13.41287, 52.54159]}, "properties": {"id": "365145503", "name": "U Eberswalder Straße/Pappelallee", "lat": 52.54159, "lon": 13.41287, "planning-area-id": 3601346}}, {"type": "Feature", "geometry": {"type": "Point", "coordinates": [13.57289, 52.45157]}, "properties": {"id": "370884692", "name": "Bahnhofstraße/Lindenstraße", "lat": 52.45157, "lon": 13.57289, "planning-area-id": 9501939}}, {"type": "Feature", "geometry": {"type": "Point", "coordinates": [13.46967, 52.51198]}, "properties": {"id": "386790206", "name": "Traveplatz", "lat": 52.51198, "lon": 13.46967, "planning-area-id": 2500831}}, {"type": "Feature", "geometry": {"type": "Point", "coordinates": [13.37326, 52.55669]}, "properties": {"id": "418506176", "name": "U Osloer Straße", "lat": 52.55669, "lon": 13.37326, "planning-area-id": 1401045}}, {"type": "Feature", "geometry": {"type": "Point", "coordinates": [13.46344, 52.51098]}, "properties": {"id": "431281297", "name": "Wismarplatz", "lat": 52.51098, "lon": 13.46344, "planning-area-id": 2500831}}, {"type": "Feature", "geometry": {"type": "Point", "coordinates": [13.46334, 52.51113]}, "properties": {"id": "431281298", "name": "Wismarplatz", "lat": 52.51113, "lon": 13.46334, "planning-area-id": 2500831}}, {"type": "Feature", "geometry": {"type": "Point", "coordinates": [13.45226, 52.51205]}, "properties": {"id": "469462973", "name": "Grünberger Straße/Warschauer Straße", "lat": 52.51205, "lon": 13.45226, "planning-area-id": 2500833}}, {"type": "Feature", "geometry": {"type": "Point", "coordinates": [13.45141, 52.50956]}, "properties": {"id": "469466577", "name": "Revaler Straße", "lat": 52.50956, "lon": 13.45141, "planning-area-id": 2500834}}, {"type": "Feature", "geometry": {"type": "Point", "coordinates": [13.46596, 52.50882]}, "properties": {"id": "471493994", "name": "Holteistraße", "lat": 52.50882, "lon": 13.46596, "planning-area-id": 2500831}}, {"type": "Feature", "geometry": {"type": "Point", "coordinates": [13.46661, 52.50839]}, "properties": {"id": "471493995", "name": "Holteistraße", "lat": 52.50839, "lon": 13.46661, "planning-area-id": 2500832}}, {"type": "Feature", "geometry": {"type": "Point", "coordinates": [13.46585, 52.50813]}, "properties": {"id": "471493996", "name": "Holteistraße", "lat": 52.50813, "lon": 13.46585, "planning-area-id": 2500833}}, {"type": "Feature", "geometry": {"type": "Point", "coordinates": [13.46936, 52.52806]}, "properties": {"id": "521821577", "name": "Anton-Saefkow-Platz", "lat": 52.52806, "lon": 13.46936, "planning-area-id": 11300617}}, {"type": "Feature", "geometry": {"type": "Point", "coordinates": [13.57031, 52.54579]}, "properties": {"id": "535249440", "name": "Landsberger Allee/Blumberger Damm", "lat": 52.54579, "lon": 13.57031, "planning-area-id": 10100315}}, {"type": "Feature", "geometry": {"type": "Point", "coordinates": [13.50614, 52.56245]}, "properties": {"id": "538255601", "name": "Prerower Platz", "lat": 52.56245, "lon": 13.50614, "planning-area-id": 11100309}}, {"type": "Feature", "geometry": {"type": "Point", "coordinates": [13.61295, 52.50818]}, "properties": {"id": "567465354", "name": "Wilhelmsmühlenweg", "lat": 52.50818, "lon": 13.61295, "planning-area-id": 10400939}}, {"type": "Feature", "geometry": {"type": "Point", "coordinates": [13.43741, 52.57276]}, "properties": {"id": "583760324", "name": "Heinersdorf", "lat": 52.57276, "lon": 13.43741, "planning-area-id": 3300516}}, {"type": "Feature", "geometry": {"type": "Point", "coordinates": [13.54084, 52.43525]}, "properties": {"id": "583899039", "name": "S Adlershof", "lat": 52.43525, "lon": 13.54084, "planning-area-id": 9200715}}, {"type": "Feature", "geometry": {"type": "Point", "coordinates": [13.41951, 52.52477]}, "properties": {"id": "595038851", "name": "Mollstraße/Otto-Braun-Straße", "lat": 52.52477, "lon": 13.41951, "planning-area-id": 1100310}}, {"type": "Feature", "geometry": {"type": "Point", "coordinates": [13.64199, 52.45605]}, "properties": {"id": "598350419", "name": "Wasserwerk Friedrichshagen", "lat": 52.45605, "lon": 13.64199, "planning-area-id": 9501737}}, {"type": "Feature", "geometry": {"type": "Point", "coordinates": [13.51389, 52.56653]}, "properties": {"id": "614090924", "name": "S Hohenschönhausen", "lat": 52.56653, "lon": 13.51389, "planning-area-id": 11100204}}, {"type": "Feature", "geometry": {"type": "Point", "coordinates": [13.40268, 52.55528]}, "properties": {"id": "614580976", "name": "Björnsonstraße", "lat": 52.55528, "lon": 13.40268, "planning-area-id": 3601139}}, {"type": "Feature", "geometry": {"type": "Point", "coordinates": [13.51046, 52.48424]}, "properties": {"id": "614587424", "name": "Blockdammweg", "lat": 52.48424, "lon": 13.51046, "planning-area-id": 11501341}}, {"type": "Feature", "geometry": {"type": "Point", "coordinates": [13.45045, 52.50788]}, "properties": {"id": "631457501", "name": "S Warschauer Straße", "lat": 52.50788, "lon": 13.45045, "planning-area-id": 2500834}}, {"type": "Feature", "geometry": {"type": "Point", "coordinates": [13.4506, 52.50804]}, "properties": {"id": "631457502", "name": "S Warschauer Straße", "lat": 52.50804, "lon": 13.4506, "planning-area-id": 2500834}}, {"type": "Feature", "geometry": {"type": "Point", "coordinates": [13.4876, 52.55696]}, "properties": {"id": "654575602", "name": "Stadion Buschallee/Hansastraße", "lat": 52.55696, "lon": 13.4876, "planning-area-id": 3501038}}, {"type": "Feature", "geometry": {"type": "Point", "coordinates": [13.57789, 52.42055]}, "properties": {"id": "667031675", "name": "Königsseestraße", "lat": 52.42055, "lon": 13.57789, "planning-area-id": 9301126}}, {"type": "Feature", "geometry": {"type": "Point", "coordinates": [13.44868, 52.50507]}, "properties": {"id": "667971366", "name": "S+U Warschauer Straße", "lat": 52.50507, "lon": 13.44868, "planning-area-id": 2400625}}, {"type": "Feature", "geometry": {"type": "Point", "coordinates": [13.47971, 52.51974]}, "properties": {"id": "669763367", "name": "Loeperplatz", "lat": 52.51974, "lon": 13.47971, "planning-area-id": 11300722}}, {"type": "Feature", "geometry": {"type": "Point", "coordinates": [13.51488, 52.46225]}, "properties": {"id": "717651913", "name": "Wilhelminenhofstraße/Edisonstraße", "lat": 52.46225, "lon": 13.51488, "planning-area-id": 9200511}}, {"type": "Feature", "geometry": {"type": "Point", "coordinates": [13.51389, 52.46305]}, "properties": {"id": "717651919", "name": "Wilhelminenhofstraße/Edisonstraße", "lat": 52.46305, "lon": 13.51389, "planning-area-id": 9200510}}, {"type": "Feature", "geometry": {"type": "Point", "coordinates": [13.52028, 52.46099]}, "properties": {"id": "717665734", "name": "Firlstraße", "lat": 52.46099, "lon": 13.52028, "planning-area-id": 9200511}}, {"type": "Feature", "geometry": {"type": "Point", "coordinates": [13.52122, 52.46078]}, "properties": {"id": "717665736", "name": "Firlstraße", "lat": 52.46078, "lon": 13.52122, "planning-area-id": 9200511}}, {"type": "Feature", "geometry": {"type": "Point", "coordinates": [13.54626, 52.43724]}, "properties": {"id": "766875150", "name": "Marktplatz Adlershof", "lat": 52.43724, "lon": 13.54626, "planning-area-id": 9200716}}, {"type": "Feature", "geometry": {"type": "Point", "coordinates": [13.41168, 52.54041]}, "properties": {"id": "771184388", "name": "U Eberswalder Straße", "lat": 52.54041, "lon": 13.41168, "planning-area-id": 3701554}}, {"type": "Feature", "geometry": {"type": "Point", "coordinates": [13.41138, 52.5402]}, "properties": {"id": "771184393", "name": "U Eberswalder Straße", "lat": 52.5402, "lon": 13.41138, "planning-area-id": 3701554}}, {"type": "Feature", "geometry": {"type": "Point", "coordinates": [13.50791, 52.45025]}, "properties": {"id": "852932396", "name": "Pietschkerstraße", "lat": 52.45025, "lon": 13.50791, "planning-area-id": 9100407}}, {"type": "Feature", "geometry": {"type": "Point", "coordinates": [13.38752, 52.53255]}, "properties": {"id": "938213396", "name": "S Nordbahnhof", "lat": 52.53255, "lon": 13.38752, "planning-area-id": 1100415}}, {"type": "Feature", "geometry": {"type": "Point", "coordinates": [13.39707, 52.52389]}, "properties": {"id": "963600646", "name": "Monbijouplatz", "lat": 52.52389, "lon": 13.39707, "planning-area-id": 1100309}}, {"type": "Feature", "geometry": {"type": "Point", "coordinates": [13.40457, 52.56953]}, "properties": {"id": "972482434", "name": "Rathaus Pankow", "lat": 52.56953, "lon": 13.40457, "planning-area-id": 3400723}}, {"type": "Feature", "geometry": {"type": "Point", "coordinates": [13.41322, 52.55915]}, "properties": {"id": "972482435", "name": "U Vinetastraße", "lat": 52.55915, "lon": 13.41322, "planning-area-id": 3400826}}, {"type": "Feature", "geometry": {"type": "Point", "coordinates": [13.4038, 52.56948]}, "properties": {"id": "972482438", "name": "Rathaus Pankow", "lat": 52.56948, "lon": 13.4038, "planning-area-id": 3400723}}, {"type": "Feature", "geometry": {"type": "Point", "coordinates": [13.41452, 52.55323]}, "properties": {"id": "972482442", "name": "Schönhauser Allee/Bornholmer Straße", "lat": 52.55323, "lon": 13.41452, "planning-area-id": 3601141}}, {"type": "Feature", "geometry": {"type": "Point", "coordinates": [13.38762, 52.52423]}, "properties": {"id": "990017251", "name": "U Oranienburger Tor", "lat": 52.52423, "lon": 13.38762, "planning-area-id": 1100308}}, {"type": "Feature", "geometry": {"type": "Point", "coordinates": [13.58263, 52.54901]}, "properties": {"id": "999586155", "name": "Betriebshof Marzahn", "lat": 52.54901, "lon": 13.58263, "planning-area-id": 10100316}}, {"type": "Feature", "geometry": {"type": "Point", "coordinates": [13.4377, 52.57022]}, "properties": {"id": "1000715081", "name": "Rothenbachstraße", "lat": 52.57022, "lon": 13.4377, "planning-area-id": 3300516}}, {"type": "Feature", "geometry": {"type": "Point", "coordinates": [13.42442, 52.57609]}, "properties": {"id": "1003299170", "name": "Würtzstraße", "lat": 52.57609, "lon": 13.42442, "planning-area-id": 3400723}}, {"type": "Feature", "geometry": {"type": "Point", "coordinates": [13.42976, 52.55031]}, "properties": {"id": "1012940956", "name": "Prenzlauer Allee/Ostseestraße", "lat": 52.55031, "lon": 13.42976, "planning-area-id": 3601245}}, {"type": "Feature", "geometry": {"type": "Point", "coordinates": [13.42888, 52.55169]}, "properties": {"id": "1012940962", "name": "Prenzlauer Allee/Ostseestraße", "lat": 52.55169, "lon": 13.42888, "planning-area-id": 3601244}}, {"type": "Feature", "geometry": {"type": "Point", "coordinates": [13.415, 52.55371]}, "properties": {"id": "1012941040", "name": "Schönhauser Allee/Bornholmer Straße", "lat": 52.55371, "lon": 13.415, "planning-area-id": 3601243}}, {"type": "Feature", "geometry": {"type": "Point", "coordinates": [13.45975, 52.50903]}, "properties": {"id": "1137469153", "name": "Wühlischstraße/Gärtnerstraße", "lat": 52.50903, "lon": 13.45975, "planning-area-id": 2500833}}, {"type": "Feature", "geometry": {"type": "Point", "coordinates": [13.47809, 52.52031]}, "properties": {"id": "1154232187", "name": "Loeperplatz", "lat": 52.52031, "lon": 13.47809, "planning-area-id": 11300722}}, {"type": "Feature", "geometry": {"type": "Point", "coordinates": [13.58854, 52.41699]}, "properties": {"id": "1264267239", "name": "Wendenschloß", "lat": 52.41699, "lon": 13.58854, "planning-area-id": 9401330}}, {"type": "Feature", "geometry": {"type": "Point", "coordinates": [13.57172, 52.43062]}, "properties": {"id": "1383533471", "name": "Betonwerk", "lat": 52.43062, "lon": 13.57172, "planning-area-id": 9200819}}, {"type": "Feature", "geometry": {"type": "Point", "coordinates": [13.57169, 52.4309]}, "properties": {"id": "1383533479", "name": "Betonwerk", "lat": 52.4309, "lon": 13.57169, "planning-area-id": 9200819}}, {"type": "Feature", "geometry": {"type": "Point", "coordinates": [13.57508, 52.42462]}, "properties": {"id": "1383533525", "name": "Friedrich-Wolf-Straße", "lat": 52.42462, "lon": 13.57508, "planning-area-id": 9301126}}, {"type": "Feature", "geometry": {"type": "Point", "coordinates": [13.57, 52.44155]}, "properties": {"id": "1383533528", "name": "Glienicker Straße", "lat": 52.44155, "lon": 13.57, "planning-area-id": 9200819}}, {"type": "Feature", "geometry": {"type": "Point", "coordinates": [13.56916, 52.44364]}, "properties": {"id": "1383533552", "name": "Köllnischer Platz", "lat": 52.44364, "lon": 13.56916, "planning-area-id": 9200819}}, {"type": "Feature", "geometry": {"type": "Point", "coordinates": [13.56918, 52.44382]}, "properties": {"id": "1383533555", "name": "Köllnischer Platz", "lat": 52.44382, "lon": 13.56918, "planning-area-id": 9200819}}, {"type": "Feature", "geometry": {"type": "Point", "coordinates": [13.63493, 52.39122]}, "properties": {"id": "1383533562", "name": "Lübbenauer Weg", "lat": 52.39122, "lon": 13.63493, "planning-area-id": 9301227}}, {"type": "Feature", "geometry": {"type": "Point", "coordinates": [13.54893, 52.43822]}, "properties": {"id": "1383533566", "name": "Marktplatz Adlershof", "lat": 52.43822, "lon": 13.54893, "planning-area-id": 9200717}}, {"type": "Feature", "geometry": {"type": "Point", "coordinates": [13.57796, 52.42038]}, "properties": {"id": "1383533580", "name": "Königsseestraße", "lat": 52.42038, "lon": 13.57796, "planning-area-id": 9301126}}, {"type": "Feature", "geometry": {"type": "Point", "coordinates": [13.58847, 52.41121]}, "properties": {"id": "1383533585", "name": "Regattatribünen", "lat": 52.41121, "lon": 13.58847, "planning-area-id": 9301126}}, {"type": "Feature", "geometry": {"type": "Point", "coordinates": [13.57143, 52.4347]}, "properties": {"id": "1383533590", "name": "Rosenweg", "lat": 52.4347, "lon": 13.57143, "planning-area-id": 9200819}}, {"type": "Feature", "geometry": {"type": "Point", "coordinates": [13.57148, 52.43496]}, "properties": {"id": "1383533593", "name": "Rosenweg", "lat": 52.43496, "lon": 13.57148, "planning-area-id": 9200819}}, {"type": "Feature", "geometry": {"type": "Point", "coordinates": [13.57492, 52.41327]}, "properties": {"id": "1383533600", "name": "S Grünau", "lat": 52.41327, "lon": 13.57492, "planning-area-id": 9301126}}, {"type": "Feature", "geometry": {"type": "Point", "coordinates": [13.60445, 52.40862]}, "properties": {"id": "1383533628", "name": "Strandbad Grünau", "lat": 52.40862, "lon": 13.60445, "planning-area-id": 9301126}}, {"type": "Feature", "geometry": {"type": "Point", "coordinates": [13.57148, 52.43866]}, "properties": {"id": "1383533634", "name": "Vollkropfgraben", "lat": 52.43866, "lon": 13.57148, "planning-area-id": 9200819}}, {"type": "Feature", "geometry": {"type": "Point", "coordinates": [13.57143, 52.43886]}, "properties": {"id": "1383533637", "name": "Vollkropfgraben", "lat": 52.43886, "lon": 13.57143, "planning-area-id": 9200819}}, {"type": "Feature", "geometry": {"type": "Point", "coordinates": [13.5519, 52.43927]}, "properties": {"id": "1383533640", "name": "Wassermannstraße", "lat": 52.43927, "lon": 13.5519, "planning-area-id": 9200717}}, {"type": "Feature", "geometry": {"type": "Point", "coordinates": [13.5526, 52.43956]}, "properties": {"id": "1383533641", "name": "Wassermannstraße", "lat": 52.43956, "lon": 13.5526, "planning-area-id": 9200717}}, {"type": "Feature", "geometry": {"type": "Point", "coordinates": [13.46596, 52.55217]}, "properties": {"id": "1406990438", "name": "Weißer See", "lat": 52.55217, "lon": 13.46596, "planning-area-id": 3500933}}, {"type": "Feature", "geometry": {"type": "Point", "coordinates": [13.54138, 52.43402]}, "properties": {"id": "1420514676", "name": "S Adlershof", "lat": 52.43402, "lon": 13.54138, "planning-area-id": 9200715}}, {"type": "Feature", "geometry": {"type": "Point", "coordinates": [13.43337, 52.55857]}, "properties": {"id": "1421431221", "name": "Am Steinberg", "lat": 52.55857, "lon": 13.43337, "planning-area-id": 3300516}}, {"type": "Feature", "geometry": {"type": "Point", "coordinates": [13.42953, 52.55655]}, "properties": {"id": "1421431246", "name": "Prenzlauer Promenade/Am Steinberg", "lat": 52.55655, "lon": 13.42953, "planning-area-id": 3500934}}, {"type": "Feature", "geometry": {"type": "Point", "coordinates": [13.43481, 52.56225]}, "properties": {"id": "1421431268", "name": "Tino-Schwierzina-Straße", "lat": 52.56225, "lon": 13.43481, "planning-area-id": 3300516}}, {"type": "Feature", "geometry": {"type": "Point", "coordinates": [13.43316, 52.55817]}, "properties": {"id": "1421431271", "name": "Am Steinberg", "lat": 52.55817, "lon": 13.43316, "planning-area-id": 3300516}}, {"type": "Feature", "geometry": {"type": "Point", "coordinates": [13.43583, 52.56483]}, "properties": {"id": "1421431287", "name": "Am Wasserturm", "lat": 52.56483, "lon": 13.43583, "planning-area-id": 3300516}}, {"type": "Feature", "geometry": {"type": "Point", "coordinates": [13.46471, 52.55162]}, "properties": {"id": "1545984202", "name": "Weißer See", "lat": 52.55162, "lon": 13.46471, "planning-area-id": 3500936}}, {"type": "Feature", "geometry": {"type": "Point", "coordinates": [13.4371, 52.57255]}, "properties": {"id": "1554875829", "name": "Heinersdorf", "lat": 52.57255, "lon": 13.4371, "planning-area-id": 3300516}}, {"type": "Feature", "geometry": {"type": "Point", "coordinates": [13.44411, 52.54524]}, "properties": {"id": "1576686929", "name": "Greifswalder Straße/Ostseestraße", "lat": 52.54524, "lon": 13.44411, "planning-area-id": 3601449}}, {"type": "Feature", "geometry": {"type": "Point", "coordinates": [13.44511, 52.54573]}, "properties": {"id": "1576803497", "name": "Greifswalder Straße/Ostseestraße", "lat": 52.54573, "lon": 13.44511, "planning-area-id": 3601449}}, {"type": "Feature", "geometry": {"type": "Point", "coordinates": [13.41886, 52.60591]}, "properties": {"id": "1585156615", "name": "Hugenottenplatz", "lat": 52.60591, "lon": 13.41886, "planning-area-id": 3200308}}, {"type": "Feature", "geometry": {"type": "Point", "coordinates": [13.41607, 52.60526]}, "properties": {"id": "1585156630", "name": "Guyotstraße", "lat": 52.60526, "lon": 13.41607, "planning-area-id": 3200308}}, {"type": "Feature", "geometry": {"type": "Point", "coordinates": [13.42851, 52.60809]}, "properties": {"id": "1585732263", "name": "Navarraplatz", "lat": 52.60809, "lon": 13.42851, "planning-area-id": 3200310}}, {"type": "Feature", "geometry": {"type": "Point", "coordinates": [13.42359, 52.60714]}, "properties": {"id": "1585732290", "name": "Arnouxstraße", "lat": 52.60714, "lon": 13.42359, "planning-area-id": 3200310}}, {"type": "Feature", "geometry": {"type": "Point", "coordinates": [13.46817, 52.55696]}, "properties": {"id": "1600662281", "name": "Betriebshof Weißensee", "lat": 52.55696, "lon": 13.46817, "planning-area-id": 3501037}}, {"type": "Feature", "geometry": {"type": "Point", "coordinates": [13.42592, 52.54211]}, "properties": {"id": "1615477753", "name": "Fröbelstraße", "lat": 52.54211, "lon": 13.42592, "planning-area-id": 3701657}}, {"type": "Feature", "geometry": {"type": "Point", "coordinates": [13.4274, 52.5448]}, "properties": {"id": "1615477765", "name": "S Prenzlauer Allee", "lat": 52.5448, "lon": 13.4274, "planning-area-id": 3601245}}, {"type": "Feature", "geometry": {"type": "Point", "coordinates": [13.42878, 52.54815]}, "properties": {"id": "1615477793", "name": "Erich-Weinert-Straße", "lat": 52.54815, "lon": 13.42878, "planning-area-id": 3601245}}, {"type": "Feature", "geometry": {"type": "Point", "coordinates": [13.41206, 52.52137]}, "properties": {"id": "1615531689", "name": "S+U Alexanderplatz/Dircksenstraße", "lat": 52.52137, "lon": 13.41206, "planning-area-id": 1100310}}, {"type": "Feature", "geometry": {"type": "Point", "coordinates": [13.41065, 52.52225]}, "properties": {"id": "1628877119", "name": "S+U Alexanderplatz/Dircksenstraße", "lat": 52.52225, "lon": 13.41065, "planning-area-id": 1100310}}, {"type": "Feature", "geometry": {"type": "Point", "coordinates": [13.42908, 52.53274]}, "properties": {"id": "1631119467", "name": "Hufelandstraße", "lat": 52.53274, "lon": 13.42908, "planning-area-id": 3701660}}, {"type": "Feature", "geometry": {"type": "Point", "coordinates": [13.45801, 52.54981]}, "properties": {"id": "1631224840", "name": "Albertinenstraße", "lat": 52.54981, "lon": 13.45801, "planning-area-id": 3500936}}, {"type": "Feature", "geometry": {"type": "Point", "coordinates": [13.46919, 52.55375]}, "properties": {"id": "1631224941", "name": "Buschallee", "lat": 52.55375, "lon": 13.46919, "planning-area-id": 3501038}}, {"type": "Feature", "geometry": {"type": "Point", "coordinates": [13.41619, 52.52681]}, "properties": {"id": "1631354284", "name": "Mollstraße/Prenzlauer Allee", "lat": 52.52681, "lon": 13.41619, "planning-area-id": 1100310}}, {"type": "Feature", "geometry": {"type": "Point", "coordinates": [13.4677, 52.55701]}, "properties": {"id": "1631515733", "name": "Betriebshof Weißensee", "lat": 52.55701, "lon": 13.4677, "planning-area-id": 3501037}}, {"type": "Feature", "geometry": {"type": "Point", "coordinates": [13.46096, 52.5594]}, "properties": {"id": "1631515805", "name": "Pasedagplatz", "lat": 52.5594, "lon": 13.46096, "planning-area-id": 3500933}}, {"type": "Feature", "geometry": {"type": "Point", "coordinates": [13.40267, 52.52166]}, "properties": {"id": "1633759760", "name": "S Hackescher Markt", "lat": 52.52166, "lon": 13.40267, "planning-area-id": 1100310}}, {"type": "Feature", "geometry": {"type": "Point", "coordinates": [13.40341, 52.52261]}, "properties": {"id": "1633759766", "name": "S Hackescher Markt", "lat": 52.52261, "lon": 13.40341, "planning-area-id": 1100310}}, {"type": "Feature", "geometry": {"type": "Point", "coordinates": [13.41041, 52.52861]}, "properties": {"id": "1661140876", "name": "U Rosa-Luxemburg-Platz", "lat": 52.52861, "lon": 13.41041, "planning-area-id": 1100310}}, {"type": "Feature", "geometry": {"type": "Point", "coordinates": [13.39866, 52.52371]}, "properties": {"id": "1661927028", "name": "Monbijouplatz", "lat": 52.52371, "lon": 13.39866, "planning-area-id": 1100309}}, {"type": "Feature", "geometry": {"type": "Point", "coordinates": [13.4019, 52.52974]}, "properties": {"id": "1662140222", "name": "U Rosenthaler Platz", "lat": 52.52974, "lon": 13.4019, "planning-area-id": 1100309}}, {"type": "Feature", "geometry": {"type": "Point", "coordinates": [13.4035, 52.52532]}, "properties": {"id": "1662153916", "name": "U Weinmeisterstraße/Gipsstraße", "lat": 52.52532, "lon": 13.4035, "planning-area-id": 1100309}}, {"type": "Feature", "geometry": {"type": "Point", "coordinates": [13.4191, 52.53997]}, "properties": {"id": "1666049727", "name": "Husemannstraße", "lat": 52.53997, "lon": 13.4191, "planning-area-id": 3601348}}, {"type": "Feature", "geometry": {"type": "Point", "coordinates": [13.4182, 52.54013]}, "properties": {"id": "1666049729", "name": "Husemannstraße", "lat": 52.54013, "lon": 13.4182, "planning-area-id": 3601347}}, {"type": "Feature", "geometry": {"type": "Point", "coordinates": [13.41283, 52.54099]}, "properties": {"id": "1666049778", "name": "U Eberswalder Straße", "lat": 52.54099, "lon": 13.41283, "planning-area-id": 3601347}}, {"type": "Feature", "geometry": {"type": "Point", "coordinates": [13.51389, 52.46195]}, "properties": {"id": "1666367703", "name": "Wilhelminenhofstraße/Edisonstraße", "lat": 52.46195, "lon": 13.51389, "planning-area-id": 9200510}}, {"type": "Feature", "geometry": {"type": "Point", "coordinates": [13.39475, 52.53226]}, "properties": {"id": "1667940451", "name": "Pappelplatz", "lat": 52.53226, "lon": 13.39475, "planning-area-id": 1100415}}, {"type": "Feature", "geometry": {"type": "Point", "coordinates": [13.40823, 52.53715]}, "properties": {"id": "1668427073", "name": "Schwedter Straße", "lat": 52.53715, "lon": 13.40823, "planning-area-id": 3701554}}, {"type": "Feature", "geometry": {"type": "Point", "coordinates": [13.4026, 52.52383]}, "properties": {"id": "1668497956", "name": "S Hackescher Markt", "lat": 52.52383, "lon": 13.4026, "planning-area-id": 1100309}}, {"type": "Feature", "geometry": {"type": "Point", "coordinates": [13.38784, 52.5262]}, "properties": {"id": "1668685086", "name": "U Oranienburger Tor", "lat": 52.5262, "lon": 13.38784, "planning-area-id": 1100309}}, {"type": "Feature", "geometry": {"type": "Point", "coordinates": [13.39236, 52.52509]}, "properties": {"id": "1668717159", "name": "S Oranienburger Straße", "lat": 52.52509, "lon": 13.39236, "planning-area-id": 1100309}}, {"type": "Feature", "geometry": {"type": "Point", "coordinates": [13.39369, 52.5203]}, "properties": {"id": "1673526976", "name": "Georgenstraße/Am Kupfergraben", "lat": 52.5203, "lon": 13.39369, "planning-area-id": 1100206}}, {"type": "Feature", "geometry": {"type": "Point", "coordinates": [13.50167, 52.56636]}, "properties": {"id": "1679005907", "name": "Ahrenshooper Straße", "lat": 52.56636, "lon": 13.50167, "planning-area-id": 11100307}}, {"type": "Feature", "geometry": {"type": "Point", "coordinates": [13.51207, 52.55493]}, "properties": {"id": "1679005908", "name": "Anna-Ebermann-Straße", "lat": 52.55493, "lon": 13.51207, "planning-area-id": 11200410}}, {"type": "Feature", "geometry": {"type": "Point", "coordinates": [13.51505, 52.55853]}, "properties": {"id": "1679005909", "name": "Arnimstraße", "lat": 52.55853, "lon": 13.51505, "planning-area-id": 11100309}}, {"type": "Feature", "geometry": {"type": "Point", "coordinates": [13.51954, 52.5685]}, "properties": {"id": "1679005911", "name": "Prendener Straße", "lat": 52.5685, "lon": 13.51954, "planning-area-id": 11100204}}, {"type": "Feature", "geometry": {"type": "Point", "coordinates": [13.49509, 52.55974]}, "properties": {"id": "1679005912", "name": "Feldtmannstraße", "lat": 52.55974, "lon": 13.49509, "planning-area-id": 11200410}}, {"type": "Feature", "geometry": {"type": "Point", "coordinates": [13.48218, 52.55442]}, "properties": {"id": "1679005913", "name": "Giersstraße", "lat": 52.55442, "lon": 13.48218, "planning-area-id": 3501038}}, {"type": "Feature", "geometry": {"type": "Point", "coordinates": [13.49929, 52.5612]}, "properties": {"id": "1679005914", "name": "Hansastraße/Malchower Weg", "lat": 52.5612, "lon": 13.49929, "planning-area-id": 11200410}}, {"type": "Feature", "geometry": {"type": "Point", "coordinates": [13.50962, 52.54613]}, "properties": {"id": "1679005918", "name": "Rhinstraße/Gärtnerstraße", "lat": 52.54613, "lon": 13.50962, "planning-area-id": 11200411}}, {"type": "Feature", "geometry": {"type": "Point", "coordinates": [13.51318, 52.5663]}, "properties": {"id": "1679005919", "name": "S Hohenschönhausen", "lat": 52.5663, "lon": 13.51318, "planning-area-id": 11100204}}, {"type": "Feature", "geometry": {"type": "Point", "coordinates": [13.48698, 52.55667]}, "properties": {"id": "1679005920", "name": "Stadion Buschallee/Hansastraße", "lat": 52.55667, "lon": 13.48698, "planning-area-id": 3501038}}, {"type": "Feature", "geometry": {"type": "Point", "coordinates": [13.52515, 52.56921]}, "properties": {"id": "1679005921", "name": "Welsestraße", "lat": 52.56921, "lon": 13.52515, "planning-area-id": 11100203}}, {"type": "Feature", "geometry": {"type": "Point", "coordinates": [13.49714, 52.57032]}, "properties": {"id": "1679005922", "name": "Zingster Straße/Ribnitzer Straße", "lat": 52.57032, "lon": 13.49714, "planning-area-id": 11100307}}, {"type": "Feature", "geometry": {"type": "Point", "coordinates": [13.50455, 52.54887]}, "properties": {"id": "1679005949", "name": "Alt-Hohenschönhausen", "lat": 52.54887, "lon": 13.50455, "planning-area-id": 11200411}}, {"type": "Feature", "geometry": {"type": "Point", "coordinates": [13.46584, 52.55159]}, "properties": {"id": "1679204620", "name": "Weißer See", "lat": 52.55159, "lon": 13.46584, "planning-area-id": 3500936}}, {"type": "Feature", "geometry": {"type": "Point", "coordinates": [13.46872, 52.54423]}, "properties": {"id": "1679204621", "name": "Betriebshof Indira-Gandhi-Straße", "lat": 52.54423, "lon": 13.46872, "planning-area-id": 11200512}}, {"type": "Feature", "geometry": {"type": "Point", "coordinates": [13.46715, 52.5485]}, "properties": {"id": "1679204622", "name": "Gounodstraße", "lat": 52.5485, "lon": 13.46715, "planning-area-id": 3500936}}, {"type": "Feature", "geometry": {"type": "Point", "coordinates": [13.47294, 52.53593]}, "properties": {"id": "1679204623", "name": "Hohenschönhauser Straße", "lat": 52.53593, "lon": 13.47294, "planning-area-id": 11300616}}, {"type": "Feature", "geometry": {"type": "Point", "coordinates": [13.4764, 52.53276]}, "properties": {"id": "1679204624", "name": "Landsberger Allee/Weißenseer Weg", "lat": 52.53276, "lon": 13.4764, "planning-area-id": 11300620}}, {"type": "Feature", "geometry": {"type": "Point", "coordinates": [13.48015, 52.52025]}, "properties": {"id": "1679204625", "name": "Loeperplatz", "lat": 52.52025, "lon": 13.48015, "planning-area-id": 11300722}}, {"type": "Feature", "geometry": {"type": "Point", "coordinates": [13.47873, 52.52033]}, "properties": {"id": "1679204626", "name": "Loeperplatz", "lat": 52.52033, "lon": 13.47873, "planning-area-id": 11300722}}, {"type": "Feature", "geometry": {"type": "Point", "coordinates": [13.47959, 52.52384]}, "properties": {"id": "1679204628", "name": "Möllendorffstraße/Storkower Straße", "lat": 52.52384, "lon": 13.47959, "planning-area-id": 11300619}}, {"type": "Feature", "geometry": {"type": "Point", "coordinates": [13.47925, 52.5161]}, "properties": {"id": "1679204629", "name": "Rathaus Lichtenberg", "lat": 52.5161, "lon": 13.47925, "planning-area-id": 11300722}}, {"type": "Feature", "geometry": {"type": "Point", "coordinates": [13.47755, 52.51398]}, "properties": {"id": "1679204630", "name": "S+U Frankfurter Allee", "lat": 52.51398, "lon": 13.47755, "planning-area-id": 11300722}}, {"type": "Feature", "geometry": {"type": "Point", "coordinates": [13.47138, 52.53852]}, "properties": {"id": "1679204631", "name": "Sportforum", "lat": 52.53852, "lon": 13.47138, "planning-area-id": 11200512}}, {"type": "Feature", "geometry": {"type": "Point", "coordinates": [13.47906, 52.5266]}, "properties": {"id": "1679204729", "name": "Roederplatz", "lat": 52.5266, "lon": 13.47906, "planning-area-id": 11300620}}, {"type": "Feature", "geometry": {"type": "Point", "coordinates": [13.43712, 52.53422]}, "properties": {"id": "1679221132", "name": "Arnswalder Platz", "lat": 52.53422, "lon": 13.43712, "planning-area-id": 3601451}}, {"type": "Feature", "geometry": {"type": "Point", "coordinates": [13.45252, 52.51921]}, "properties": {"id": "1679221133", "name": "Bersarinplatz", "lat": 52.51921, "lon": 13.45252, "planning-area-id": 2500726}}, {"type": "Feature", "geometry": {"type": "Point", "coordinates": [13.44211, 52.53152]}, "properties": {"id": "1679221134", "name": "Kniprodestraße/Danziger Straße", "lat": 52.53152, "lon": 13.44211, "planning-area-id": 3601452}}, {"type": "Feature", "geometry": {"type": "Point", "coordinates": [13.44731, 52.5267]}, "properties": {"id": "1679221136", "name": "Landsberger Allee/Petersburger Straße", "lat": 52.5267, "lon": 13.44731, "planning-area-id": 3601452}}, {"type": "Feature", "geometry": {"type": "Point", "coordinates": [13.44491, 52.52892]}, "properties": {"id": "1679221137", "name": "Paul-Heyse-Straße", "lat": 52.52892, "lon": 13.44491, "planning-area-id": 3601452}}, {"type": "Feature", "geometry": {"type": "Point", "coordinates": [13.4503, 52.52247]}, "properties": {"id": "1679221138", "name": "Straßmannstraße", "lat": 52.52247, "lon": 13.4503, "planning-area-id": 2500726}}, {"type": "Feature", "geometry": {"type": "Point", "coordinates": [13.41277, 52.56365]}, "properties": {"id": "1685046689", "name": "Masurenstraße", "lat": 52.56365, "lon": 13.41277, "planning-area-id": 3400826}}, {"type": "Feature", "geometry": {"type": "Point", "coordinates": [13.41216, 52.56756]}, "properties": {"id": "1685046691", "name": "S+U Pankow", "lat": 52.56756, "lon": 13.41216, "planning-area-id": 3400723}}, {"type": "Feature", "geometry": {"type": "Point", "coordinates": [13.40846, 52.57039]}, "properties": {"id": "1685738604", "name": "Pankow Kirche", "lat": 52.57039, "lon": 13.40846, "planning-area-id": 3400723}}, {"type": "Feature", "geometry": {"type": "Point", "coordinates": [13.4103, 52.57064]}, "properties": {"id": "1685757439", "name": "Pankow Kirche", "lat": 52.57064, "lon": 13.4103, "planning-area-id": 3400723}}, {"type": "Feature", "geometry": {"type": "Point", "coordinates": [13.52646, 52.43249]}, "properties": {"id": "1704693343", "name": "Karl-Ziegler-Straße", "lat": 52.43249, "lon": 13.52646, "planning-area-id": 9200715}}, {"type": "Feature", "geometry": {"type": "Point", "coordinates": [13.52614, 52.43274]}, "properties": {"id": "1704693369", "name": "Karl-Ziegler-Straße", "lat": 52.43274, "lon": 13.52614, "planning-area-id": 9200715}}, {"type": "Feature", "geometry": {"type": "Point", "coordinates": [13.53016, 52.42975]}, "properties": {"id": "1704693381", "name": "Magnusstraße", "lat": 52.42975, "lon": 13.53016, "planning-area-id": 9200715}}, {"type": "Feature", "geometry": {"type": "Point", "coordinates": [13.53065, 52.42995]}, "properties": {"id": "1704693389", "name": "Magnusstraße", "lat": 52.42995, "lon": 13.53065, "planning-area-id": 9200715}}, {"type": "Feature", "geometry": {"type": "Point", "coordinates": [13.54105, 52.4343]}, "properties": {"id": "1704693428", "name": "S Adlershof", "lat": 52.4343, "lon": 13.54105, "planning-area-id": 9200715}}, {"type": "Feature", "geometry": {"type": "Point", "coordinates": [13.54044, 52.43513]}, "properties": {"id": "1704693444", "name": "S Adlershof", "lat": 52.43513, "lon": 13.54044, "planning-area-id": 9200715}}, {"type": "Feature", "geometry": {"type": "Point", "coordinates": [13.53461, 52.43191]}, "properties": {"id": "1704693451", "name": "Walther-Nernst-Straße", "lat": 52.43191, "lon": 13.53461, "planning-area-id": 9200715}}, {"type": "Feature", "geometry": {"type": "Point", "coordinates": [13.53504, 52.43215]}, "properties": {"id": "1704693457", "name": "Walther-Nernst-Straße", "lat": 52.43215, "lon": 13.53504, "planning-area-id": 9200715}}, {"type": "Feature", "geometry": {"type": "Point", "coordinates": [13.63402, 52.3866]}, "properties": {"id": "1707193581", "name": "Adlergestell/Vetschauer Allee", "lat": 52.3866, "lon": 13.63402, "planning-area-id": 9301227}}, {"type": "Feature", "geometry": {"type": "Point", "coordinates": [13.56863, 52.44472]}, "properties": {"id": "1716251820", "name": "Köllnischer Platz", "lat": 52.44472, "lon": 13.56863, "planning-area-id": 9200819}}, {"type": "Feature", "geometry": {"type": "Point", "coordinates": [13.5624, 52.44571]}, "properties": {"id": "1716251972", "name": "S Spindlersfeld", "lat": 52.44571, "lon": 13.5624, "planning-area-id": 9200819}}, {"type": "Feature", "geometry": {"type": "Point", "coordinates": [13.44845, 52.50484]}, "properties": {"id": "1783286753", "name": "S+U Warschauer Straße", "lat": 52.50484, "lon": 13.44845, "planning-area-id": 2400625}}, {"type": "Feature", "geometry": {"type": "Point", "coordinates": [13.4457, 52.52579]}, "properties": {"id": "1787945074", "name": "Landsberger Allee/Petersburger Straße", "lat": 52.52579, "lon": 13.4457, "planning-area-id": 2400522}}, {"type": "Feature", "geometry": {"type": "Point", "coordinates": [13.41438, 52.52194]}, "properties": {"id": "1789092673", "name": "U Alexanderplatz", "lat": 52.52194, "lon": 13.41438, "planning-area-id": 1100310}}, {"type": "Feature", "geometry": {"type": "Point", "coordinates": [13.42413, 52.52851]}, "properties": {"id": "1789130798", "name": "Am Friedrichshain", "lat": 52.52851, "lon": 13.42413, "planning-area-id": 3701660}}, {"type": "Feature", "geometry": {"type": "Point", "coordinates": [13.4524, 52.54859]}, "properties": {"id": "1789155577", "name": "Antonplatz", "lat": 52.54859, "lon": 13.4524, "planning-area-id": 3500936}}, {"type": "Feature", "geometry": {"type": "Point", "coordinates": [13.43853, 52.54087]}, "properties": {"id": "1789155580", "name": "S Greifswalder Straße", "lat": 52.54087, "lon": 13.43853, "planning-area-id": 3601449}}, {"type": "Feature", "geometry": {"type": "Point", "coordinates": [13.44106, 52.54303]}, "properties": {"id": "1789155581", "name": "Thomas-Mann-Straße", "lat": 52.54303, "lon": 13.44106, "planning-area-id": 3601449}}, {"type": "Feature", "geometry": {"type": "Point", "coordinates": [13.47536, 52.55338]}, "properties": {"id": "1789168567", "name": "Sulzfelder Straße", "lat": 52.55338, "lon": 13.47536, "planning-area-id": 3501038}}, {"type": "Feature", "geometry": {"type": "Point", "coordinates": [13.47424, 52.53522]}, "properties": {"id": "1795862367", "name": "Hohenschönhauser Straße", "lat": 52.53522, "lon": 13.47424, "planning-area-id": 11200514}}, {"type": "Feature", "geometry": {"type": "Point", "coordinates": [13.56096, 52.54741]}, "properties": {"id": "1797065720", "name": "Jan-Petersen-Straße", "lat": 52.54741, "lon": 13.56096, "planning-area-id": 10100210}}, {"type": "Feature", "geometry": {"type": "Point", "coordinates": [13.42677, 52.52313]}, "properties": {"id": "1797119853", "name": "Büschingstraße", "lat": 52.52313, "lon": 13.42677, "planning-area-id": 2400520}}, {"type": "Feature", "geometry": {"type": "Point", "coordinates": [13.5569, 52.54593]}, "properties": {"id": "1797183046", "name": "Freizeitforum Marzahn", "lat": 52.54593, "lon": 13.5569, "planning-area-id": 10100210}}, {"type": "Feature", "geometry": {"type": "Point", "coordinates": [13.51925, 52.529]}, "properties": {"id": "1797326623", "name": "Meeraner Straße", "lat": 52.529, "lon": 13.51925, "planning-area-id": 10100311}}, {"type": "Feature", "geometry": {"type": "Point", "coordinates": [13.5434, 52.52593]}, "properties": {"id": "1797361151", "name": "Helene-Weigel-Platz", "lat": 52.52593, "lon": 13.5434, "planning-area-id": 10100312}}, {"type": "Feature", "geometry": {"type": "Point", "coordinates": [13.52972, 52.5255]}, "properties": {"id": "1797381752", "name": "Beilsteiner Straße", "lat": 52.5255, "lon": 13.52972, "planning-area-id": 10100311}}, {"type": "Feature", "geometry": {"type": "Point", "coordinates": [13.53609, 52.5257]}, "properties": {"id": "1797381754", "name": "S Springpfuhl", "lat": 52.5257, "lon": 13.53609, "planning-area-id": 10100311}}, {"type": "Feature", "geometry": {"type": "Point", "coordinates": [13.5203, 52.52591]}, "properties": {"id": "1797381789", "name": "Allee der Kosmonauten/Rhinstraße", "lat": 52.52591, "lon": 13.5203, "planning-area-id": 10100311}}, {"type": "Feature", "geometry": {"type": "Point", "coordinates": [13.51703, 52.53583]}, "properties": {"id": "1797405922", "name": "Landsberger Allee/Rhinstraße", "lat": 52.53583, "lon": 13.51703, "planning-area-id": 11200515}}, {"type": "Feature", "geometry": {"type": "Point", "coordinates": [13.54866, 52.52732]}, "properties": {"id": "1797506132", "name": "Boschpoler Straße", "lat": 52.52732, "lon": 13.54866, "planning-area-id": 10100312}}, {"type": "Feature", "geometry": {"type": "Point", "coordinates": [13.55203, 52.53391]}, "properties": {"id": "1797514517", "name": "Allee der Kosmonauten/Poelchaustraße", "lat": 52.53391, "lon": 13.55203, "planning-area-id": 10100314}}, {"type": "Feature", "geometry": {"type": "Point", "coordinates": [13.64333, 52.37985]}, "properties": {"id": "1809302376", "name": "Zum Seeblick", "lat": 52.37985, "lon": 13.64333, "planning-area-id": 9301228}}, {"type": "Feature", "geometry": {"type": "Point", "coordinates": [13.4708, 52.51189]}, "properties": {"id": "1813427810", "name": "Traveplatz", "lat": 52.51189, "lon": 13.4708, "planning-area-id": 2500832}}, {"type": "Feature", "geometry": {"type": "Point", "coordinates": [13.40305, 52.55442]}, "properties": {"id": "1816086143", "name": "Björnsonstraße", "lat": 52.55442, "lon": 13.40305, "planning-area-id": 3601140}}, {"type": "Feature", "geometry": {"type": "Point", "coordinates": [13.38324, 52.55597]}, "properties": {"id": "1816086144", "name": "Osloer Straße/Prinzenallee", "lat": 52.55597, "lon": 13.38324, "planning-area-id": 1401045}}, {"type": "Feature", "geometry": {"type": "Point", "coordinates": [13.39542, 52.55493]}, "properties": {"id": "1816086145", "name": "S Bornholmer Straße", "lat": 52.55493, "lon": 13.39542, "planning-area-id": 1300733}}, {"type": "Feature", "geometry": {"type": "Point", "coordinates": [13.49975, 52.52559]}, "properties": {"id": "1819268905", "name": "Herzbergstraße/Siegfriedstraße", "lat": 52.52559, "lon": 13.49975, "planning-area-id": 11300721}}, {"type": "Feature", "geometry": {"type": "Point", "coordinates": [13.50976, 52.55998]}, "properties": {"id": "1820784042", "name": "Rüdickenstraße", "lat": 52.55998, "lon": 13.50976, "planning-area-id": 11100309}}, {"type": "Feature", "geometry": {"type": "Point", "coordinates": [13.42859, 52.58213]}, "properties": {"id": "1821277733", "name": "Galenusstraße", "lat": 52.58213, "lon": 13.42859, "planning-area-id": 3400724}}, {"type": "Feature", "geometry": {"type": "Point", "coordinates": [13.42884, 52.58487]}, "properties": {"id": "1821277734", "name": "Pankower Straße", "lat": 52.58487, "lon": 13.42884, "planning-area-id": 3400725}}, {"type": "Feature", "geometry": {"type": "Point", "coordinates": [13.42815, 52.57773]}, "properties": {"id": "1821277735", "name": "S Pankow-Heinersdorf", "lat": 52.57773, "lon": 13.42815, "planning-area-id": 3400724}}, {"type": "Feature", "geometry": {"type": "Point", "coordinates": [13.43136, 52.59229]}, "properties": {"id": "1821286946", "name": "Marienstraße/Pasewalker Straße", "lat": 52.59229, "lon": 13.43136, "planning-area-id": 3200207}}, {"type": "Feature", "geometry": {"type": "Point", "coordinates": [13.43051, 52.58969]}, "properties": {"id": "1821286958", "name": "Pasewalker Straße/Blankenburger Weg", "lat": 52.58969, "lon": 13.43051, "planning-area-id": 3200207}}, {"type": "Feature", "geometry": {"type": "Point", "coordinates": [13.43135, 52.60202]}, "properties": {"id": "1821323659", "name": "Blankenfelder Straße", "lat": 52.60202, "lon": 13.43135, "planning-area-id": 3200308}}, {"type": "Feature", "geometry": {"type": "Point", "coordinates": [13.43269, 52.59566]}, "properties": {"id": "1821323660", "name": "Rosenthaler Straße", "lat": 52.59566, "lon": 13.43269, "planning-area-id": 3200308}}, {"type": "Feature", "geometry": {"type": "Point", "coordinates": [13.43365, 52.60713]}, "properties": {"id": "1821470693", "name": "Französisch Buchholz Kirche", "lat": 52.60713, "lon": 13.43365, "planning-area-id": 3200309}}, {"type": "Feature", "geometry": {"type": "Point", "coordinates": [13.40296, 52.58402]}, "properties": {"id": "1821621498", "name": "Kuckhoffstraße", "lat": 52.58402, "lon": 13.40296, "planning-area-id": 3200206}}, {"type": "Feature", "geometry": {"type": "Point", "coordinates": [13.40234, 52.59015]}, "properties": {"id": "1821622042", "name": "Nordend", "lat": 52.59015, "lon": 13.40234, "planning-area-id": 3200207}}, {"type": "Feature", "geometry": {"type": "Point", "coordinates": [13.41102, 52.5921]}, "properties": {"id": "1821622114", "name": "Schillerstraße", "lat": 52.5921, "lon": 13.41102, "planning-area-id": 3200207}}, {"type": "Feature", "geometry": {"type": "Point", "coordinates": [13.41087, 52.5923]}, "properties": {"id": "1821622123", "name": "Schillerstraße", "lat": 52.5923, "lon": 13.41087, "planning-area-id": 3200207}}, {"type": "Feature", "geometry": {"type": "Point", "coordinates": [13.40316, 52.5836]}, "properties": {"id": "1821685357", "name": "Kuckhoffstraße", "lat": 52.5836, "lon": 13.40316, "planning-area-id": 3200206}}, {"type": "Feature", "geometry": {"type": "Point", "coordinates": [13.39842, 52.57148]}, "properties": {"id": "1821765771", "name": "Bürgerpark Pankow", "lat": 52.57148, "lon": 13.39842, "planning-area-id": 3400620}}, {"type": "Feature", "geometry": {"type": "Point", "coordinates": [13.39833, 52.57138]}, "properties": {"id": "1821890710", "name": "Bürgerpark Pankow", "lat": 52.57138, "lon": 13.39833, "planning-area-id": 3400620}}, {"type": "Feature", "geometry": {"type": "Point", "coordinates": [13.41561, 52.57271]}, "properties": {"id": "1822170722", "name": "Stiftsweg", "lat": 52.57271, "lon": 13.41561, "planning-area-id": 3400723}}, {"type": "Feature", "geometry": {"type": "Point", "coordinates": [13.39237, 52.58235]}, "properties": {"id": "1822477738", "name": "Am Iderfenngraben", "lat": 52.58235, "lon": 13.39237, "planning-area-id": 3200206}}, {"type": "Feature", "geometry": {"type": "Point", "coordinates": [13.38828, 52.58853]}, "properties": {"id": "1822477777", "name": "Nordendstraße", "lat": 52.58853, "lon": 13.38828, "planning-area-id": 3200205}}, {"type": "Feature", "geometry": {"type": "Point", "coordinates": [13.37266, 52.59866]},