{"type": "FeatureCollection", "features": [{"type": "Feature", "geometry": {"type": "Point", "coordinates": [13.38768, 52.49349]}, "properties": {"id": "30022140", "name": "Curry 36", "street": "Mehringdamm 36", "zip-code": 10961, "lat": 52.49349, "lon": 13.38768, "planning-area-id": 2200208}}, {"type": "Feature", "geometry": {"type": "Point", "coordinates": [13.38296, 52.53084]}, "properties": {"id": "84646591", "name": "Subway", "street": "Chausseestraße 22", "zip-code": 10115, "lat": 52.53084, "lon": 13.38296, "planning-area-id": 1100415}}, {"type": "Feature", "geometry": {"type": "Point", "coordinates": [13.38992, 52.51581]}, "properties": {"id": "86001790", "name": "Subway", "street": "Behrenstraße 47", "zip-code": 10117, "lat": 52.51581, "lon": 13.38992, "planning-area-id": 1100206}}, {"type": "Feature", "geometry": {"type": "Point", "coordinates": [13.41147, 52.52006]}, "properties": {"id": "89274884", "name": "Dunkin", "street": "Rathausstraße 5", "zip-code": 10178, "lat": 52.52006, "lon": 13.41147, "planning-area-id": 1100310}}, {"type": "Feature", "geometry": {"type": "Point", "coordinates": [13.41272, 52.52265]}, "properties": {"id": "89312691", "name": "Burger King", "lat": 52.52265, "lon": 13.41272, "planning-area-id": 1100310}}, {"type": "Feature", "geometry": {"type": "Point", "coordinates": [13.53153, 52.50991]}, "properties": {"id": "106982123", "name": "McDonalds", "street": "Alt-Friedrichsfelde 61", "zip-code": 10315, "lat": 52.50991, "lon": 13.53153, "planning-area-id": 11401034}}, {"type": "Feature", "geometry": {"type": "Point", "coordinates": [13.41221, 52.54047]}, "properties": {"id": "149607221", "name": "Konnopke’s Imbiß", "street": "Schönhauser Allee 44b", "zip-code": 10435, "lat": 52.54047, "lon": 13.41221, "planning-area-id": 3701554}}, {"type": "Feature", "geometry": {"type": "Point", "coordinates": [13.4216, 52.53921]}, "properties": {"id": "248652663", "name": "Zweistrom", "street": "Kollwitzstraße 104", "zip-code": 10435, "lat": 52.53921, "lon": 13.4216, "planning-area-id": 3701555}}, {"type": "Feature", "geometry": {"type": "Point", "coordinates": [13.41255, 52.54085]}, "properties": {"id": "249094185", "name": "Risa Chicken", "street": "Danziger Straße 2", "zip-code": 10435, "lat": 52.54085, "lon": 13.41255, "planning-area-id": 3701555}}, {"type": "Feature", "geometry": {"type": "Point", "coordinates": [13.41562, 52.54385]}, "properties": {"id": "253891060", "name": "Kreuzburger", "street": "Pappelallee 19", "zip-code": 10437, "lat": 52.54385, "lon": 13.41562, "planning-area-id": 3601347}}, {"type": "Feature", "geometry": {"type": "Point", "coordinates": [13.37114, 52.46955]}, "properties": {"id": "260753892", "name": "McDonalds", "street": "Alboinstraße 4", "zip-code": 12103, "lat": 52.46955, "lon": 13.37114, "planning-area-id": 7400823}}, {"type": "Feature", "geometry": {"type": "Point", "coordinates": [13.50913, 52.45622]}, "properties": {"id": "262353303", "name": "Boss Burger", "street": "Schnellerstraße 21", "zip-code": 12439, "lat": 52.45622, "lon": 13.50913, "planning-area-id": 9200613}}, {"type": "Feature", "geometry": {"type": "Point", "coordinates": [13.46275, 52.51515]}, "properties": {"id": "262366174", "name": "SanMax", "street": "Frankfurter Allee 41", "zip-code": 10247, "lat": 52.51515, "lon": 13.46275, "planning-area-id": 2500728}}, {"type": "Feature", "geometry": {"type": "Point", "coordinates": [13.29093, 52.59573]}, "properties": {"id": "268072807", "name": "Marians Imbiss", "street": "Waidmannsluster Damm 18", "zip-code": 13509, "lat": 52.59573, "lon": 13.29093, "planning-area-id": 12500824}}, {"type": "Feature", "geometry": {"type": "Point", "coordinates": [13.41653, 52.50178]}, "properties": {"id": "269475044", "name": "Milchladen", "street": "Dresdener Straße 20", "zip-code": 10999, "lat": 52.50178, "lon": 13.41653, "planning-area-id": 2300314}}, {"type": "Feature", "geometry": {"type": "Point", "coordinates": [13.36558, 52.42729]}, "properties": {"id": "276134995", "name": "Hans Wurscht", "street": "Preysingstraße 9", "zip-code": 12249, "lat": 52.42729, "lon": 13.36558, "planning-area-id": 6200317}}, {"type": "Feature", "geometry": {"type": "Point", "coordinates": [13.40802, 52.4325]}, "properties": {"id": "276795907", "name": "Spielelandschaft", "lat": 52.4325, "lon": 13.40802, "planning-area-id": 7501134}}, {"type": "Feature", "geometry": {"type": "Point", "coordinates": [13.38514, 52.48038]}, "properties": {"id": "277805929", "name": "Burger King", "street": "Tempelhofer Damm 28-30", "zip-code": 12101, "lat": 52.48038, "lon": 13.38514, "planning-area-id": 7400720}}, {"type": "Feature", "geometry": {"type": "Point", "coordinates": [13.38824, 52.52646]}, "properties": {"id": "279301771", "name": "Dada Falafel", "street": "Linienstraße 132", "zip-code": 10115, "lat": 52.52646, "lon": 13.38824, "planning-area-id": 1100309}}, {"type": "Feature", "geometry": {"type": "Point", "coordinates": [13.50351, 52.56584]}, "properties": {"id": "279408216", "name": "World of Pizza", "street": "Zingster Straße 14", "zip-code": 13051, "lat": 52.56584, "lon": 13.50351, "planning-area-id": 11100307}}, {"type": "Feature", "geometry": {"type": "Point", "coordinates": [13.45621, 52.51048]}, "properties": {"id": "282420132", "name": "Pizza Dach Aceto Lokanta", "street": "Simon-Dach-Straße 12", "zip-code": 10245, "lat": 52.51048, "lon": 13.45621, "planning-area-id": 2500833}}, {"type": "Feature", "geometry": {"type": "Point", "coordinates": [13.46195, 52.51684]}, "properties": {"id": "282739417", "name": "Casablanca", "lat": 52.51684, "lon": 13.46195, "planning-area-id": 2500728}}, {"type": "Feature", "geometry": {"type": "Point", "coordinates": [13.46584, 52.51835]}, "properties": {"id": "282742878", "name": "Bistro Samariter", "lat": 52.51835, "lon": 13.46584, "planning-area-id": 2500728}}, {"type": "Feature", "geometry": {"type": "Point", "coordinates": [13.4737, 52.5149]}, "properties": {"id": "282751417", "name": "Akcan Döner", "street": "Rigaer Straße 56", "zip-code": 10247, "lat": 52.5149, "lon": 13.4737, "planning-area-id": 2500729}}, {"type": "Feature", "geometry": {"type": "Point", "coordinates": [13.47394, 52.51484]}, "properties": {"id": "282751610", "name": "Rigas Pizza Box", "street": "Rigaer Straße 56", "zip-code": 10247, "lat": 52.51484, "lon": 13.47394, "planning-area-id": 2500729}}, {"type": "Feature", "geometry": {"type": "Point", "coordinates": [13.20346, 52.53753]}, "properties": {"id": "285431956", "name": "Burger King", "street": "Carl-Schurz-Straße 37", "zip-code": 13597, "lat": 52.53753, "lon": 13.20346, "planning-area-id": 5100316}}, {"type": "Feature", "geometry": {"type": "Point", "coordinates": [13.1911, 52.43396]}, "properties": {"id": "286750068", "name": "Burger King", "lat": 52.43396, "lon": 13.1911, "planning-area-id": 6400737}}, {"type": "Feature", "geometry": {"type": "Point", "coordinates": [13.45803, 52.52946]}, "properties": {"id": "287295063", "name": "Burger King", "street": "Landsberger Allee 119", "zip-code": 10407, "lat": 52.52946, "lon": 13.45803, "planning-area-id": 3601450}}, {"type": "Feature", "geometry": {"type": "Point", "coordinates": [13.409, 52.52865]}, "properties": {"id": "287297683", "name": "Luxa", "street": "Torstraße 56", "lat": 52.52865, "lon": 13.409, "planning-area-id": 1100309}}, {"type": "Feature", "geometry": {"type": "Point", "coordinates": [13.43498, 52.42681]}, "properties": {"id": "290829129", "name": "Chinapfanne", "lat": 52.42681, "lon": 13.43498, "planning-area-id": 8200832}}, {"type": "Feature", "geometry": {"type": "Point", "coordinates": [13.43497, 52.42687]}, "properties": {"id": "290829130", "name": "Muro Döner Kebap", "lat": 52.42687, "lon": 13.43497, "planning-area-id": 8200832}}, {"type": "Feature", "geometry": {"type": "Point", "coordinates": [13.62528, 52.41687]}, "properties": {"id": "292728693", "name": "Imbiss am Müggelturm", "lat": 52.41687, "lon": 13.62528, "planning-area-id": 9401329}}, {"type": "Feature", "geometry": {"type": "Point", "coordinates": [13.41511, 52.4931]}, "properties": {"id": "297807601", "name": "Ron Telesky Canadian Pizza", "street": "Dieffenbachstraße 62", "zip-code": 10967, "lat": 52.4931, "lon": 13.41511, "planning-area-id": 2200213}}, {"type": "Feature", "geometry": {"type": "Point", "coordinates": [13.38528, 52.48446]}, "properties": {"id": "298094795", "name": "Bistro Nazar", "lat": 52.48446, "lon": 13.38528, "planning-area-id": 7400720}}, {"type": "Feature", "geometry": {"type": "Point", "coordinates": [13.57353, 52.41151]}, "properties": {"id": "300467433", "name": "Vietnam Küche", "street": "Gründerstraße 3", "zip-code": 12526, "lat": 52.41151, "lon": 13.57353, "planning-area-id": 9301126}}, {"type": "Feature", "geometry": {"type": "Point", "coordinates": [13.37692, 52.51729]}, "properties": {"id": "307642432", "name": "Wurst", "lat": 52.51729, "lon": 13.37692, "planning-area-id": 1100102}}, {"type": "Feature", "geometry": {"type": "Point", "coordinates": [13.38182, 52.41053]}, "properties": {"id": "308858101", "street": "Buckower Chaussee 100-102", "zip-code": 12277, "lat": 52.41053, "lon": 13.38182, "planning-area-id": 7601341}}, {"type": "Feature", "geometry": {"type": "Point", "coordinates": [13.33994, 52.48833]}, "properties": {"id": "310377171", "name": "Brutzelstübchen", "lat": 52.48833, "lon": 13.33994, "planning-area-id": 7200307}}, {"type": "Feature", "geometry": {"type": "Point", "coordinates": [13.3481, 52.48133]}, "properties": {"id": "310377173", "name": "Haupt Grill", "street": "Hauptstraße 110", "zip-code": 10827, "lat": 52.48133, "lon": 13.3481, "planning-area-id": 7200308}}, {"type": "Feature", "geometry": {"type": "Point", "coordinates": [13.35541, 52.48546]}, "properties": {"id": "310377178", "name": "Max und Moritz", "street": "Hauptstraße 140", "zip-code": 10827, "lat": 52.48546, "lon": 13.35541, "planning-area-id": 7200410}}, {"type": "Feature", "geometry": {"type": "Point", "coordinates": [13.31196, 52.50015]}, "properties": {"id": "312383490", "name": "Subway", "street": "Kurfürstendamm 180", "zip-code": 10707, "lat": 52.50015, "lon": 13.31196, "planning-area-id": 4501043}}, {"type": "Feature", "geometry": {"type": "Point", "coordinates": [13.33707, 52.50485]}, "properties": {"id": "313325387", "name": "KFC", "street": "Tauentzienstraße 9", "zip-code": 10789, "lat": 52.50485, "lon": 13.33707, "planning-area-id": 4501042}}, {"type": "Feature", "geometry": {"type": "Point", "coordinates": [13.45273, 52.52473]}, "properties": {"id": "314671375", "name": "Pho Co", "street": "Ebertystraße 44", "zip-code": 10249, "lat": 52.52473, "lon": 13.45273, "planning-area-id": 2500726}}, {"type": "Feature", "geometry": {"type": "Point", "coordinates": [13.33061, 52.52649]}, "properties": {"id": "315757117", "name": "Sushi Shop", "street": "Gotzkowskystraße 34", "zip-code": 10555, "lat": 52.52649, "lon": 13.33061, "planning-area-id": 1200521}}, {"type": "Feature", "geometry": {"type": "Point", "coordinates": [13.35913, 52.54613]}, "properties": {"id": "316565528", "name": "Kaplan", "street": "Müllerstraße 153", "lat": 52.54613, "lon": 13.35913, "planning-area-id": 1401047}}, {"type": "Feature", "geometry": {"type": "Point", "coordinates": [13.4801, 52.52748]}, "properties": {"id": "316657525", "name": "Macs Deluxe", "lat": 52.52748, "lon": 13.4801, "planning-area-id": 11300620}}, {"type": "Feature", "geometry": {"type": "Point", "coordinates": [13.28474, 52.58882]}, "properties": {"id": "316772541", "name": "Laventes Grill", "lat": 52.58882, "lon": 13.28474, "planning-area-id": 12200515}}, {"type": "Feature", "geometry": {"type": "Point", "coordinates": [13.35881, 52.54588]}, "properties": {"id": "317179408", "name": "Baba Sultan Köfteci", "street": "Luxemburger Straße 34", "zip-code": 13353, "lat": 52.54588, "lon": 13.35881, "planning-area-id": 1401047}}, {"type": "Feature", "geometry": {"type": "Point", "coordinates": [13.35757, 52.54568]}, "properties": {"id": "317179409", "name": "Lahmacun Kebab Haus", "street": "Luxemburger Straße 6", "zip-code": 13353, "lat": 52.54568, "lon": 13.35757, "planning-area-id": 1400942}}, {"type": "Feature", "geometry": {"type": "Point", "coordinates": [13.35914, 52.54663]}, "properties": {"id": "317179414", "name": "Orient Station", "zip-code": 13353, "lat": 52.54663, "lon": 13.35914, "planning-area-id": 1400942}}, {"type": "Feature", "geometry": {"type": "Point", "coordinates": [13.3592, 52.54664]}, "properties": {"id": "317179416", "name": "Asia Imbiss", "zip-code": 13353, "lat": 52.54664, "lon": 13.3592, "planning-area-id": 1401048}}, {"type": "Feature", "geometry": {"type": "Point", "coordinates": [13.35975, 52.54655]}, "properties": {"id": "317179429", "name": "Currywurst am Leo", "lat": 52.54655, "lon": 13.35975, "planning-area-id": 1401043}}, {"type": "Feature", "geometry": {"type": "Point", "coordinates": [13.44006, 52.51605]}, "properties": {"id": "317443999", "name": "Spross Café Bistro", "street": "Straße der Pariser Kommune 35", "zip-code": 10243, "lat": 52.51605, "lon": 13.44006, "planning-area-id": 2400623}}, {"type": "Feature", "geometry": {"type": "Point", "coordinates": [13.53584, 52.43233]}, "properties": {"id": "317552398", "name": "Bagel Company", "street": "Rudower Chaussee 13", "zip-code": 12489, "lat": 52.43233, "lon": 13.53584, "planning-area-id": 9200715}}, {"type": "Feature", "geometry": {"type": "Point", "coordinates": [13.53516, 52.43263]}, "properties": {"id": "317552401", "name": "Subway", "lat": 52.43263, "lon": 13.53516, "planning-area-id": 9200715}}, {"type": "Feature", "geometry": {"type": "Point", "coordinates": [13.41222, 52.52107]}, "properties": {"id": "318149465", "name": "McDonalds", "lat": 52.52107, "lon": 13.41222, "planning-area-id": 1100310}}, {"type": "Feature", "geometry": {"type": "Point", "coordinates": [13.41189, 52.52119]}, "properties": {"id": "318149466", "name": "Currywurst Express", "street": "Dircksenstraße 2", "zip-code": 10179, "lat": 52.52119, "lon": 13.41189, "planning-area-id": 1100310}}, {"type": "Feature", "geometry": {"type": "Point", "coordinates": [13.40518, 52.53437]}, "properties": {"id": "320216659", "name": "Cult Döner", "street": "Kastanienallee 48", "zip-code": 10119, "lat": 52.53437, "lon": 13.40518, "planning-area-id": 1100416}}, {"type": "Feature", "geometry": {"type": "Point", "coordinates": [13.50001, 52.57112]}, "properties": {"id": "324205115", "name": "Dolce Vita", "street": "Ribnitzer Straße 10A", "zip-code": 13051, "lat": 52.57112, "lon": 13.50001, "planning-area-id": 11100307}}, {"type": "Feature", "geometry": {"type": "Point", "coordinates": [13.363, 52.41339]}, "properties": {"id": "324792570", "name": "Pizza Ciao", "street": "Marienfelder Allee 146", "zip-code": 12279, "lat": 52.41339, "lon": 13.363, "planning-area-id": 7601236}}, {"type": "Feature", "geometry": {"type": "Point", "coordinates": [13.3643, 52.41433]}, "properties": {"id": "324792581", "name": "Seven Grill", "lat": 52.41433, "lon": 13.3643, "planning-area-id": 7601237}}, {"type": "Feature", "geometry": {"type": "Point", "coordinates": [13.38928, 52.51979]}, "properties": {"id": "333136725", "name": "dean&david", "street": "Friedrichstraße 96", "lat": 52.51979, "lon": 13.38928, "planning-area-id": 1100206}}, {"type": "Feature", "geometry": {"type": "Point", "coordinates": [13.39277, 52.56445]}, "properties": {"id": "335567493", "name": "Aris Döner & Burger", "street": "Wollankstraße 24", "zip-code": 13359, "lat": 52.56445, "lon": 13.39277, "planning-area-id": 1300731}}, {"type": "Feature", "geometry": {"type": "Point", "coordinates": [13.30777, 52.50678]}, "properties": {"id": "336117213", "name": "Abu Alnar Grill", "street": "Kantstraße 55", "zip-code": 10627, "lat": 52.50678, "lon": 13.30777, "planning-area-id": 4300623}}, {"type": "Feature", "geometry": {"type": "Point", "coordinates": [13.40232, 52.53072]}, "properties": {"id": "336139117", "name": "Yangguofu Malatang", "street": "Weinbergsweg 5", "zip-code": 10119, "lat": 52.53072, "lon": 13.40232, "planning-area-id": 1100416}}, {"type": "Feature", "geometry": {"type": "Point", "coordinates": [13.40119, 52.52943]}, "properties": {"id": "336139347", "name": "Fergie", "street": "Rosenthaler Straße 1", "zip-code": 10119, "lat": 52.52943, "lon": 13.40119, "planning-area-id": 1100309}}, {"type": "Feature", "geometry": {"type": "Point", "coordinates": [13.41885, 52.50092]}, "properties": {"id": "350462678", "name": "Maroush", "street": "Adalbertstraße 93", "zip-code": 10999, "lat": 52.50092, "lon": 13.41885, "planning-area-id": 2300314}}, {"type": "Feature", "geometry": {"type": "Point", "coordinates": [13.43624, 52.50066]}, "properties": {"id": "350499772", "name": "McDonalds", "street": "Wrangelstraße 35", "zip-code": 10997, "lat": 52.50066, "lon": 13.43624, "planning-area-id": 2300315}}, {"type": "Feature", "geometry": {"type": "Point", "coordinates": [13.36877, 52.49293]}, "properties": {"id": "352924669", "name": "Hisar", "street": "Yorckstraße 49", "zip-code": 10965, "lat": 52.49293, "lon": 13.36877, "planning-area-id": 7100206}}, {"type": "Feature", "geometry": {"type": "Point", "coordinates": [13.14248, 52.52488]}, "properties": {"id": "354721203", "name": "Bistro Kaya", "lat": 52.52488, "lon": 13.14248, "planning-area-id": 5200524}}, {"type": "Feature", "geometry": {"type": "Point", "coordinates": [13.45844, 52.51108]}, "properties": {"id": "362861264", "name": "Sanabel", "street": "Gabriel-Max-Straße 16", "zip-code": 10245, "lat": 52.51108, "lon": 13.45844, "planning-area-id": 2500833}}, {"type": "Feature", "geometry": {"type": "Point", "coordinates": [13.43041, 52.46853]}, "properties": {"id": "365288484", "name": "Tepe", "zip-code": 12051, "lat": 52.46853, "lon": 13.43041, "planning-area-id": 8100104}}, {"type": "Feature", "geometry": {"type": "Point", "coordinates": [13.27134, 52.5103]}, "properties": {"id": "370400278", "name": "Prime Kebab", "street": "Reichsstraße 1", "zip-code": 14052, "lat": 52.5103, "lon": 13.27134, "planning-area-id": 4200310}}, {"type": "Feature", "geometry": {"type": "Point", "coordinates": [13.39978, 52.53293]}, "properties": {"id": "376053800", "name": "Riha Bistro", "street": "Veteranenstraße 27", "zip-code": 10119, "lat": 52.53293, "lon": 13.39978, "planning-area-id": 1100416}}, {"type": "Feature", "geometry": {"type": "Point", "coordinates": [13.37709, 52.50921]}, "properties": {"id": "380497987", "name": "Pret A Manger", "lat": 52.50921, "lon": 13.37709, "planning-area-id": 1100205}}, {"type": "Feature", "geometry": {"type": "Point", "coordinates": [13.6507, 52.38987]}, "properties": {"id": "388520288", "lat": 52.38987, "lon": 13.6507, "planning-area-id": 9401635}}, {"type": "Feature", "geometry": {"type": "Point", "coordinates": [13.37646, 52.59801]}, "properties": {"id": "388579116", "name": "Irem Bistro", "lat": 52.59801, "lon": 13.37646, "planning-area-id": 3400618}}, {"type": "Feature", "geometry": {"type": "Point", "coordinates": [13.42156, 52.43411]}, "properties": {"id": "390427086", "name": "Burger Garden", "lat": 52.43411, "lon": 13.42156, "planning-area-id": 8200729}}, {"type": "Feature", "geometry": {"type": "Point", "coordinates": [13.21912, 52.53758]}, "properties": {"id": "390470723", "name": "McDonalds", "street": "Am Juliusturm 42-46", "zip-code": 13599, "lat": 52.53758, "lon": 13.21912, "planning-area-id": 5300736}}, {"type": "Feature", "geometry": {"type": "Point", "coordinates": [13.44105, 52.51767]}, "properties": {"id": "392404648", "name": "Bistro 93", "street": "Karl-Marx-Allee 93", "zip-code": 10243, "lat": 52.51767, "lon": 13.44105, "planning-area-id": 2400522}}, {"type": "Feature", "geometry": {"type": "Point", "coordinates": [13.58854, 52.51226]}, "properties": {"id": "407094160", "name": "Mac Kebab", "lat": 52.51226, "lon": 13.58854, "planning-area-id": 10400836}}, {"type": "Feature", "geometry": {"type": "Point", "coordinates": [13.56042, 52.50579]}, "properties": {"id": "409353486", "name": "Dönerpoint", "street": "Weißenhöher Straße 108", "zip-code": 12683, "lat": 52.50579, "lon": 13.56042, "planning-area-id": 10300733}}, {"type": "Feature", "geometry": {"type": "Point", "coordinates": [13.44247, 52.49849]}, "properties": {"id": "410135925", "name": "Nour", "street": "Wrangelstraße 81", "zip-code": 10997, "lat": 52.49849, "lon": 13.44247, "planning-area-id": 2300419}}, {"type": "Feature", "geometry": {"type": "Point", "coordinates": [13.43023, 52.49827]}, "properties": {"id": "410135941", "name": "Pizzeria Piccola Musica", "lat": 52.49827, "lon": 13.43023, "planning-area-id": 2300417}}, {"type": "Feature", "geometry": {"type": "Point", "coordinates": [13.44208, 52.50073]}, "properties": {"id": "410135953", "name": "Pizza Espresso", "street": "Schlesische Straße 1", "zip-code": 10997, "lat": 52.50073, "lon": 13.44208, "planning-area-id": 2300419}}, {"type": "Feature", "geometry": {"type": "Point", "coordinates": [13.26686, 52.59242]}, "properties": {"id": "410214240", "name": "Park-Imbiss", "lat": 52.59242, "lon": 13.26686, "planning-area-id": 12200515}}, {"type": "Feature", "geometry": {"type": "Point", "coordinates": [13.36132, 52.48625]}, "properties": {"id": "417009812", "name": "Efdal", "street": "Czeminskistraße 55", "zip-code": 10829, "lat": 52.48625, "lon": 13.36132, "planning-area-id": 7200411}}, {"type": "Feature", "geometry": {"type": "Point", "coordinates": [13.34608, 52.48471]}, "properties": {"id": "417128855", "name": "Dolce Pizza", "street": "Belziger Straße 73", "zip-code": 10823, "lat": 52.48471, "lon": 13.34608, "planning-area-id": 7200409}}, {"type": "Feature", "geometry": {"type": "Point", "coordinates": [13.46334, 52.49396]}, "properties": {"id": "417237678", "name": "Fischerei Löcknitz - Hafenräucherei Treptow", "lat": 52.49396, "lon": 13.46334, "planning-area-id": 9100101}}, {"type": "Feature", "geometry": {"type": "Point", "coordinates": [13.34252, 52.50227]}, "properties": {"id": "426687397", "name": "Wittys Organic Food", "street": "Wittenbergplatz 5", "zip-code": 10789, "lat": 52.50227, "lon": 13.34252, "planning-area-id": 7100101}}, {"type": "Feature", "geometry": {"type": "Point", "coordinates": [13.32455, 52.46029]}, "properties": {"id": "426973261", "name": "Falafel Baba", "lat": 52.46029, "lon": 13.32455, "planning-area-id": 6100102}}, {"type": "Feature", "geometry": {"type": "Point", "coordinates": [13.49654, 52.51203]}, "properties": {"id": "427670053", "name": "Payamlino Bistro", "lat": 52.51203, "lon": 13.49654, "planning-area-id": 11300725}}, {"type": "Feature", "geometry": {"type": "Point", "coordinates": [13.49703, 52.51173]}, "properties": {"id": "427670064", "name": "Isys Dönerpoint", "lat": 52.51173, "lon": 13.49703, "planning-area-id": 11300725}}, {"type": "Feature", "geometry": {"type": "Point", "coordinates": [13.49831, 52.51207]}, "properties": {"id": "427670068", "name": "Bambus Bistro", "street": "Frankfurter Allee 251", "zip-code": 10365, "lat": 52.51207, "lon": 13.49831, "planning-area-id": 11300725}}, {"type": "Feature", "geometry": {"type": "Point", "coordinates": [13.49854, 52.51206]}, "properties": {"id": "427670069", "name": "Burger City", "street": "Frankfurter Allee 255", "zip-code": 10365, "lat": 52.51206, "lon": 13.49854, "planning-area-id": 11300725}}, {"type": "Feature", "geometry": {"type": "Point", "coordinates": [13.49846, 52.51207]}, "properties": {"id": "427670070", "name": "Asia-Imbiss", "lat": 52.51207, "lon": 13.49846, "planning-area-id": 11300725}}, {"type": "Feature", "geometry": {"type": "Point", "coordinates": [13.41544, 52.43282]}, "properties": {"id": "427901484", "name": "Am Modellboothafen", "lat": 52.43282, "lon": 13.41544, "planning-area-id": 8200729}}, {"type": "Feature", "geometry": {"type": "Point", "coordinates": [13.35499, 52.48572]}, "properties": {"id": "428114310", "name": "Brammibal’s Donuts", "street": "Hauptstraße 26", "zip-code": 10827, "lat": 52.48572, "lon": 13.35499, "planning-area-id": 7200409}}, {"type": "Feature", "geometry": {"type": "Point", "coordinates": [13.49232, 52.63716]}, "properties": {"id": "428889381", "name": "Akcan Döner", "street": "Wiltbergstraße 34", "zip-code": 13125, "lat": 52.63716, "lon": 13.49232, "planning-area-id": 3100101}}, {"type": "Feature", "geometry": {"type": "Point", "coordinates": [13.37711, 52.50905]}, "properties": {"id": "429740258", "name": "dean&david", "lat": 52.50905, "lon": 13.37711, "planning-area-id": 1100205}}, {"type": "Feature", "geometry": {"type": "Point", "coordinates": [13.38523, 52.46621]}, "properties": {"id": "430545834", "name": "Risa Chicken", "street": "Tempelhofer Damm 144", "zip-code": 12099, "lat": 52.46621, "lon": 13.38523, "planning-area-id": 7400824}}, {"type": "Feature", "geometry": {"type": "Point", "coordinates": [13.45533, 52.51802]}, "properties": {"id": "431245850", "name": "Saigon Shack", "lat": 52.51802, "lon": 13.45533, "planning-area-id": 2500727}}, {"type": "Feature", "geometry": {"type": "Point", "coordinates": [13.32624, 52.52195]}, "properties": {"id": "432486561", "name": "Anni Kitchen", "street": "Helmholtzstraße 26", "zip-code": 10587, "lat": 52.52195, "lon": 13.32624, "planning-area-id": 4300620}}, {"type": "Feature", "geometry": {"type": "Point", "coordinates": [13.29653, 52.52955]}, "properties": {"id": "433914645", "name": "Dalinji", "lat": 52.52955, "lon": 13.29653, "planning-area-id": 4300517}}, {"type": "Feature", "geometry": {"type": "Point", "coordinates": [13.53775, 52.43153]}, "properties": {"id": "436624045", "name": "Dewi’s FAST FOOD KEBAPHAUS", "street": "Albert-Einstein-Straße 1-3", "zip-code": 12489, "lat": 52.43153, "lon": 13.53775, "planning-area-id": 9200715}}, {"type": "Feature", "geometry": {"type": "Point", "coordinates": [13.41082, 52.51943]}, "properties": {"id": "437195224", "name": "Hong Kong Express", "lat": 52.51943, "lon": 13.41082, "planning-area-id": 1100310}}, {"type": "Feature", "geometry": {"type": "Point", "coordinates": [13.40491, 52.5204]}, "properties": {"id": "437611378", "name": "Nordsee", "street": "Spandauer Straße 4", "zip-code": 10178, "lat": 52.5204, "lon": 13.40491, "planning-area-id": 1100310}}, {"type": "Feature", "geometry": {"type": "Point", "coordinates": [13.2022, 52.53771]}, "properties": {"id": "441283250", "name": "Pho & More", "lat": 52.53771, "lon": 13.2022, "planning-area-id": 5100316}}, {"type": "Feature", "geometry": {"type": "Point", "coordinates": [13.4255, 52.47866]}, "properties": {"id": "441514946", "name": "Bol Köfte", "lat": 52.47866, "lon": 13.4255, "planning-area-id": 8100102}}, {"type": "Feature", "geometry": {"type": "Point", "coordinates": [13.42582, 52.47921]}, "properties": {"id": "441514948", "name": "Burger Pause", "street": "Hermannstraße 219", "zip-code": 12049, "lat": 52.47921, "lon": 13.42582, "planning-area-id": 8100206}}, {"type": "Feature", "geometry": {"type": "Point", "coordinates": [13.4258, 52.47925]}, "properties": {"id": "441514949", "name": "Sam Asia Imbiss", "lat": 52.47925, "lon": 13.4258, "planning-area-id": 8100206}}, {"type": "Feature", "geometry": {"type": "Point", "coordinates": [13.43568, 52.48082]}, "properties": {"id": "441734599", "name": "My Döner", "lat": 52.48082, "lon": 13.43568, "planning-area-id": 8100415}}, {"type": "Feature", "geometry": {"type": "Point", "coordinates": [13.38417, 52.45904]}, "properties": {"id": "442388893", "name": "Bistro Rose 2", "street": "Tempelhofer Damm 196", "zip-code": 12099, "lat": 52.45904, "lon": 13.38417, "planning-area-id": 7400825}}, {"type": "Feature", "geometry": {"type": "Point", "coordinates": [13.38356, 52.45676]}, "properties": {"id": "442390304", "name": "Tempelhofer Bistro Grillhaus", "zip-code": 12099, "lat": 52.45676, "lon": 13.38356, "planning-area-id": 7400825}}, {"type": "Feature", "geometry": {"type": "Point", "coordinates": [13.38352, 52.45618]}, "properties": {"id": "442390877", "name": "Libanon Snack", "street": "Tempelhofer Damm 222", "zip-code": 12099, "lat": 52.45618, "lon": 13.38352, "planning-area-id": 7400825}}, {"type": "Feature", "geometry": {"type": "Point", "coordinates": [13.38446, 52.45467]}, "properties": {"id": "442390882", "name": "Maximilian Hafenimbiss", "lat": 52.45467, "lon": 13.38446, "planning-area-id": 7400927}}, {"type": "Feature", "geometry": {"type": "Point", "coordinates": [13.38482, 52.45255]}, "properties": {"id": "442391301", "name": "Imbiss Tang", "lat": 52.45255, "lon": 13.38482, "planning-area-id": 7501031}}, {"type": "Feature", "geometry": {"type": "Point", "coordinates": [13.3849, 52.44853]}, "properties": {"id": "442392125", "name": "Mangal", "street": "Mariendorfer Damm 48", "zip-code": 12109, "lat": 52.44853, "lon": 13.3849, "planning-area-id": 7501030}}, {"type": "Feature", "geometry": {"type": "Point", "coordinates": [13.38525, 52.44709]}, "properties": {"id": "442393070", "name": "Basileus Pizza & Birgül Döner", "street": "Mariendorfer Damm 62", "zip-code": 12109, "lat": 52.44709, "lon": 13.38525, "planning-area-id": 7501030}}, {"type": "Feature", "geometry": {"type": "Point", "coordinates": [13.38648, 52.44354]}, "properties": {"id": "442394430", "name": "Dominos", "street": "Mariendorfer Damm 103", "zip-code": 12109, "lat": 52.44354, "lon": 13.38648, "planning-area-id": 7501031}}, {"type": "Feature", "geometry": {"type": "Point", "coordinates": [13.38656, 52.44343]}, "properties": {"id": "442394431", "name": "Kebaphaus", "street": "Mariendorfer Damm 103", "zip-code": 12109, "lat": 52.44343, "lon": 13.38656, "planning-area-id": 7501031}}, {"type": "Feature", "geometry": {"type": "Point", "coordinates": [13.38867, 52.51974]}, "properties": {"id": "443458065", "name": "Nonnas", "lat": 52.51974, "lon": 13.38867, "planning-area-id": 1100206}}, {"type": "Feature", "geometry": {"type": "Point", "coordinates": [13.20647, 52.53807]}, "properties": {"id": "443728420", "name": "Isola Verde", "lat": 52.53807, "lon": 13.20647, "planning-area-id": 5100316}}, {"type": "Feature", "geometry": {"type": "Point", "coordinates": [13.33696, 52.5045]}, "properties": {"id": "445842531", "name": "McDonalds", "street": "Tauentzienstraße 9-12", "zip-code": 10789, "lat": 52.5045, "lon": 13.33696, "planning-area-id": 4501042}}, {"type": "Feature", "geometry": {"type": "Point", "coordinates": [13.44747, 52.46891]}, "properties": {"id": "446899198", "name": "Curry Pelle", "street": "Mittelbuschweg 16-17", "zip-code": 12055, "lat": 52.46891, "lon": 13.44747, "planning-area-id": 8100209}}, {"type": "Feature", "geometry": {"type": "Point", "coordinates": [13.44776, 52.45919]}, "properties": {"id": "447974137", "name": "Z Burger", "lat": 52.45919, "lon": 13.44776, "planning-area-id": 8200623}}, {"type": "Feature", "geometry": {"type": "Point", "coordinates": [13.42444, 52.48664]}, "properties": {"id": "448811286", "name": "Viet Gourmet", "lat": 52.48664, "lon": 13.42444, "planning-area-id": 8100314}}, {"type": "Feature", "geometry": {"type": "Point", "coordinates": [13.41306, 52.54782]}, "properties": {"id": "448913484", "name": "Steinofen Pizza To-Go", "lat": 52.54782, "lon": 13.41306, "planning-area-id": 3601142}}, {"type": "Feature", "geometry": {"type": "Point", "coordinates": [13.19124, 52.53585]}, "properties": {"id": "451613198", "name": "Der Pizzamann", "street": "Seegefelder Straße 41", "zip-code": 13583, "lat": 52.53585, "lon": 13.19124, "planning-area-id": 5100316}}, {"type": "Feature", "geometry": {"type": "Point", "coordinates": [13.27584, 52.4484]}, "properties": {"id": "452106549", "name": "Cơm bụi", "street": "Garystraße 46", "zip-code": 14195, "lat": 52.4484, "lon": 13.27584, "planning-area-id": 6400843}}, {"type": "Feature", "geometry": {"type": "Point", "coordinates": [13.48665, 52.42475]}, "properties": {"id": "452635001", "name": "Sawaddi", "street": "Stubenrauchstraße 129", "lat": 52.42475, "lon": 13.48665, "planning-area-id": 8401243}}, {"type": "Feature", "geometry": {"type": "Point", "coordinates": [13.41246, 52.56304]}, "properties": {"id": "454167246", "name": "Berliner Grillhaus", "street": "Berliner Straße 30", "zip-code": 13189, "lat": 52.56304, "lon": 13.41246, "planning-area-id": 3400826}}, {"type": "Feature", "geometry": {"type": "Point", "coordinates": [13.43528, 52.49101]}, "properties": {"id": "454251011", "name": "Love Deluxe", "street": "Pannierstraße 32", "zip-code": 12047, "lat": 52.49101, "lon": 13.43528, "planning-area-id": 8100312}}, {"type": "Feature", "geometry": {"type": "Point", "coordinates": [13.18881, 52.53695]}, "properties": {"id": "454358577", "name": "Bistro Kübra", "street": "Seegefelder Straße 57", "zip-code": 13583, "lat": 52.53695, "lon": 13.18881, "planning-area-id": 5100316}}, {"type": "Feature", "geometry": {"type": "Point", "coordinates": [13.18855, 52.53707]}, "properties": {"id": "454358584", "lat": 52.53707, "lon": 13.18855, "planning-area-id": 5100316}}, {"type": "Feature", "geometry": {"type": "Point", "coordinates": [13.47991, 52.46101]}, "properties": {"id": "454633657", "name": "Atilas Kebap Haus 2", "street": "Sonnenallee 412", "zip-code": 12437, "lat": 52.46101, "lon": 13.47991, "planning-area-id": 9100304}}, {"type": "Feature", "geometry": {"type": "Point", "coordinates": [13.45712, 52.44239]}, "properties": {"id": "456421031", "name": "Goldhähnchen", "zip-code": 12351, "lat": 52.44239, "lon": 13.45712, "planning-area-id": 8401138}}, {"type": "Feature", "geometry": {"type": "Point", "coordinates": [13.41971, 52.46008]}, "properties": {"id": "458741715", "name": "Big Food", "lat": 52.46008, "lon": 13.41971, "planning-area-id": 7400928}}, {"type": "Feature", "geometry": {"type": "Point", "coordinates": [13.40947, 52.45512]}, "properties": {"id": "458741716", "name": "Bei Ivo", "lat": 52.45512, "lon": 13.40947, "planning-area-id": 7400927}}, {"type": "Feature", "geometry": {"type": "Point", "coordinates": [13.45169, 52.52622]}, "properties": {"id": "459093473", "name": "Piano Piano", "lat": 52.52622, "lon": 13.45169, "planning-area-id": 2500726}}, {"type": "Feature", "geometry": {"type": "Point", "coordinates": [13.40349, 52.58101]}, "properties": {"id": "459671854", "name": "Med Bistro", "lat": 52.58101, "lon": 13.40349, "planning-area-id": 3200206}}, {"type": "Feature", "geometry": {"type": "Point", "coordinates": [13.40275, 52.58365]}, "properties": {"id": "459676366", "name": "B&B Focaccia", "street": "Kuckhoffstraße 1", "lat": 52.58365, "lon": 13.40275, "planning-area-id": 3200206}}, {"type": "Feature", "geometry": {"type": "Point", "coordinates": [13.46673, 52.46796]}, "properties": {"id": "460199528", "name": "Kölle Pizza", "lat": 52.46796, "lon": 13.46673, "planning-area-id": 8100521}}, {"type": "Feature", "geometry": {"type": "Point", "coordinates": [13.45035, 52.4737]}, "properties": {"id": "461943573", "name": "Schudomaer Grill", "street": "Schudomastraße 9", "zip-code": 12055, "lat": 52.4737, "lon": 13.45035, "planning-area-id": 8100417}}, {"type": "Feature", "geometry": {"type": "Point", "coordinates": [13.42609, 52.46562]}, "properties": {"id": "464764424", "name": "Akram Arabic Diner", "street": "Silbersteinstraße 115", "zip-code": 12051, "lat": 52.46562, "lon": 13.42609, "planning-area-id": 8100105}}, {"type": "Feature", "geometry": {"type": "Point", "coordinates": [13.41943, 52.43348]}, "properties": {"id": "469165337", "name": "Britzer Höhe", "lat": 52.43348, "lon": 13.41943, "planning-area-id": 8200729}}, {"type": "Feature", "geometry": {"type": "Point", "coordinates": [13.4452, 52.46194]}, "properties": {"id": "472372228", "name": "Gül Bistro", "street": "Buschkrugallee 24", "zip-code": 12359, "lat": 52.46194, "lon": 13.4452, "planning-area-id": 8200622}}, {"type": "Feature", "geometry": {"type": "Point", "coordinates": [13.29927, 52.42205]}, "properties": {"id": "473066908", "lat": 52.42205, "lon": 13.29927, "planning-area-id": 6300631}}, {"type": "Feature", "geometry": {"type": "Point", "coordinates": [13.42904, 52.49817]}, "properties": {"id": "474954965", "name": "Chaparro", "street": "Wiener Straße 14a", "zip-code": 10999, "lat": 52.49817, "lon": 13.42904, "planning-area-id": 2300417}}, {"type": "Feature", "geometry": {"type": "Point", "coordinates": [13.44139, 52.46941]}, "properties": {"id": "477403949", "name": "Haci Baba", "street": "Karl-Marx-Straße 228", "zip-code": 12055, "lat": 52.46941, "lon": 13.44139, "planning-area-id": 8100208}}, {"type": "Feature", "geometry": {"type": "Point", "coordinates": [13.44215, 52.46957]}, "properties": {"id": "477410513", "name": "Pizza Pasta", "lat": 52.46957, "lon": 13.44215, "planning-area-id": 8100417}}, {"type": "Feature", "geometry": {"type": "Point", "coordinates": [13.44284, 52.46792]}, "properties": {"id": "477454200", "name": "Lahn-Grill", "lat": 52.46792, "lon": 13.44284, "planning-area-id": 8100209}}, {"type": "Feature", "geometry": {"type": "Point", "coordinates": [13.45635, 52.51073]}, "properties": {"id": "477558654", "name": "Döner Dach Aceto Lokanta", "lat": 52.51073, "lon": 13.45635, "planning-area-id": 2500833}}, {"type": "Feature", "geometry": {"type": "Point", "coordinates": [13.49222, 52.51222]}, "properties": {"id": "479552606", "name": "Grillhaus", "lat": 52.51222, "lon": 13.49222, "planning-area-id": 11300724}}, {"type": "Feature", "geometry": {"type": "Point", "coordinates": [13.41333, 52.54956]}, "properties": {"id": "485936333", "name": "Alain Snack", "street": "Schönhauser Allee 116a", "zip-code": 10439, "lat": 52.54956, "lon": 13.41333, "planning-area-id": 3601142}}, {"type": "Feature", "geometry": {"type": "Point", "coordinates": [13.33641, 52.61819]}, "properties": {"id": "492022196", "name": "Kiosk Freibad Lübars", "lat": 52.61819, "lon": 13.33641, "planning-area-id": 12500929}}, {"type": "Feature", "geometry": {"type": "Point", "coordinates": [13.54196, 52.51788]}, "properties": {"id": "493681695", "name": "Currywurst", "lat": 52.51788, "lon": 13.54196, "planning-area-id": 10100311}}, {"type": "Feature", "geometry": {"type": "Point", "coordinates": [13.38381, 52.55139]}, "properties": {"id": "501074606", "name": "Fendi", "lat": 52.55139, "lon": 13.38381, "planning-area-id": 1300733}}, {"type": "Feature", "geometry": {"type": "Point", "coordinates": [13.42441, 52.54397]}, "properties": {"id": "506197878", "name": "Falafel Aladdin", "street": "Stargarder Straße 50", "zip-code": 10437, "lat": 52.54397, "lon": 13.42441, "planning-area-id": 3601348}}, {"type": "Feature", "geometry": {"type": "Point", "coordinates": [13.28151, 52.58914]}, "properties": {"id": "508640816", "name": "Bergmann Pizza", "lat": 52.58914, "lon": 13.28151, "planning-area-id": 12200515}}, {"type": "Feature", "geometry": {"type": "Point", "coordinates": [13.4957, 52.51273]}, "properties": {"id": "509477411", "name": "Bistro", "lat": 52.51273, "lon": 13.4957, "planning-area-id": 11300725}}, {"type": "Feature", "geometry": {"type": "Point", "coordinates": [13.441, 52.4721]}, "properties": {"id": "513958818", "name": "Bistro Phoviet 120", "street": "Karl-Marx-Straße 200", "zip-code": 12055, "lat": 52.4721, "lon": 13.441, "planning-area-id": 8100208}}, {"type": "Feature", "geometry": {"type": "Point", "coordinates": [13.45759, 52.49056]}, "properties": {"id": "515660626", "name": "San Mendoza", "lat": 52.49056, "lon": 13.45759, "planning-area-id": 9100101}}, {"type": "Feature", "geometry": {"type": "Point", "coordinates": [13.51479, 52.5054]}, "properties": {"id": "519223365", "name": "Bistro Legende", "street": "Alfred-Kowalke-Straße 1", "zip-code": 10315, "lat": 52.5054, "lon": 13.51479, "planning-area-id": 11401137}}, {"type": "Feature", "geometry": {"type": "Point", "coordinates": [13.28688, 52.58395]}, "properties": {"id": "519914006", "name": "McDonalds", "street": "Am Borsigturm 2", "zip-code": 13507, "lat": 52.58395, "lon": 13.28688, "planning-area-id": 12200515}}, {"type": "Feature", "geometry": {"type": "Point", "coordinates": [13.33961, 52.4507]}, "properties": {"id": "520575822", "name": "Krasselts Imbiss", "street": "Steglitzer Damm 22", "zip-code": 12169, "lat": 52.4507, "lon": 13.33961, "planning-area-id": 6100205}}, {"type": "Feature", "geometry": {"type": "Point", "coordinates": [13.32059, 52.48194]}, "properties": {"id": "521498877", "name": "Blisse Imbiss", "street": "Blissestraße 37", "zip-code": 10713, "lat": 52.48194, "lon": 13.32059, "planning-area-id": 4501151}}, {"type": "Feature", "geometry": {"type": "Point", "coordinates": [13.275, 52.53661]}, "properties": {"id": "521551504", "name": "Asian Snack", "lat": 52.53661, "lon": 13.275, "planning-area-id": 5300841}}, {"type": "Feature", "geometry": {"type": "Point", "coordinates": [13.47666, 52.50505]}, "properties": {"id": "521990108", "name": "Final Bistro", "street": "Pfarrstraße 116", "lat": 52.50505, "lon": 13.47666, "planning-area-id": 11400927}}, {"type": "Feature", "geometry": {"type": "Point", "coordinates": [13.53901, 52.42116]}, "properties": {"id": "528641088", "name": "Imbiss - Bernd Schulz", "lat": 52.42116, "lon": 13.53901, "planning-area-id": 9300920}}, {"type": "Feature", "geometry": {"type": "Point", "coordinates": [13.35763, 52.54219]}, "properties": {"id": "530715904", "name": "Subzees", "street": "Sprengelstraße 42", "zip-code": 13353, "lat": 52.54219, "lon": 13.35763, "planning-area-id": 1401047}}, {"type": "Feature", "geometry": {"type": "Point", "coordinates": [13.57833, 52.45812]}, "properties": {"id": "538057674", "name": "Asiagourmet", "street": "Bahnhofstraße 33-38", "zip-code": 12555, "lat": 52.45812, "lon": 13.57833, "planning-area-id": 9501939}}, {"type": "Feature", "geometry": {"type": "Point", "coordinates": [13.5765, 52.45846]}, "properties": {"id": "538057886", "name": "Bistro Bonjour", "street": "Bahnhofstraße 33-38", "zip-code": 12555, "lat": 52.45846, "lon": 13.5765, "planning-area-id": 9501939}}, {"type": "Feature", "geometry": {"type": "Point", "coordinates": [13.57646, 52.45807]}, "properties": {"id": "538058019", "name": "Thang Long", "street": "Bahnhofstraße 33-38", "zip-code": 12555, "lat": 52.45807, "lon": 13.57646, "planning-area-id": 9501939}}, {"type": "Feature", "geometry": {"type": "Point", "coordinates": [13.57813, 52.4582]}, "properties": {"id": "538058226", "name": "Center-Grill", "lat": 52.4582, "lon": 13.57813, "planning-area-id": 9501939}}, {"type": "Feature", "geometry": {"type": "Point", "coordinates": [13.57809, 52.45813]}, "properties": {"id": "538058854", "name": "Nordsee", "lat": 52.45813, "lon": 13.57809, "planning-area-id": 9501939}}, {"type": "Feature", "geometry": {"type": "Point", "coordinates": [13.37936, 52.52314]}, "properties": {"id": "538889357", "name": "Sabzi", "street": "Luisenstraße 15", "zip-code": 10117, "lat": 52.52314, "lon": 13.37936, "planning-area-id": 1100308}}, {"type": "Feature", "geometry": {"type": "Point", "coordinates": [13.48752, 52.46573]}, "properties": {"id": "539491861", "name": "Pizzeria Dilara", "street": "Baumschulenstraße 18", "zip-code": 12437, "lat": 52.46573, "lon": 13.48752, "planning-area-id": 9100304}}, {"type": "Feature", "geometry": {"type": "Point", "coordinates": [13.40581, 52.54658]}, "properties": {"id": "539757566", "name": "The Bird", "street": "Am Falkplatz 5", "zip-code": 10437, "lat": 52.54658, "lon": 13.40581, "planning-area-id": 3601142}}, {"type": "Feature", "geometry": {"type": "Point", "coordinates": [13.35951, 52.43405]}, "properties": {"id": "540812448", "name": "Vuong Asia Bistro", "lat": 52.43405, "lon": 13.35951, "planning-area-id": 6200316}}, {"type": "Feature", "geometry": {"type": "Point", "coordinates": [13.41494, 52.54086]}, "properties": {"id": "541076047", "name": "Papa Nô", "street": "Danziger Straße 11", "zip-code": 10435, "lat": 52.54086, "lon": 13.41494, "planning-area-id": 3601347}}, {"type": "Feature", "geometry": {"type": "Point", "coordinates": [13.41667, 52.5406]}, "properties": {"id": "541076899", "name": "Cem Grill", "street": "Schliemannstraße 1", "zip-code": 10437, "lat": 52.5406, "lon": 13.41667, "planning-area-id": 3601347}}, {"type": "Feature", "geometry": {"type": "Point", "coordinates": [13.41956, 52.54014]}, "properties": {"id": "541077707", "name": "Nymami", "street": "Danziger Straße 43", "zip-code": 10435, "lat": 52.54014, "lon": 13.41956, "planning-area-id": 3601348}}, {"type": "Feature", "geometry": {"type": "Point", "coordinates": [13.41766, 52.54043]}, "properties": {"id": "541077983", "name": "Red Dragon", "street": "Danziger Straße 29", "zip-code": 10435, "lat": 52.54043, "lon": 13.41766, "planning-area-id": 3601347}}, {"type": "Feature", "geometry": {"type": "Point", "coordinates": [13.33092, 52.53079]}, "properties": {"id": "546290481", "name": "Darbar", "street": "Wiclefstraße 42", "zip-code": 10551, "lat": 52.53079, "lon": 13.33092, "planning-area-id": 1200519}}, {"type": "Feature", "geometry": {"type": "Point", "coordinates": [13.47438, 52.51421]}, "properties": {"id": "549737016", "name": "Nordsee", "street": "Frankfurter Allee 111", "zip-code": 10247, "lat": 52.51421, "lon": 13.47438, "planning-area-id": 2500729}}, {"type": "Feature", "geometry": {"type": "Point", "coordinates": [13.49835, 52.54402]}, "properties": {"id": "549760116", "name": "DaLis", "street": "Große-Leege-Straße 97/98", "zip-code": 13055, "lat": 52.54402, "lon": 13.49835, "planning-area-id": 11200513}}, {"type": "Feature", "geometry": {"type": "Point", "coordinates": [13.51141, 52.4628]}, "properties": {"id": "549932966", "name": "Pizza & Pasta", "lat": 52.4628, "lon": 13.51141, "planning-area-id": 9200510}}, {"type": "Feature", "geometry": {"type": "Point", "coordinates": [13.4929, 52.54449]}, "properties": {"id": "551333488", "name": "Asia FastFood", "lat": 52.54449, "lon": 13.4929, "planning-area-id": 11200512}}, {"type": "Feature", "geometry": {"type": "Point", "coordinates": [13.49251, 52.5443]}, "properties": {"id": "551333687", "name": "Konrad´s Kebab House", "street": "Konrad-Wolf-Straße 22", "zip-code": 13055, "lat": 52.5443, "lon": 13.49251, "planning-area-id": 11200512}}, {"type": "Feature", "geometry": {"type": "Point", "coordinates": [13.49125, 52.54316]}, "properties": {"id": "551334510", "name": "Kobani Bistro", "street": "Konrad-Wolf-Straße 109", "lat": 52.54316, "lon": 13.49125, "planning-area-id": 11200513}}, {"type": "Feature", "geometry": {"type": "Point", "coordinates": [13.32873, 52.53308]}, "properties": {"id": "557918947", "name": "Beussel Grill", "lat": 52.53308, "lon": 13.32873, "planning-area-id": 1200517}}, {"type": "Feature", "geometry": {"type": "Point", "coordinates": [13.50364, 52.54866]}, "properties": {"id": "559630083", "name": "Fantasia Pizza Döner", "street": "Hauptstraße 9A", "lat": 52.54866, "lon": 13.50364, "planning-area-id": 11200411}}, {"type": "Feature", "geometry": {"type": "Point", "coordinates": [13.4174, 52.54696]}, "properties": {"id": "560145209", "name": "1001 Falafel", "street": "Stargarder Straße 73", "zip-code": 10437, "lat": 52.54696, "lon": 13.4174, "planning-area-id": 3601346}}, {"type": "Feature", "geometry": {"type": "Point", "coordinates": [13.43545, 52.5111]}, "properties": {"id": "566398011", "name": "Bistro International", "street": "Erich-Steinfurth-Straße 7", "zip-code": 10243, "lat": 52.5111, "lon": 13.43545, "planning-area-id": 2400623}}, {"type": "Feature", "geometry": {"type": "Point", "coordinates": [13.41472, 52.54578]}, "properties": {"id": "567167721", "name": "Pizza Star", "street": "Greifenhagener Straße 62", "zip-code": 10437, "lat": 52.54578, "lon": 13.41472, "planning-area-id": 3601346}}, {"type": "Feature", "geometry": {"type": "Point", "coordinates": [13.51414, 52.46488]}, "properties": {"id": "570225669", "name": "Mega Bistro", "street": "Griechische Allee 1", "zip-code": 12459, "lat": 52.46488, "lon": 13.51414, "planning-area-id": 9200511}}, {"type": "Feature", "geometry": {"type": "Point", "coordinates": [13.47277, 52.51235]}, "properties": {"id": "573384943", "name": "China & Thai Bistro Kokos", "lat": 52.51235, "lon": 13.47277, "planning-area-id": 2500832}}, {"type": "Feature", "geometry": {"type": "Point", "coordinates": [13.47257, 52.51368]}, "properties": {"id": "573384944", "name": "Center Grill", "lat": 52.51368, "lon": 13.47257, "planning-area-id": 2500832}}, {"type": "Feature", "geometry": {"type": "Point", "coordinates": [13.50352, 52.54795]}, "properties": {"id": "576282005", "name": "Asia Bistro Storchenhof", "lat": 52.54795, "lon": 13.50352, "planning-area-id": 11200411}}, {"type": "Feature", "geometry": {"type": "Point", "coordinates": [13.50376, 52.54795]}, "properties": {"id": "576282007", "name": "Zum Adebar", "zip-code": 13055, "lat": 52.54795, "lon": 13.50376, "planning-area-id": 11200411}}, {"type": "Feature", "geometry": {"type": "Point", "coordinates": [13.41582, 52.5183]}, "properties": {"id": "578429141", "name": "McDonalds", "street": "Grunerstraße 20", "zip-code": 10179, "lat": 52.5183, "lon": 13.41582, "planning-area-id": 1100311}}, {"type": "Feature", "geometry": {"type": "Point", "coordinates": [13.37114, 52.42221]}, "properties": {"id": "582854281", "name": "Jörgs Curry Container", "street": "Hranitzkystraße 15", "zip-code": 12277, "lat": 52.42221, "lon": 13.37114, "planning-area-id": 7601237}}, {"type": "Feature", "geometry": {"type": "Point", "coordinates": [13.39556, 52.38682]}, "properties": {"id": "586372971", "name": "Am Mittelmeer", "street": "Prinzessinnenstraße 2", "zip-code": 12307, "lat": 52.38682, "lon": 13.39556, "planning-area-id": 7601546}}, {"type": "Feature", "geometry": {"type": "Point", "coordinates": [13.45308, 52.54842]}, "properties": {"id": "588557948", "name": "Oppen’s Diner & Fleischerei", "street": "Mahlerstraße 3", "zip-code": 13088, "lat": 52.54842, "lon": 13.45308, "planning-area-id": 3500936}}, {"type": "Feature", "geometry": {"type": "Point", "coordinates": [13.48093, 52.52326]}, "properties": {"id": "592353523", "name": "Alanya Bistro", "lat": 52.52326, "lon": 13.48093, "planning-area-id": 11300620}}, {"type": "Feature", "geometry": {"type": "Point", "coordinates": [13.52011, 52.55354]}, "properties": {"id": "600109639", "name": "CurryEck63", "lat": 52.55354, "lon": 13.52011, "planning-area-id": 11200410}}, {"type": "Feature", "geometry": {"type": "Point", "coordinates": [13.41288, 52.52046]}, "properties": {"id": "602315661", "name": "Asiagourmet", "lat": 52.52046, "lon": 13.41288, "planning-area-id": 1100310}}, {"type": "Feature", "geometry": {"type": "Point", "coordinates": [13.4127, 52.52061]}, "properties": {"id": "602315662", "name": "KFC", "street": "Dircksenstraße 117", "zip-code": 10178, "lat": 52.52061, "lon": 13.4127, "planning-area-id": 1100310}}, {"type": "Feature", "geometry": {"type": "Point", "coordinates": [13.41282, 52.5205]}, "properties": {"id": "602315665", "name": "Döner Curry", "lat": 52.5205, "lon": 13.41282, "planning-area-id": 1100310}}, {"type": "Feature", "geometry": {"type": "Point", "coordinates": [13.45129, 52.51052]}, "properties": {"id": "603034328", "name": "Oase", "street": "Warschauer Straße 25", "zip-code": 10243, "lat": 52.51052, "lon": 13.45129, "planning-area-id": 2400624}}, {"type": "Feature", "geometry": {"type": "Point", "coordinates": [13.27169, 52.53687]}, "properties": {"id": "603742941", "name": "Grillimbiss", "lat": 52.53687, "lon": 13.27169, "planning-area-id": 5300841}}, {"type": "Feature", "geometry": {"type": "Point", "coordinates": [13.4796, 52.47048]}, "properties": {"id": "608516548", "name": "Asia Snack", "lat": 52.47048, "lon": 13.4796, "planning-area-id": 9100304}}, {"type": "Feature", "geometry": {"type": "Point", "coordinates": [13.31196, 52.58472]}, "properties": {"id": "608658018", "name": "Imbiss", "street": "Holzhauser Straße 140 e", "zip-code": 13509, "lat": 52.58472, "lon": 13.31196, "planning-area-id": 12500825}}, {"type": "Feature", "geometry": {"type": "Point", "coordinates": [13.40337, 52.38678]}, "properties": {"id": "610197807", "name": "Curry-Wolf", "street": "Bahnhofstraße 15", "zip-code": 12305, "lat": 52.38678, "lon": 13.40337, "planning-area-id": 7601544}}, {"type": "Feature", "geometry": {"type": "Point", "coordinates": [13.40163, 52.41304]}, "properties": {"id": "610198319", "name": "Heikes Holzkohlengrill", "street": "Lichtenrader Damm 12", "lat": 52.41304, "lon": 13.40163, "planning-area-id": 7601442}}, {"type": "Feature", "geometry": {"type": "Point", "coordinates": [13.30737, 52.50513]}, "properties": {"id": "610489620", "name": "China Pfanne", "lat": 52.50513, "lon": 13.30737, "planning-area-id": 4300623}}, {"type": "Feature", "geometry": {"type": "Point", "coordinates": [13.32599, 52.5219]}, "properties": {"id": "613536373", "name": "CoffeeCake&Food", "street": "Helmholtzstraße 27", "zip-code": 10587, "lat": 52.5219, "lon": 13.32599, "planning-area-id": 4300620}}, {"type": "Feature", "geometry": {"type": "Point", "coordinates": [13.32721, 52.52211]}, "properties": {"id": "613536377", "name": "The little Bangkok in Berlin", "street": "Helmholtzstraße 22", "zip-code": 10587, "lat": 52.52211, "lon": 13.32721, "planning-area-id": 4300620}}, {"type": "Feature", "geometry": {"type": "Point", "coordinates": [13.31292, 52.57013]}, "properties": {"id": "614490869", "name": "Imbiss König", "street": "Eichborndamm 22", "zip-code": 13403, "lat": 52.57013, "lon": 13.31292, "planning-area-id": 12200309}}, {"type": "Feature", "geometry": {"type": "Point", "coordinates": [13.44346, 52.50001]}, "properties": {"id": "615020654", "name": "Curry 7", "lat": 52.50001, "lon": 13.44346, "planning-area-id": 2300419}}, {"type": "Feature", "geometry": {"type": "Point", "coordinates": [13.43191, 52.48229]}, "properties": {"id": "615607317", "name": "McDonalds", "lat": 52.48229, "lon": 13.43191, "planning-area-id": 8100206}}, {"type": "Feature", "geometry": {"type": "Point", "coordinates": [13.31458, 52.41719]}, "properties": {"id": "615952483", "name": "LQ Sushibar-Asiawok", "lat": 52.41719, "lon": 13.31458, "planning-area-id": 6200419}}, {"type": "Feature", "geometry": {"type": "Point", "coordinates": [13.38705, 52.54944]}, "properties": {"id": "616244451", "name": "Curry-Baude", "street": "Badstraße 1-5", "zip-code": 13357, "lat": 52.54944, "lon": 13.38705, "planning-area-id": 1300733}}, {"type": "Feature", "geometry": {"type": "Point", "coordinates": [13.32847, 52.52786]}, "properties": {"id": "616921896", "name": "Aras", "lat": 52.52786, "lon": 13.32847, "planning-area-id": 1200518}}, {"type": "Feature", "geometry": {"type": "Point", "coordinates": [13.33533, 52.52656]}, "properties": {"id": "617630720", "name": "La Döner Vita", "lat": 52.52656, "lon": 13.33533, "planning-area-id": 1200521}}, {"type": "Feature", "geometry": {"type": "Point", "coordinates": [13.32846, 52.52763]}, "properties": {"id": "617630780", "name": "Döner 21", "lat": 52.52763, "lon": 13.32846, "planning-area-id": 1200518}}, {"type": "Feature", "geometry": {"type": "Point", "coordinates": [13.34251, 52.53215]}, "properties": {"id": "617987239", "name": "Birken-Eck", "lat": 52.53215, "lon": 13.34251, "planning-area-id": 1200520}}, {"type": "Feature", "geometry": {"type": "Point", "coordinates": [13.33051, 52.50551]}, "properties": {"id": "618609701", "name": "Biers Mini 7", "street": "Kantstraße 7", "zip-code": 10623, "lat": 52.50551, "lon": 13.33051, "planning-area-id": 4300622}}, {"type": "Feature", "geometry": {"type": "Point", "coordinates": [13.31879, 52.50108]}, "properties": {"id": "618613702", "name": "Biers Kudamm 195", "zip-code": 10707, "lat": 52.50108, "lon": 13.31879, "planning-area-id": 4501041}}, {"type": "Feature", "geometry": {"type": "Point", "coordinates": [13.43802, 52.48295]}, "properties": {"id": "620704410", "name": "Pizza Pallazzo", "lat": 52.48295, "lon": 13.43802, "planning-area-id": 8100312}}, {"type": "Feature", "geometry": {"type": "Point", "coordinates": [13.4366, 52.48361]}, "properties": {"id": "620704417", "name": "Al-Pascha", "street": "Sonnenallee 77", "lat": 52.48361, "lon": 13.4366, "planning-area-id": 8100312}}, {"type": "Feature", "geometry": {"type": "Point", "coordinates": [13.44531, 52.44558]}, "properties": {"id": "620850020", "name": "Sumak", "lat": 52.44558, "lon": 13.44531, "planning-area-id": 8200727}}, {"type": "Feature", "geometry": {"type": "Point", "coordinates": [13.355, 52.48741]}, "properties": {"id": "623350251", "name": "Schüsseldienst", "street": "Akazienstraße 7", "zip-code": 10823, "lat": 52.48741, "lon": 13.355, "planning-area-id": 7200409}}, {"type": "Feature", "geometry": {"type": "Point", "coordinates": [13.33015, 52.52744]}, "properties": {"id": "624646233", "name": "Green 56", "street": "Turmstraße 56", "zip-code": 10551, "lat": 52.52744, "lon": 13.33015, "planning-area-id": 1200519}}, {"type": "Feature", "geometry": {"type": "Point", "coordinates": [13.38694, 52.55]}, "properties": {"id": "627037219", "name": "Döner Center", "street": "Behmstraße 3", "lat": 52.55, "lon": 13.38694, "planning-area-id": 1300733}}, {"type": "Feature", "geometry": {"type": "Point", "coordinates": [13.38426, 52.55109]}, "properties": {"id": "627415721", "name": "Yesil Fırın", "lat": 52.55109, "lon": 13.38426, "planning-area-id": 1300733}}, {"type": "Feature", "geometry": {"type": "Point", "coordinates": [13.38126, 52.46903]}, "properties": {"id": "630430814", "name": "Kantine Ringbahnstraße", "street": "Ringbahnstraße 96", "zip-code": 12103, "lat": 52.46903, "lon": 13.38126, "planning-area-id": 7400824}}, {"type": "Feature", "geometry": {"type": "Point", "coordinates": [13.43122, 52.49867]}, "properties": {"id": "632298538", "name": "Rissani", "street": "Spreewaldplatz 4-6", "zip-code": 10999, "lat": 52.49867, "lon": 13.43122, "planning-area-id": 2300417}}, {"type": "Feature", "geometry": {"type": "Point", "coordinates": [13.57244, 52.40914]}, "properties": {"id": "634882639", "name": "Bistro Varna", "lat": 52.40914, "lon": 13.57244, "planning-area-id": 9301024}}, {"type": "Feature", "geometry": {"type": "Point", "coordinates": [13.56011, 52.40449]}, "properties": {"id": "634882660", "name": "Paradies Grill", "street": "Paradiesstraße 212", "zip-code": 12526, "lat": 52.40449, "lon": 13.56011, "planning-area-id": 9301024}}, {"type": "Feature", "geometry": {"type": "Point", "coordinates": [13.32628, 52.46235]}, "properties": {"id": "635820528", "name": "Burgermeister", "street": "Schloßstraße 117", "zip-code": 12163, "lat": 52.46235, "lon": 13.32628, "planning-area-id": 6100103}}, {"type": "Feature", "geometry": {"type": "Point", "coordinates": [13.2825, 52.45141]}, "properties": {"id": "637034927", "name": "Oh my Bap", "lat": 52.45141, "lon": 13.2825, "planning-area-id": 6400844}}, {"type": "Feature", "geometry": {"type": "Point", "coordinates": [13.4961, 52.50603]}, "properties": {"id": "639631252", "name": "AVCI Café & Bistro", "lat": 52.50603, "lon": 13.4961, "planning-area-id": 11400929}}, {"type": "Feature", "geometry": {"type": "Point", "coordinates": [13.49738, 52.50887]}, "properties": {"id": "639631282", "name": "AVCI Bistro", "lat": 52.50887, "lon": 13.49738, "planning-area-id": 11400929}}, {"type": "Feature", "geometry": {"type": "Point", "coordinates": [13.53919, 52.52811]}, "properties": {"id": "643073980", "name": "Dominos", "street": "Helene-Weigel-Platz 5", "zip-code": 12681, "lat": 52.52811, "lon": 13.53919, "planning-area-id": 10100312}}, {"type": "Feature", "geometry": {"type": "Point", "coordinates": [13.45478, 52.42975]}, "properties": {"id": "643227698", "name": "Burgermeister", "lat": 52.42975, "lon": 13.45478, "planning-area-id": 8300934}}, {"type": "Feature", "geometry": {"type": "Point", "coordinates": [13.38762, 52.54963]}, "properties": {"id": "643509394", "name": "Dunkin", "street": "Badstraße 4", "zip-code": 13357, "lat": 52.54963, "lon": 13.38762, "planning-area-id": 1300733}}, {"type": "Feature", "geometry": {"type": "Point", "coordinates": [13.33748, 52.52671]}, "properties": {"id": "645677474", "name": "Smackburger", "lat": 52.52671, "lon": 13.33748, "planning-area-id": 1200520}}, {"type": "Feature", "geometry": {"type": "Point", "coordinates": [13.38773, 52.54961]}, "properties": {"id": "646593037", "name": "Burger Vision", "street": "Badstraße 4", "zip-code": 13357, "lat": 52.54961, "lon": 13.38773, "planning-area-id": 1300733}}, {"type": "Feature", "geometry": {"type": "Point", "coordinates": [13.49833, 52.50981]}, "properties": {"id": "648207420", "name": "Lavendel Viet", "lat": 52.50981, "lon": 13.49833, "planning-area-id": 11400929}}, {"type": "Feature", "geometry": {"type": "Point", "coordinates": [13.48101, 52.4789]}, "properties": {"id": "650056055", "name": "Asia Imbiss", "street": "Dammweg 56", "zip-code": 12435, "lat": 52.4789, "lon": 13.48101, "planning-area-id": 9100203}}, {"type": "Feature", "geometry": {"type": "Point", "coordinates": [13.43594, 52.42464]}, "properties": {"id": "652049349", "name": "Dominos", "lat": 52.42464, "lon": 13.43594, "planning-area-id": 8200730}}, {"type": "Feature", "geometry": {"type": "Point", "coordinates": [13.43635, 52.42337]}, "properties": {"id": "652049353", "name": "Master of Döner", "street": "Alt-Buckow 11", "zip-code": 12349, "lat": 52.42337, "lon": 13.43635, "planning-area-id": 8200832}}, {"type": "Feature", "geometry": {"type": "Point", "coordinates": [13.53774, 52.52782]}, "properties": {"id": "652785190", "name": "Miran Bistro", "lat": 52.52782, "lon": 13.53774, "planning-area-id": 10100312}}, {"type": "Feature", "geometry": {"type": "Point", "coordinates": [13.4024, 52.52849]}, "properties": {"id": "652880708", "name": "Food Brother", "street": "Rosenthaler Straße 67", "zip-code": 10119, "lat": 52.52849, "lon": 13.4024, "planning-area-id": 1100309}}, {"type": "Feature", "geometry": {"type": "Point", "coordinates": [13.60795, 52.53938]}, "properties": {"id": "655118060", "name": "Call a Pizza", "street": "Quedlinburger Straße 16", "zip-code": 12627, "lat": 52.53938, "lon": 13.60795, "planning-area-id": 10200421}}, {"type": "Feature", "geometry": {"type": "Point", "coordinates": [13.32307, 52.4589]}, "properties": {"id": "658612629", "name": "Zur Bratpfanne", "zip-code": 12163, "lat": 52.4589, "lon": 13.32307, "planning-area-id": 6100102}}, {"type": "Feature", "geometry": {"type": "Point", "coordinates": [13.37075, 52.42282]}, "properties": {"id": "659034066", "name": "Marienfelder Bistro", "lat": 52.42282, "lon": 13.37075, "planning-area-id": 7601236}}, {"type": "Feature", "geometry": {"type": "Point", "coordinates": [13.28319, 52.44702]}, "properties": {"id": "660130778", "name": "Mensa Shokudō", "street": "Vant-Hoff-Straße 6", "zip-code": 14195, "lat": 52.44702, "lon": 13.28319, "planning-area-id": 6400843}}, {"type": "Feature", "geometry": {"type": "Point", "coordinates": [13.30577, 52.51029]}, "properties": {"id": "661126952", "name": "Yuppis", "street": "Wilmersdorfer Straße 129", "zip-code": 10627, "lat": 52.51029, "lon": 13.30577, "planning-area-id": 4300623}}, {"type": "Feature", "geometry": {"type": "Point", "coordinates": [13.40123, 52.41499]}, "properties": {"id": "662086926", "name": "Barlys", "lat": 52.41499, "lon": 13.40123, "planning-area-id": 8200831}}, {"type": "Feature", "geometry": {"type": "Point", "coordinates": [13.31219, 52.48058]}, "properties": {"id": "663298045", "name": "Sila Grillhaus", "lat": 52.48058, "lon": 13.31219, "planning-area-id": 4501148}}, {"type": "Feature", "geometry": {"type": "Point", "coordinates": [13.28561, 52.47946]}, "properties": {"id": "663611904", "name": "Mariannes Imbiss", "lat": 52.47946, "lon": 13.28561, "planning-area-id": 4400830}}, {"type": "Feature", "geometry": {"type": "Point", "coordinates": [13.50756, 52.43925]}, "properties": {"id": "664165956", "name": "Segelfliegerklause", "lat": 52.43925, "lon": 13.50756, "planning-area-id": 9100409}}, {"type": "Feature", "geometry": {"type": "Point", "coordinates": [13.29246, 52.475]}, "properties": {"id": "664244057", "name": "Adana Imbiss", "street": "Breite Straße 20", "zip-code": 14199, "lat": 52.475, "lon": 13.29246, "planning-area-id": 4400832}}, {"type": "Feature", "geometry": {"type": "Point", "coordinates": [13.27563, 52.5369]}, "properties": {"id": "665267032", "name": "Manous Schlemmerbude", "lat": 52.5369, "lon": 13.27563, "planning-area-id": 5300841}}, {"type": "Feature", "geometry": {"type": "Point", "coordinates": [13.33642, 52.50398]}, "properties": {"id": "665535090", "name": "Zaddys", "street": "Tauentzienstraße 13-13a", "zip-code": 10789, "lat": 52.50398, "lon": 13.33642, "planning-area-id": 4501042}}, {"type": "Feature", "geometry": {"type": "Point", "coordinates": [13.57205, 52.41267]}, "properties": {"id": "666348236", "name": "Cua-Tung", "lat": 52.41267, "lon": 13.57205, "planning-area-id": 9301024}}, {"type": "Feature", "geometry": {"type": "Point", "coordinates": [13.26064, 52.51594]}, "properties": {"id": "667211384", "name": "Westend Grill", "lat": 52.51594, "lon": 13.26064, "planning-area-id": 4200310}}, {"type": "Feature", "geometry": {"type": "Point", "coordinates": [13.25938, 52.43017]}, "properties": {"id": "667445242", "name": "Efes", "lat": 52.43017, "lon": 13.25938, "planning-area-id": 6300526}}, {"type": "Feature", "geometry": {"type": "Point", "coordinates": [13.40375, 52.52047]}, "properties": {"id": "667859614", "name": "Subway", "street": "Spandauer Straße 3", "zip-code": 10178, "lat": 52.52047, "lon": 13.40375, "planning-area-id": 1100310}}, {"type": "Feature", "geometry": {"type": "Point", "coordinates": [13.38037, 52.55253]}, "properties": {"id": "668071755", "name": "Atis Gemüse Kebap", "street": "Badstraße 49a", "zip-code": 13357, "lat": 52.55253, "lon": 13.38037, "planning-area-id": 1401044}}, {"type": "Feature", "geometry": {"type": "Point", "coordinates": [13.51224, 52.50414]}, "properties": {"id": "668899449", "name": "Memory", "lat": 52.50414, "lon": 13.51224, "planning-area-id": 11401136}}, {"type": "Feature", "geometry": {"type": "Point", "coordinates": [13.49718, 52.52621]}, "properties": {"id": "669716292", "lat": 52.52621, "lon": 13.49718, "planning-area-id": 11300721}}, {"type": "Feature", "geometry": {"type": "Point", "coordinates": [13.46563, 52.5226]}, "properties": {"id": "671481369", "name": "Musti Bistro", "lat": 52.5226, "lon": 13.46563, "planning-area-id": 3601453}}, {"type": "Feature", "geometry": {"type": "Point", "coordinates": [13.46546, 52.52262]}, "properties": {"id": "671487867", "name": "Viet Thai Bistro", "lat": 52.52262, "lon": 13.46546, "planning-area-id": 3601453}}, {"type": "Feature", "geometry": {"type": "Point", "coordinates": [13.47887, 52.51624]}, "properties": {"id": "672897977", "name": "Bistro Kristall M&M", "lat": 52.51624, "lon": 13.47887, "planning-area-id": 11300722}}, {"type": "Feature", "geometry": {"type": "Point", "coordinates": [13.30738, 52.50505]}, "properties": {"id": "673639048", "name": "Tasty Döner 63", "lat": 52.50505, "lon": 13.30738, "planning-area-id": 4501040}}, {"type": "Feature", "geometry": {"type": "Point", "coordinates": [13.39261, 52.54317]}, "properties": {"id": "674019819", "name": "Tatlises Grill", "street": "Brunnenstraße 78", "lat": 52.54317, "lon": 13.39261, "planning-area-id": 1300834}}, {"type": "Feature", "geometry": {"type": "Point", "coordinates": [13.20121, 52.54821]}, "properties": {"id": "674086087", "name": "Maga-Imbiss", "lat": 52.54821, "lon": 13.20121, "planning-area-id": 5100314}}, {"type": "Feature", "geometry": {"type": "Point", "coordinates": [13.20044, 52.54896]}, "properties": {"id": "674086095", "name": "Abbas Bek", "lat": 52.54896, "lon": 13.20044, "planning-area-id": 5100312}}, {"type": "Feature", "geometry": {"type": "Point", "coordinates": [13.19829, 52.53354]}, "properties": {"id": "674108692", "name": "McDonalds", "lat": 52.53354, "lon": 13.19829, "planning-area-id": 5200629}}, {"type": "Feature", "geometry": {"type": "Point", "coordinates": [13.29073, 52.47512]}, "properties": {"id": "678306038", "name": "Viet-Thai Box", "street": "Warnemünder Straße 1", "zip-code": 14199, "lat": 52.47512, "lon": 13.29073, "planning-area-id": 4400832}}, {"type": "Feature", "geometry": {"type": "Point", "coordinates": [13.29255, 52.45788]}, "properties": {"id": "678901090", "name": "Asia-Snack Dahlem", "street": "Königin-Luise-Straße 38", "zip-code": 14195, "lat": 52.45788, "lon": 13.29255, "planning-area-id": 6400843}}, {"type": "Feature", "geometry": {"type": "Point", "coordinates": [13.46017, 52.50973]}, "properties": {"id": "679121519", "name": "Yoyo Foodworld", "street": "Gärtnerstraße 27", "zip-code": 10245, "lat": 52.50973, "lon": 13.46017, "planning-area-id": 2500833}}, {"type": "Feature", "geometry": {"type": "Point", "coordinates": [13.21206, 52.60662]}, "properties": {"id": "679671274", "name": "Linden Baude", "lat": 52.60662, "lon": 13.21206, "planning-area-id": 12400617}}, {"type": "Feature", "geometry": {"type": "Point", "coordinates": [13.4755, 52.51386]}, "properties": {"id": "687026166", "name": "Fresh Go", "lat": 52.51386, "lon": 13.4755, "planning-area-id": 2500729}}, {"type": "Feature", "geometry": {"type": "Point", "coordinates": [13.47551, 52.51391]}, "properties": {"id": "687026182", "name": "Subway", "street": "Frankfurter Allee 113", "zip-code": 10365, "lat": 52.51391, "lon": 13.47551, "planning-area-id": 2500729}}, {"type": "Feature", "geometry": {"type": "Point", "coordinates": [13.35271, 52.48399]}, "properties": {"id": "689563396", "name": "Chibo", "street": "Hauptstraße 128", "zip-code": 10827, "lat": 52.48399, "lon": 13.35271, "planning-area-id": 7200410}}, {"type": "Feature", "geometry": {"type": "Point", "coordinates": [13.36081, 52.49063]}, "properties": {"id": "689563415", "name": "Sufi", "lat": 52.49063, "lon": 13.36081, "planning-area-id": 7200411}}, {"type": "Feature", "geometry": {"type": "Point", "coordinates": [13.35393, 52.4133]}, "properties": {"id": "693289397", "name": "Kebap Club", "lat": 52.4133, "lon": 13.35393, "planning-area-id": 7601340}}, {"type": "Feature", "geometry": {"type": "Point", "coordinates": [13.30763, 52.50422]}, "properties": {"id": "693892023", "name": "Viets", "zip-code": 10629, "lat": 52.50422, "lon": 13.30763, "planning-area-id": 4501040}}, {"type": "Feature", "geometry": {"type": "Point", "coordinates": [13.30767, 52.50409]}, "properties": {"id": "693892030", "name": "Leckere Mahlzeit", "zip-code": 10629, "lat": 52.50409, "lon": 13.30767, "planning-area-id": 4501040}}, {"type": "Feature", "geometry": {"type": "Point", "coordinates": [13.30106, 52.48844]}, "properties": {"id": "695831683", "name": "König Döner", "street": "Hohenzollerndamm 48", "zip-code": 10713, "lat": 52.48844, "lon": 13.30106, "planning-area-id": 4500939}}, {"type": "Feature", "geometry": {"type": "Point", "coordinates": [13.43874, 52.5415]}, "properties": {"id": "697297187", "name": "ISY Dönerpoint", "street": "Greifswalder Straße 166", "zip-code": 10409, "lat": 52.5415, "lon": 13.43874, "planning-area-id": 3601245}}, {"type": "Feature", "geometry": {"type": "Point", "coordinates": [13.4779, 52.50476]}, "properties": {"id": "698789138", "name": "Viktoria Bistro", "lat": 52.50476, "lon": 13.4779, "planning-area-id": 11400927}}, {"type": "Feature", "geometry": {"type": "Point", "coordinates": [13.50729, 52.40352]}, "properties": {"id": "699533699", "name": "Asia Imbiss", "zip-code": 12355, "lat": 52.40352, "lon": 13.50729, "planning-area-id": 8401245}}, {"type": "Feature", "geometry": {"type": "Point", "coordinates": [13.49727, 52.41658]}, "properties": {"id": "699538773", "name": "China Town Thai", "lat": 52.41658, "lon": 13.49727, "planning-area-id": 8401243}}, {"type": "Feature", "geometry": {"type": "Point", "coordinates": [13.32579, 52.49109]}, "properties": {"id": "699851943", "name": "Honey Chicken", "street": "Güntzelstraße 46", "zip-code": 10717, "lat": 52.49109, "lon": 13.32579, "planning-area-id": 4501149}}, {"type": "Feature", "geometry": {"type": "Point", "coordinates": [13.3357, 52.499]}, "properties": {"id": "700103410", "name": "City Imbiss", "street": "Lietzenburger Straße 29", "zip-code": 10789, "lat": 52.499, "lon": 13.3357, "planning-area-id": 4501045}}, {"type": "Feature", "geometry": {"type": "Point", "coordinates": [13.50574, 52.40379]}, "properties": {"id": "700981349", "name": "Pizza Jack", "street": "Elly-Heuss-Knapp-Straße 21", "zip-code": 12355, "lat": 52.40379, "lon": 13.50574, "planning-area-id": 8401245}}, {"type": "Feature", "geometry": {"type": "Point", "coordinates": [13.49551, 52.418]}, "properties": {"id": "701071949", "name": "Burgerzimmer 3", "street": "Alt-Rudow 57", "zip-code": 12357, "lat": 52.418, "lon": 13.49551, "planning-area-id": 8401243}}, {"type": "Feature", "geometry": {"type": "Point", "coordinates": [13.5067, 52.4039]}, "properties": {"id": "702364072", "name": "Döner & Asia", "lat": 52.4039, "lon": 13.5067, "planning-area-id": 8401245}}, {"type": "Feature", "geometry": {"type": "Point", "coordinates": [13.38098, 52.55179]}, "properties": {"id": "703607127", "name": "Ya Hala", "lat": 52.55179, "lon": 13.38098, "planning-area-id": 1300836}}, {"type": "Feature", "geometry": {"type": "Point", "coordinates": [13.3689, 52.54431]}, "properties": {"id": "705023614", "name": "Berlin Midye", "lat": 52.54431, "lon": 13.3689, "planning-area-id": 1300836}}, {"type": "Feature", "geometry": {"type": "Point", "coordinates": [13.48674, 52.6184]}, "properties": {"id": "705573153", "name": "Thai Asia", "lat": 52.6184, "lon": 13.48674, "planning-area-id": 3300411}}, {"type": "Feature", "geometry": {"type": "Point", "coordinates": [13.45302, 52.51925]}, "properties": {"id": "705926405", "name": "Tio Grillhaus", "street": "Petersburger Straße 77", "zip-code": 10249, "lat": 52.51925, "lon": 13.45302, "planning-area-id": 2500726}}, {"type": "Feature", "geometry": {"type": "Point", "coordinates": [13.37839, 52.55061]}, "properties": {"id": "707356120", "name": "Nimet Sofrasi", "street": "Pankstraße 62A", "lat": 52.55061, "lon": 13.37839, "planning-area-id": 1401044}}, {"type": "Feature", "geometry": {"type": "Point", "coordinates": [13.37473, 52.54788]}, "properties": {"id": "707365140", "name": "Adams Burger", "street": "Pankstraße 26", "zip-code": 13357, "lat": 52.54788, "lon": 13.37473, "planning-area-id": 1300836}}, {"type": "Feature", "geometry": {"type": "Point", "coordinates": [13.36717, 52.54466]}, "properties": {"id": "707409465", "name": "Simit 24", "street": "Gerichtstraße 52", "zip-code": 13347, "lat": 52.54466, "lon": 13.36717, "planning-area-id": 1300836}}, {"type": "Feature", "geometry": {"type": "Point", "coordinates": [13.38262, 52.55156]}, "properties": {"id": "711697577", "name": "Hunkar Sofrasi", "street": "Badstraße 57", "zip-code": 13357, "lat": 52.55156, "lon": 13.38262, "planning-area-id": 1300836}}, {"type": "Feature", "geometry": {"type": "Point", "coordinates": [13.32246, 52.48867]}, "properties": {"id": "715203759", "name": "Dominos", "street": "Uhlandstraße 87", "zip-code": 10717, "lat": 52.48867, "lon": 13.32246, "planning-area-id": 4501147}}, {"type": "Feature", "geometry": {"type": "Point", "coordinates": [13.31468, 52.51]}, "properties": {"id": "715911684", "name": "Sing-Le", "street": "Leibnizstraße 20", "zip-code": 10625, "lat": 52.51, "lon": 13.31468, "planning-area-id": 4300624}}, {"type": "Feature", "geometry": {"type": "Point", "coordinates": [13.25273, 52.51569]}, "properties": {"id": "718143686", "name": "Imbiss Olympische Brücke", "street": "Olympische Straße 31", "zip-code": 14052, "lat": 52.51569, "lon": 13.25273, "planning-area-id": 4200205}}, {"type": "Feature", "geometry": {"type": "Point", "coordinates": [13.37918, 52.55269]}, "properties": {"id": "719313894", "name": "Imren", "lat": 52.55269, "lon": 13.37918, "planning-area-id": 1401044}}, {"type": "Feature", "geometry": {"type": "Point", "coordinates": [13.45966, 52.51021]}, "properties": {"id": "723170413", "name": "Burgeramt", "street": "Krossener Straße 22", "zip-code": 10245, "lat": 52.51021, "lon": 13.45966, "planning-area-id": 2500833}}, {"type": "Feature", "geometry": {"type": "Point", "coordinates": [13.37021, 52.5417]}, "properties": {"id": "724014449", "name": "Wedding Grillhaus", "street": "Reinickendorfer Straße 9", "zip-code": 13347, "lat": 52.5417, "lon": 13.37021, "planning-area-id": 1300836}}, {"type": "Feature", "geometry": {"type": "Point", "coordinates": [13.38114, 52.5519]}, "properties": {"id": "724014451", "name": "Akko", "street": "Pankstraße 52", "zip-code": 13357, "lat": 52.5519, "lon": 13.38114, "planning-area-id": 1300836}}, {"type": "Feature", "geometry": {"type": "Point", "coordinates": [13.36886, 52.52457]}, "properties": {"id": "724151408", "name": "Burger King", "street": "Europaplatz 1", "zip-code": 10557, "lat": 52.52457, "lon": 13.36886, "planning-area-id": 1200628}}, {"type": "Feature", "geometry": {"type": "Point", "coordinates": [13.3141, 52.47298]}, "properties": {"id": "725621496", "name": "Streetfood by la vucciria", "street": "Rüdesheimer Straße 8", "zip-code": 14197, "lat": 52.47298, "lon": 13.3141, "planning-area-id": 4400834}}, {"type": "Feature", "geometry": {"type": "Point", "coordinates": [13.31466, 52.47256]}, "properties": {"id": "725621505", "name": "Pizza E Pasta", "street": "Rüdesheimer Straße 9", "zip-code": 14197, "lat": 52.47256, "lon": 13.31466, "planning-area-id": 4400835}}, {"type": "Feature", "geometry": {"type": "Point", "coordinates": [13.53775, 52.52806]}, "properties": {"id": "726643465", "name": "China Imbiss", "zip-code": 12681, "lat": 52.52806, "lon": 13.53775, "planning-area-id": 10100312}}, {"type": "Feature", "geometry": {"type": "Point", "coordinates": [13.40576, 52.54671]}, "properties": {"id": "727814440", "name": "Song Nguu", "street": "Am Falkplatz 5", "zip-code": 10437, "lat": 52.54671, "lon": 13.40576, "planning-area-id": 3601142}}, {"type": "Feature", "geometry": {"type": "Point", "coordinates": [13.35426, 52.49459]}, "properties": {"id": "727852079", "name": "Berlin Burrito Company", "street": "Pallasstraße 21", "zip-code": 10781, "lat": 52.49459, "lon": 13.35426, "planning-area-id": 7100204}}, {"type": "Feature", "geometry": {"type": "Point", "coordinates": [13.38156, 52.55203]}, "properties": {"id": "729587085", "name": "Baba Sultan", "lat": 52.55203, "lon": 13.38156, "planning-area-id": 1300836}}, {"type": "Feature", "geometry": {"type": "Point", "coordinates": [13.38246, 52.55163]}, "properties": {"id": "729587087", "name": "Minze Falafel", "lat": 52.55163, "lon": 13.38246, "planning-area-id": 1300836}}, {"type": "Feature", "geometry": {"type": "Point", "coordinates": [13.31491, 52.49035]}, "properties": {"id": "732413394", "name": "Fattoush", "lat": 52.49035, "lon": 13.31491, "planning-area-id": 4501147}}, {"type": "Feature", "geometry": {"type": "Point", "coordinates": [13.31432, 52.57493]}, "properties": {"id": "735530414", "name": "Imbiß Stube", "lat": 52.57493, "lon": 13.31432, "planning-area-id": 12200310}}, {"type": "Feature", "geometry": {"type": "Point", "coordinates": [13.56797, 52.44467]}, "properties": {"id": "735944534", "name": "Istanbul Grill", "lat": 52.44467, "lon": 13.56797, "planning-area-id": 9200819}}, {"type": "Feature", "geometry": {"type": "Point", "coordinates": [13.4789, 52.5269]}, "properties": {"id": "737202792", "name": "Bistro Max & Moritz", "lat": 52.5269, "lon": 13.4789, "planning-area-id": 11300617}}, {"type": "Feature", "geometry": {"type": "Point", "coordinates": [13.20729, 52.55581]}, "properties": {"id": "740152658", "name": "Havel Bistro", "street": "Streitstraße 80", "zip-code": 13587, "lat": 52.55581, "lon": 13.20729, "planning-area-id": 5100105}}, {"type": "Feature", "geometry": {"type": "Point", "coordinates": [13.46218, 52.42488]}, "properties": {"id": "742015724", "name": "By Murat & Okis", "lat": 52.42488, "lon": 13.46218, "planning-area-id": 8300935}}, {"type": "Feature", "geometry": {"type": "Point", "coordinates": [13.4012, 52.5806]}, "properties": {"id": "746853036", "name": "Yaman Kebab", "lat": 52.5806, "lon": 13.4012, "planning-area-id": 3200206}}, {"type": "Feature", "geometry": {"type": "Point", "coordinates": [13.40132, 52.58061]}, "properties": {"id": "746853056", "name": "Golden Asia", "lat": 52.58061, "lon": 13.40132, "planning-area-id": 3200206}}, {"type": "Feature", "geometry": {"type": "Point", "coordinates": [13.40152, 52.58803]}, "properties": {"id": "747512476", "name": "Palast", "street": "Dietzgenstraße 77", "zip-code": 13156, "lat": 52.58803, "lon": 13.40152, "planning-area-id": 3200205}}, {"type": "Feature", "geometry": {"type": "Point", "coordinates": [13.45302, 52.47344]}, "properties": {"id": "752903320", "name": "Pizza Mimo", "street": "Braunschweiger Straße 12", "zip-code": 12055, "lat": 52.47344, "lon": 13.45302, "planning-area-id": 8100417}}, {"type": "Feature", "geometry": {"type": "Point", "coordinates": [13.41148, 52.5686]}, "properties": {"id": "753328970", "name": "Berliner Currywurst", "lat": 52.5686, "lon": 13.41148, "planning-area-id": 3400723}}, {"type": "Feature", "geometry": {"type": "Point", "coordinates": [13.41794, 52.47994]}, "properties": {"id": "760605073", "name": "Mmaah", "street": "Columbiadamm 160", "zip-code": 10965, "lat": 52.47994, "lon": 13.41794, "planning-area-id": 8100102}}, {"type": "Feature", "geometry": {"type": "Point", "coordinates": [13.574, 52.44507]}, "properties": {"id": "761371630", "name": "Final Bistro", "lat": 52.44507, "lon": 13.574, "planning-area-id": 9401534}}, {"type": "Feature", "geometry": {"type": "Point", "coordinates": [13.35005, 52.54146]}, "properties": {"id": "762607347", "name": "Kubi", "street": "Torfstraße 18", "lat": 52.54146, "lon": 13.35005, "planning-area-id": 1401046}}, {"type": "Feature", "geometry": {"type": "Point", "coordinates": [13.35246, 52.4802]}, "properties": {"id": "765928593", "name": "Döneria", "street": "Dominicusstraße 55", "zip-code": 10827, "lat": 52.4802, "lon": 13.35246, "planning-area-id": 7200410}}, {"type": "Feature", "geometry": {"type": "Point", "coordinates": [13.40868, 52.49008]}, "properties": {"id": "766742191", "name": "Roll Inc.", "street": "Körtestraße 30", "zip-code": 10967, "lat": 52.49008, "lon": 13.40868, "planning-area-id": 2200212}}, {"type": "Feature", "geometry": {"type": "Point", "coordinates": [13.54728, 52.43751]}, "properties": {"id": "766875147", "name": "Adlers Grill", "street": "Dörpfeldstraße 31", "zip-code": 12489, "lat": 52.43751, "lon": 13.54728, "planning-area-id": 9200716}}, {"type": "Feature", "geometry": {"type": "Point", "coordinates": [13.54231, 52.43509]}, "properties": {"id": "766875186", "name": "Adler Burger", "street": "Abtstraße 1", "zip-code": 12489, "lat": 52.43509, "lon": 13.54231, "planning-area-id": 9200716}}, {"type": "Feature", "geometry": {"type": "Point", "coordinates": [13.35882, 52.574]}, "properties": {"id": "769328327", "name": "Erdbeere", "lat": 52.574, "lon": 13.35882, "planning-area-id": 12100103}}, {"type": "Feature", "geometry": {"type": "Point", "coordinates": [13.36323, 52.5665]}, "properties": {"id": "769849996", "name": "Irmak Grillhaus", "lat": 52.5665, "lon": 13.36323, "planning-area-id": 12100102}}, {"type": "Feature", "geometry": {"type": "Point", "coordinates": [13.45822, 52.50986]}, "properties": {"id": "770089184", "name": "No Hablo Español", "street": "Gabriel-Max-Straße 3", "zip-code": 10245, "lat": 52.50986, "lon": 13.45822, "planning-area-id": 2500833}}, {"type": "Feature", "geometry": {"type": "Point", "coordinates": [13.34213, 52.50139]}, "properties": {"id": "771332561", "name": "ViVo", "street": "Wittenbergplatz 1", "zip-code": 10789, "lat": 52.50139, "lon": 13.34213, "planning-area-id": 7100101}}, {"type": "Feature", "geometry": {"type": "Point", "coordinates": [13.34406, 52.5038]}, "properties": {"id": "771332581", "name": "Reva", "street": "Bayreuther Straße 3", "zip-code": 10787, "lat": 52.5038, "lon": 13.34406, "planning-area-id": 7100101}}, {"type": "Feature", "geometry": {"type": "Point", "coordinates": [13.57313, 52.41165]}, "properties": {"id": "773305668", "name": "Grünau Döner & Pizza", "street": "Richterstraße 10", "zip-code": 12526, "lat": 52.41165, "lon": 13.57313, "planning-area-id": 9301025}}, {"type": "Feature", "geometry": {"type": "Point", "coordinates": [13.32202, 52.45856]}, "properties": {"id": "775342927", "name": "Cebo’s Gemüsedöner", "lat": 52.45856, "lon": 13.32202, "planning-area-id": 6100102}}, {"type": "Feature", "geometry": {"type": "Point", "coordinates": [13.41159, 52.54059]}, "properties": {"id": "778710939", "name": "Atix", "street": "Kastanienallee 2", "zip-code": 10435, "lat": 52.54059, "lon": 13.41159, "planning-area-id": 3701554}}, {"type": "Feature", "geometry": {"type": "Point", "coordinates": [13.4113, 52.53982]}, "properties": {"id": "778710954", "name": "KUps Gemüse Kebap", "street": "Kastanienallee 102", "zip-code": 10435, "lat": 52.53982, "lon": 13.4113, "planning-area-id": 3701554}}, {"type": "Feature", "geometry": {"type": "Point", "coordinates": [13.40979, 52.5389]}, "properties": {"id": "778710973", "name": "Habba Habba", "street": "Kastanienallee 15", "zip-code": 10435, "lat": 52.5389, "lon": 13.40979, "planning-area-id": 3701554}}, {"type": "Feature", "geometry": {"type": "Point", "coordinates": [13.34902, 52.48201]}, "properties": {"id": "779158280", "name": "Fresh Bistro", "street": "Hauptstraße 113-115", "zip-code": 10827, "lat": 52.48201, "lon": 13.34902, "planning-area-id": 7200410}}, {"type": "Feature", "geometry": {"type": "Point", "coordinates": [13.41384, 52.54092]}, "properties": {"id": "783442831", "name": "PIZZA ePASTA", "lat": 52.54092, "lon": 13.41384, "planning-area-id": 3601347}}, {"type": "Feature", "geometry": {"type": "Point", "coordinates": [13.41287, 52.54082]}, "properties": {"id": "783442834", "name": "Ali Baba", "lat": 52.54082, "lon": 13.41287, "planning-area-id": 3701555}}, {"type": "Feature", "geometry": {"type": "Point", "coordinates": [13.41307, 52.54105]}, "properties": {"id": "783442844", "name": "Burgeramt", "street": "Danziger Straße 1", "zip-code": 10435, "lat": 52.54105, "lon": 13.41307, "planning-area-id": 3601347}}, {"type": "Feature", "geometry": {"type": "Point", "coordinates": [13.41321, 52.54103]}, "properties": {"id": "783442850", "name": "Bistro Doy Doy", "street": "Danziger Straße 3", "zip-code": 10435, "lat": 52.54103, "lon": 13.41321, "planning-area-id": 3601347}}, {"type": "Feature", "geometry": {"type": "Point", "coordinates": [13.45335, 52.51331]}, "properties": {"id": "791236046", "name": "Co Ha", "lat": 52.51331, "lon": 13.45335, "planning-area-id": 2500833}}, {"type": "Feature", "geometry": {"type": "Point", "coordinates": [13.35902, 52.57303]}, "properties": {"id": "792494423", "name": "Residenz", "lat": 52.57303, "lon": 13.35902, "planning-area-id": 12100205}}, {"type": "Feature", "geometry": {"type": "Point", "coordinates": [13.39643, 52.53731]}, "properties": {"id": "793020072", "name": "Brunnen Dönerhaus", "street": "Brunnenstraße 144", "zip-code": 10115, "lat": 52.53731, "lon": 13.39643, "planning-area-id": 1100415}}, {"type": "Feature", "geometry": {"type": "Point", "coordinates": [13.40265, 52.54033]}, "properties": {"id": "793735854", "name": "Prinzen Falafel", "lat": 52.54033, "lon": 13.40265, "planning-area-id": 3601142}}, {"type": "Feature", "geometry": {"type": "Point", "coordinates": [13.55449, 52.54591]}, "properties": {"id": "794059331", "name": "Myster Döner", "street": "Marzahner Promenade 45", "zip-code": 12679, "lat": 52.54591, "lon": 13.55449, "planning-area-id": 10100210}}, {"type": "Feature", "geometry": {"type": "Point", "coordinates": [13.32219, 52.45568]}, "properties": {"id": "798557599", "name": "Metro Döner", "lat": 52.45568, "lon": 13.32219, "planning-area-id": 6100102}}, {"type": "Feature", "geometry": {"type": "Point", "coordinates": [13.35633, 52.4864]}, "properties": {"id": "802697304", "name": "Noodlebar", "street": "Hauptstraße 21", "zip-code": 10827, "lat": 52.4864, "lon": 13.35633, "planning-area-id": 7200409}}, {"type": "Feature", "geometry": {"type": "Point", "coordinates": [13.31499, 52.44717]}, "properties": {"id": "802697318", "name": "Telepizza", "street": "Hindenburgdamm 78", "zip-code": 12203, "lat": 52.44717, "lon": 13.31499, "planning-area-id": 6300633}}, {"type": "Feature", "geometry": {"type": "Point", "coordinates": [13.43868, 52.54055]}, "properties": {"id": "811216907", "name": "McDonalds", "street": "Greifswalder Straße 80", "zip-code": 10405, "lat": 52.54055, "lon": 13.43868, "planning-area-id": 3601449}}, {"type": "Feature", "geometry": {"type": "Point", "coordinates": [13.36685, 52.58518]}, "properties": {"id": "811250424", "name": "Majesty Grill", "street": "Hauptstraße 9", "zip-code": 13158, "lat": 52.58518, "lon": 13.36685, "planning-area-id": 3400619}}, {"type": "Feature", "geometry": {"type": "Point", "coordinates": [13.2968, 52.44315]}, "properties": {"id": "813918027", "name": "Kristall Imbiss", "street": "Drakestraße 33a", "zip-code": 12205, "lat": 52.44315, "lon": 13.2968, "planning-area-id": 6300633}}, {"type": "Feature", "geometry": {"type": "Point", "coordinates": [13.35379, 52.49665]}, "properties": {"id": "819316490", "name": "Habibi", "street": "Goltzstraße 24", "zip-code": 10781, "lat": 52.49665, "lon": 13.35379, "planning-area-id": 7100102}}, {"type": "Feature", "geometry": {"type": "Point", "coordinates": [13.30383, 52.48169]}, "properties": {"id": "821587321", "name": "Snackpoint Sommerbad Wilmersdorf", "lat": 52.48169, "lon": 13.30383, "planning-area-id": 4400830}}, {"type": "Feature", "geometry": {"type": "Point", "coordinates": [13.22985, 52.44696]}, "properties": {"id": "823311535", "name": "imbiss", "lat": 52.44696, "lon": 13.22985, "planning-area-id": 6400838}}, {"type": "Feature", "geometry": {"type": "Point", "coordinates": [13.41078, 52.56698]}, "properties": {"id": "824826703", "name": "Sultan Grill", "street": "Florastraße 51", "zip-code": 13187, "lat": 52.56698, "lon": 13.41078, "planning-area-id": 3400723}}, {"type": "Feature", "geometry": {"type": "Point", "coordinates": [13.30202, 52.47363]}, "properties": {"id": "825221198", "name": "Wittys", "street": "Wiesbadener Straße 53", "zip-code": 14197, "lat": 52.47363, "lon": 13.30202, "planning-area-id": 4400833}}, {"type": "Feature", "geometry": {"type": "Point", "coordinates": [13.4117, 52.56715]}, "properties": {"id": "828086987", "name": "Bistro Avci", "street": "Florastraße 52", "zip-code": 13187, "lat": 52.56715, "lon": 13.4117, "planning-area-id": 3400826}}, {"type": "Feature", "geometry": {"type": "Point", "coordinates": [13.3071, 52.50682]}, "properties": {"id": "831370024", "name": "Falafel", "street": "Kantstraße 56a", "zip-code": 10627, "lat": 52.50682, "lon": 13.3071, "planning-area-id": 4300623}}, {"type": "Feature", "geometry": {"type": "Point", "coordinates": [13.36653, 52.55236]}, "properties": {"id": "832835231", "name": "First Grillhaus", "street": "Reinickendorfer Straße 70", "zip-code": 13347, "lat": 52.55236, "lon": 13.36653, "planning-area-id": 1401049}}, {"type": "Feature", "geometry": {"type": "Point", "coordinates": [13.36773, 52.55147]}, "properties": {"id": "832835248", "name": "Kebaphaus", "lat": 52.55147, "lon": 13.36773, "planning-area-id": 1401044}}, {"type": "Feature", "geometry": {"type": "Point", "coordinates": [13.36678, 52.55191]}, "properties": {"id": "832835266", "name": "Polat Hähnchengrill", "lat": 52.55191, "lon": 13.36678, "planning-area-id": 1401049}}, {"type": "Feature", "geometry": {"type": "Point", "coordinates": [13.36845, 52.55031]}, "properties": {"id": "832835288", "name": "Call a Pizza", "street": "Reinickendorfer Straße 48", "zip-code": 13347, "lat": 52.55031, "lon": 13.36845, "planning-area-id": 1401044}}, {"type": "Feature", "geometry": {"type": "Point", "coordinates": [13.39478, 52.49142]}, "properties": {"id": "832840928", "name": "Orginal Chicken Gemüse Kebap", "lat": 52.49142, "lon": 13.39478, "planning-area-id": 2200210}}, {"type": "Feature", "geometry": {"type": "Point", "coordinates": [13.39593, 52.4544]}, "properties": {"id": "833955538", "name": "Imbiss bei Ines", "street": "Volkmarstraße 14", "zip-code": 12099, "lat": 52.4544, "lon": 13.39593, "planning-area-id": 7400927}}, {"type": "Feature", "geometry": {"type": "Point", "coordinates": [13.53564, 52.43309]}, "properties": {"id": "837695978", "name": "Fleischimbiss Gut Hesterberg", "street": "Rudower Chaussee 12", "zip-code": 12489, "lat": 52.43309, "lon": 13.53564, "planning-area-id": 9200715}}, {"type": "Feature", "geometry": {"type": "Point", "coordinates": [13.5354, 52.4332]}, "properties": {"id": "837695994", "name": "Döner", "lat": 52.4332, "lon": 13.5354, "planning-area-id": 9200715}}, {"type": "Feature", "geometry": {"type": "Point", "coordinates": [13.51751, 52.44459]}, "properties": {"id": "837696891", "name": "Grillbus", "street": "Groß-Berliner Damm 75", "zip-code": 12487, "lat": 52.44459, "lon": 13.51751, "planning-area-id": 9100409}}, {"type": "Feature", "geometry": {"type": "Point", "coordinates": [13.46615, 52.50601]}, "properties": {"id": "838429712", "name": "Call a Pizza", "street": "Sonntagstraße 11", "lat": 52.50601, "lon": 13.46615, "planning-area-id": 2500834}}, {"type": "Feature", "geometry": {"type": "Point", "coordinates": [13.46739, 52.50502]}, "properties": {"id": "838429769", "name": "LOrient", "lat": 52.50502, "lon": 13.46739, "planning-area-id": 2500834}}, {"type": "Feature", "geometry": {"type": "Point", "coordinates": [13.46776, 52.50471]}, "properties": {"id": "838429798", "name": "Burgers Berlin", "street": "Sonntagstraße 2", "zip-code": 10245, "lat": 52.50471, "lon": 13.46776, "planning-area-id": 2500834}}, {"type": "Feature", "geometry": {"type": "Point", "coordinates": [13.469, 52.5038]}, "properties": {"id": "838440474", "name": "Wurstland", "lat": 52.5038, "lon": 13.469, "planning-area-id": 2500835}}, {"type": "Feature", "geometry": {"type": "Point", "coordinates": [13.36014, 52.48991]}, "properties": {"id": "839083366", "name": "three buddies", "street": "Hauptstraße 159", "zip-code": 10827, "lat": 52.48991, "lon": 13.36014, "planning-area-id": 7200411}}, {"type": "Feature", "geometry": {"type": "Point", "coordinates": [13.40612, 52.56553]}, "properties": {"id": "841530560", "name": "Sahara Imbiss", "street": "Florastraße 67b", "lat": 52.56553, "lon": 13.40612, "planning-area-id": 3400721}}, {"type": "Feature", "geometry": {"type": "Point", "coordinates": [13.513, 52.46753]}, "properties": {"id": "847906246", "name": "Bistro Edison", "street": "Edisonstraße 36B", "zip-code": 12459, "lat": 52.46753, "lon": 13.513, "planning-area-id": 9200510}}, {"type": "Feature", "geometry": {"type": "Point", "coordinates": [13.41936, 52.49927]}, "properties": {"id": "848508705", "name": "Misir Carsisi", "street": "Skalitzer Straße 134", "zip-code": 10999, "lat": 52.49927, "lon": 13.41936, "planning-area-id": 2300314}}, {"type": "Feature", "geometry": {"type": "Point", "coordinates": [13.41735, 52.49953]}, "properties": {"id": "848875729", "name": "7days Finest Fresh Food", "street": "Reichenberger Straße 175", "zip-code": 10999, "lat": 52.49953, "lon": 13.41735, "planning-area-id": 2300314}}, {"type": "Feature", "geometry": {"type": "Point", "coordinates": [13.58671, 52.44111]}, "properties": {"id": "849521578", "name": "Pablo Döner Bistro", "lat": 52.44111, "lon": 13.58671, "planning-area-id": 9401431}}, {"type": "Feature", "geometry": {"type": "Point", "coordinates": [13.36935, 52.42047]}, "properties": {"id": "850619776", "name": "Pizza Max", "lat": 52.42047, "lon": 13.36935, "planning-area-id": 7601237}}, {"type": "Feature", "geometry": {"type": "Point", "coordinates": [13.41458, 52.43411]}, "properties": {"id": "851492635", "name": "Imbiss", "lat": 52.43411, "lon": 13.41458, "planning-area-id": 8200729}}, {"type": "Feature", "geometry": {"type": "Point", "coordinates": [13.422, 52.47868]}, "properties": {"id": "854528522", "name": "Croccante Pizza napoletana", "lat": 52.47868, "lon": 13.422, "planning-area-id": 8100102}}, {"type": "Feature", "geometry": {"type": "Point", "coordinates": [13.32337, 52.46041]}, "properties": {"id": "858273179", "name": "Döner King", "lat": 52.46041, "lon": 13.32337, "planning-area-id": 6100102}}, {"type": "Feature", "geometry": {"type": "Point", "coordinates": [13.31515, 52.515]}, "properties": {"id": "862031027", "name": "Currystation-36", "lat": 52.515, "lon": 13.31515, "planning-area-id": 4300619}}, {"type": "Feature", "geometry": {"type": "Point", "coordinates": [13.47013, 52.50641]}, "properties": {"id": "863962683", "name": "Crunchy", "street": "Boxhagener Straße 68", "zip-code": 10245, "lat": 52.50641, "lon": 13.47013, "planning-area-id": 2500832}}, {"type": "Feature", "geometry": {"type": "Point", "coordinates": [13.46873, 52.50672]}, "properties": {"id": "863962760", "name": "Vöner", "street": "Boxhagener Straße 56", "zip-code": 10245, "lat": 52.50672, "lon": 13.46873, "planning-area-id": 2500834}}, {"type": "Feature", "geometry": {"type": "Point", "coordinates": [13.46958, 52.50571]}, "properties": {"id": "863962803", "name": "Machete", "street": "Neue Bahnhofstraße 29", "zip-code": 10245, "lat": 52.50571, "lon": 13.46958, "planning-area-id": 2500834}}, {"type": "Feature", "geometry": {"type": "Point", "coordinates": [13.47018, 52.50579]}, "properties": {"id": "863962822", "name": "Thron Burger", "street": "Neue Bahnhofstraße 7A", "zip-code": 10245, "lat": 52.50579, "lon": 13.47018, "planning-area-id": 2500834}}, {"type": "Feature", "geometry": {"type": "Point", "coordinates": [13.47021, 52.50639]}, "properties": {"id": "863962824", "name": "Best of Grill", "street": "Boxhagener Straße 68", "zip-code": 10245, "lat": 52.50639, "lon": 13.47021, "planning-area-id": 2500832}}, {"type": "Feature", "geometry": {"type": "Point", "coordinates": [13.46907, 52.50659]}, "properties": {"id": "863962932", "name": "Happy Asia", "street": "Boxhagener Straße 57", "zip-code": 10245, "lat": 52.50659, "lon": 13.46907, "planning-area-id": 2500834}}, {"type": "Feature", "geometry": {"type": "Point", "coordinates": [13.39474, 52.46514]}, "properties": {"id": "864945529", "name": "Birecik Döner Kebab", "lat": 52.46514, "lon": 13.39474, "planning-area-id": 7400927}}, {"type": "Feature", "geometry": {"type": "Point", "coordinates": [13.41757, 52.49956]}, "properties": {"id": "865949811", "name": "Cem’s Diner Burgerhouse", "street": "Reichenberger Straße 174", "zip-code": 10999, "lat": 52.49956, "lon": 13.41757, "planning-area-id": 2300314}}, {"type": "Feature", "geometry": {"type": "Point", "coordinates": [13.41788, 52.49975]}, "properties": {"id": "866007372", "name": "Huy Hoang", "street": "Adalbertstraße 98", "zip-code": 10999, "lat": 52.49975, "lon": 13.41788, "planning-area-id": 2300314}}, {"type": "Feature", "geometry": {"type": "Point", "coordinates": [13.41375, 52.5029]}, "properties": {"id": "866013501", "name": "Mimatoha", "street": "Oranienstraße 47", "zip-code": 10969, "lat": 52.5029, "lon": 13.41375, "planning-area-id": 2100104}}, {"type": "Feature", "geometry": {"type": "Point", "coordinates": [13.41667, 52.49943]}, "properties": {"id": "866021764", "name": "Izmir Köftecisi Konak Grill", "street": "Reichenberger Straße 10", "zip-code": 10999, "lat": 52.49943, "lon": 13.41667, "planning-area-id": 2100105}}, {"type": "Feature", "geometry": {"type": "Point", "coordinates": [13.41859, 52.50009]}, "properties": {"id": "867855171", "name": "Lezzet Grill", "zip-code": 10999, "lat": 52.50009, "lon": 13.41859, "planning-area-id": 2300314}}, {"type": "Feature", "geometry": {"type": "Point", "coordinates": [13.41902, 52.50146]}, "properties": {"id": "871561387", "name": "falafelwerk", "street": "Oranienstraße 30", "zip-code": 10999, "lat": 52.50146, "lon": 13.41902, "planning-area-id": 2300314}}, {"type": "Feature", "geometry": {"type": "Point", "coordinates": [13.41791, 52.49997]}, "properties": {"id": "871641846", "name": "Taka Fischgrill Stube", "lat": 52.49997, "lon": 13.41791, "planning-area-id": 2300314}}, {"type": "Feature", "geometry": {"type": "Point", "coordinates": [13.41726, 52.49954]}, "properties": {"id": "871641848", "name": "Orient Eck", "lat": 52.49954, "lon": 13.41726, "planning-area-id": 2300314}}, {"type": "Feature", "geometry": {"type": "Point", "coordinates": [13.42315, 52.4999]},