{"type": "FeatureCollection", "features": [{"type": "Feature", "geometry": {"type": "Point", "coordinates": [13.34751, 52.53124]}, "properties": {"id": "29071031", "name": "Bruno-Lösche-Bibliothek", "street": "Perleberger Straße 33", "zip-code": 10559, "lat": 52.53124, "lon": 13.34751, "planning-area-id": 1200623}}, {"type": "Feature", "geometry": {"type": "Point", "coordinates": [13.47083, 52.53077]}, "properties": {"id": "60848456", "name": "Anton-Saefkow-Bibliothek", "street": "Anton-Saefkow-Platz 14", "zip-code": 10369, "lat": 52.53077, "lon": 13.47083, "planning-area-id": 11300617}}, {"type": "Feature", "geometry": {"type": "Point", "coordinates": [13.53871, 52.52815]}, "properties": {"id": "203557001", "name": "Stadtteilbibliothek Erich Weinert", "street": "Helene-Weigel-Platz 4", "zip-code": 12681, "lat": 52.52815, "lon": 13.53871, "planning-area-id": 10100312}}, {"type": "Feature", "geometry": {"type": "Point", "coordinates": [13.28718, 52.5375]}, "properties": {"id": "256922190", "name": "Stadtteilbibliothek Halemweg", "street": "Halemweg 18", "zip-code": 13627, "lat": 52.5375, "lon": 13.28718, "planning-area-id": 4100101}}, {"type": "Feature", "geometry": {"type": "Point", "coordinates": [13.20138, 52.53613]}, "properties": {"id": "257708789", "name": "Bezirkszentralbibliothek Spandau", "street": "Carl-Schurz-Straße 13", "zip-code": 13597, "lat": 52.53613, "lon": 13.20138, "planning-area-id": 5100316}}, {"type": "Feature", "geometry": {"type": "Point", "coordinates": [13.5567, 52.54722]}, "properties": {"id": "263679066", "name": "Bezirkszentralbibliothek Mark Twain", "street": "Marzahner Promenade 52-54", "zip-code": 12679, "lat": 52.54722, "lon": 13.5567, "planning-area-id": 10100210}}, {"type": "Feature", "geometry": {"type": "Point", "coordinates": [13.3697, 52.5068]}, "properties": {"id": "264776935", "name": "Ibero-Amerikanisches Institut", "street": "Potsdamer Straße 37", "zip-code": 10785, "lat": 52.5068, "lon": 13.3697, "planning-area-id": 1100102}}, {"type": "Feature", "geometry": {"type": "Point", "coordinates": [13.39869, 52.5316]}, "properties": {"id": "266540876", "name": "Bezirkszentralbibliothek Philipp Schaeffer", "street": "Brunnenstraße 181", "zip-code": 10119, "lat": 52.5316, "lon": 13.39869, "planning-area-id": 1100415}}, {"type": "Feature", "geometry": {"type": "Point", "coordinates": [13.61278, 52.50555]}, "properties": {"id": "266629485", "name": "Stadtteilbibliothek Mahlsdorf", "street": "Alt-Mahlsdorf 24-26", "zip-code": 12623, "lat": 52.50555, "lon": 13.61278, "planning-area-id": 10400939}}, {"type": "Feature", "geometry": {"type": "Point", "coordinates": [13.28833, 52.45185]}, "properties": {"id": "271685475", "name": "Philologische Bibliothek", "street": "Habelschwerdter Allee 45", "zip-code": 14195, "lat": 52.45185, "lon": 13.28833, "planning-area-id": 6400843}}, {"type": "Feature", "geometry": {"type": "Point", "coordinates": [13.29025, 52.45357]}, "properties": {"id": "271875991", "name": "Campusbibliothek Natur-, Kultur- und Bildungswissenschaften, Mathematik, Informatik und Psychologie", "street": "Fabeckstraße 23/25", "zip-code": 14195, "lat": 52.45357, "lon": 13.29025, "planning-area-id": 6400843}}, {"type": "Feature", "geometry": {"type": "Point", "coordinates": [13.45283, 52.54773]}, "properties": {"id": "281375131", "name": "Wolfdietrich-Schnurre-Bibliothek", "street": "Bizetstraße 41", "zip-code": 13088, "lat": 52.54773, "lon": 13.45283, "planning-area-id": 3500936}}, {"type": "Feature", "geometry": {"type": "Point", "coordinates": [13.4917, 52.61654]}, "properties": {"id": "293137702", "name": "Stadtteilbibliothek Karow", "lat": 52.61654, "lon": 13.4917, "planning-area-id": 3300411}}, {"type": "Feature", "geometry": {"type": "Point", "coordinates": [13.41408, 52.54926]}, "properties": {"id": "308811018", "name": "Bettina von Arnim Bibliothek", "street": "Schönhauser Allee 75", "zip-code": 10439, "lat": 52.54926, "lon": 13.41408, "planning-area-id": 3601346}}, {"type": "Feature", "geometry": {"type": "Point", "coordinates": [13.48136, 52.51343]}, "properties": {"id": "323991172", "name": "Egon-Erwin-Kisch-Bibliothek", "street": "Frankfurter Allee 149", "lat": 52.51343, "lon": 13.48136, "planning-area-id": 11300722}}, {"type": "Feature", "geometry": {"type": "Point", "coordinates": [13.43277, 52.48196]}, "properties": {"id": "333343782", "name": "Helene-Nathan-Bibliothek", "street": "Karl-Marx-Straße 66", "zip-code": 12043, "lat": 52.48196, "lon": 13.43277, "planning-area-id": 8100206}}, {"type": "Feature", "geometry": {"type": "Point", "coordinates": [13.31962, 52.45778]}, "properties": {"id": "345162417", "name": "Ingeborg-Drewitz-Bibliothek", "street": "Grunewaldstraße 3", "zip-code": 12165, "lat": 52.45778, "lon": 13.31962, "planning-area-id": 6100102}}, {"type": "Feature", "geometry": {"type": "Point", "coordinates": [13.6214, 52.4548]}, "properties": {"id": "439229151", "name": "Johannes-Bobrowski-Bibliothek", "street": "Peter-Hille-Straße 1", "zip-code": 12587, "lat": 52.4548, "lon": 13.6214, "planning-area-id": 9501737}}, {"type": "Feature", "geometry": {"type": "Point", "coordinates": [13.39737, 52.38792]}, "properties": {"id": "444731308", "name": "Stadtteilbibliothek Lichenrade", "street": "Steinstraße 41", "zip-code": 12307, "lat": 52.38792, "lon": 13.39737, "planning-area-id": 7601544}}, {"type": "Feature", "geometry": {"type": "Point", "coordinates": [13.30886, 52.5171]}, "properties": {"id": "444994924", "name": "Heinrich-Schulz-Bibliothek", "street": "Otto-Suhr-Allee 96", "zip-code": 10585, "lat": 52.5171, "lon": 13.30886, "planning-area-id": 4300619}}, {"type": "Feature", "geometry": {"type": "Point", "coordinates": [13.53142, 52.43106]}, "properties": {"id": "482710823", "name": "Zweigbibliothek Naturwissenschaften", "street": "Rudower Chaussee 26", "zip-code": 12489, "lat": 52.43106, "lon": 13.53142, "planning-area-id": 9200715}}, {"type": "Feature", "geometry": {"type": "Point", "coordinates": [13.52472, 52.4554]}, "properties": {"id": "486517226", "name": "Bibliothek Campus Wilhelminenhof", "lat": 52.4554, "lon": 13.52472, "planning-area-id": 9200511}}, {"type": "Feature", "geometry": {"type": "Point", "coordinates": [13.51205, 52.52808]}, "properties": {"id": "507660382", "name": "KEH Bibliothek", "lat": 52.52808, "lon": 13.51205, "planning-area-id": 11300721}}, {"type": "Feature", "geometry": {"type": "Point", "coordinates": [13.31344, 52.47134]}, "properties": {"id": "529557633", "name": "Eberhard-Alexander-Burgh-Bibliothek", "lat": 52.47134, "lon": 13.31344, "planning-area-id": 4400834}}, {"type": "Feature", "geometry": {"type": "Point", "coordinates": [13.38275, 52.48518]}, "properties": {"id": "560823423", "name": "Friedrich-von-Raumer-Bibliothek", "street": "Dudenstraße 18-20", "zip-code": 10965, "lat": 52.48518, "lon": 13.38275, "planning-area-id": 2200209}}, {"type": "Feature", "geometry": {"type": "Point", "coordinates": [13.29201, 52.45716]}, "properties": {"id": "586328524", "name": "Bibliothek des John-F.-Kennedy-Instituts", "street": "Lansstraße 7-9", "zip-code": 14195, "lat": 52.45716, "lon": 13.29201, "planning-area-id": 6400843}}, {"type": "Feature", "geometry": {"type": "Point", "coordinates": [13.49388, 52.63564]}, "properties": {"id": "618048288", "name": "Stadtteilbibliothek Buch", "lat": 52.63564, "lon": 13.49388, "planning-area-id": 3100103}}, {"type": "Feature", "geometry": {"type": "Point", "coordinates": [13.39323, 52.51642]}, "properties": {"id": "639552895", "name": "HU Berlin – Zweigbibliothek Rechtswissenschaft", "street": "Bebelplatz 1", "zip-code": 10117, "lat": 52.51642, "lon": 13.39323, "planning-area-id": 1100206}}, {"type": "Feature", "geometry": {"type": "Point", "coordinates": [13.39373, 52.52613]}, "properties": {"id": "665121783", "name": "Comicbibliothek Renate", "street": "Tucholskystraße 32", "zip-code": 10117, "lat": 52.52613, "lon": 13.39373, "planning-area-id": 1100309}}, {"type": "Feature", "geometry": {"type": "Point", "coordinates": [13.44084, 52.54181]}, "properties": {"id": "737212457", "name": "Heinrich-Böll-Bibliothek", "street": "Greifswalder Straße 87", "zip-code": 10409, "lat": 52.54181, "lon": 13.44084, "planning-area-id": 3601449}}, {"type": "Feature", "geometry": {"type": "Point", "coordinates": [13.28788, 52.47758]}, "properties": {"id": "795561505", "name": "Adolf-Reichwein-Bibliothek", "street": "Berkaer Straße 7", "zip-code": 14199, "lat": 52.47758, "lon": 13.28788, "planning-area-id": 4400830}}, {"type": "Feature", "geometry": {"type": "Point", "coordinates": [13.39287, 52.51902]}, "properties": {"id": "1070809009", "name": "Zweigbibliothek Klassische Archäologie", "street": "Unter den Linden 6", "zip-code": 10117, "lat": 52.51902, "lon": 13.39287, "planning-area-id": 1100206}}, {"type": "Feature", "geometry": {"type": "Point", "coordinates": [13.3867, 52.5183]}, "properties": {"id": "1070809020", "name": "Zweigbibliothek Fremdsprachliche Philologien / Teilbibliothek Großbritannien-Zentrum", "street": "Dorotheenstraße 65", "zip-code": 10117, "lat": 52.5183, "lon": 13.3867, "planning-area-id": 1100206}}, {"type": "Feature", "geometry": {"type": "Point", "coordinates": [13.52092, 52.49785]}, "properties": {"id": "1346361343", "name": "Bodo-Uhse-Bibliothek", "street": "Erich-Kurz-Straße 9", "zip-code": 10319, "lat": 52.49785, "lon": 13.52092, "planning-area-id": 11401137}}, {"type": "Feature", "geometry": {"type": "Point", "coordinates": [13.41235, 52.56845]}, "properties": {"id": "1356847676", "name": "Janusz-Korczak-Bibliothek", "street": "Berliner Straße 120", "zip-code": 13187, "lat": 52.56845, "lon": 13.41235, "planning-area-id": 3400723}}, {"type": "Feature", "geometry": {"type": "Point", "coordinates": [13.29399, 52.51454]}, "properties": {"id": "1362209543", "name": "Ingeborg-Bachmann-Bibliothek", "street": "Nehringstraße 10", "zip-code": 14059, "lat": 52.51454, "lon": 13.29399, "planning-area-id": 4300413}}, {"type": "Feature", "geometry": {"type": "Point", "coordinates": [13.29477, 52.46139]}, "properties": {"id": "1425169658", "name": "Bibliothek des Friedrich-Meinecke-Instituts und des Kunsthistorisches Instituts", "street": "Koserstraße 20", "zip-code": 14195, "lat": 52.46139, "lon": 13.29477, "planning-area-id": 6400844}}, {"type": "Feature", "geometry": {"type": "Point", "coordinates": [13.46229, 52.42554]}, "properties": {"id": "1445349886", "name": "Trude-Jugend-Bib", "street": "Bat-Yam-Platz 1", "zip-code": 12353, "lat": 52.42554, "lon": 13.46229, "planning-area-id": 8300935}}, {"type": "Feature", "geometry": {"type": "Point", "coordinates": [13.43621, 52.49255]}, "properties": {"id": "1472976631", "name": "Else-Ury-Bibliothek", "street": "Glogauer Straße 13", "zip-code": 10999, "lat": 52.49255, "lon": 13.43621, "planning-area-id": 2300418}}, {"type": "Feature", "geometry": {"type": "Point", "coordinates": [13.32627, 52.51214]}, "properties": {"id": "1481377095", "name": "Die Bibliothek Wirtschaft und Management", "street": "Straße des 17. Juni 135", "zip-code": 10623, "lat": 52.51214, "lon": 13.32627, "planning-area-id": 4300622}}, {"type": "Feature", "geometry": {"type": "Point", "coordinates": [13.43395, 52.46904]}, "properties": {"id": "1670728349", "name": "Fachbibliothek Kurdologie", "street": "Emser Straße 26", "zip-code": 12051, "lat": 52.46904, "lon": 13.43395, "planning-area-id": 8100208}}, {"type": "Feature", "geometry": {"type": "Point", "coordinates": [13.42548, 52.52869]}, "properties": {"id": "1684737379", "name": "Bibliothek der Freien", "street": "Greifswalder Straße 4", "zip-code": 10405, "lat": 52.52869, "lon": 13.42548, "planning-area-id": 3701660}}, {"type": "Feature", "geometry": {"type": "Point", "coordinates": [13.39576, 52.51273]}, "properties": {"id": "1685672555", "name": "Archiv für Alternativkultur", "street": "Anton-Wilhelm-Amo-Straße 41", "zip-code": 10117, "lat": 52.51273, "lon": 13.39576, "planning-area-id": 1100206}}, {"type": "Feature", "geometry": {"type": "Point", "coordinates": [13.25861, 52.51065]}, "properties": {"id": "1818848292", "name": "Johanna-Moosdorf-Bibliothek", "street": "Westendallee 45", "zip-code": 14052, "lat": 52.51065, "lon": 13.25861, "planning-area-id": 4200309}}, {"type": "Feature", "geometry": {"type": "Point", "coordinates": [13.43217, 52.53288]}, "properties": {"id": "1863570970", "name": "Kurt-Tucholsky-Bibliothek", "street": "Esmarchstraße 18", "zip-code": 10407, "lat": 52.53288, "lon": 13.43217, "planning-area-id": 3701660}}, {"type": "Feature", "geometry": {"type": "Point", "coordinates": [13.31187, 52.48944]}, "properties": {"id": "1874529829", "name": "Artothek", "street": "Hohenzollerndamm 176", "zip-code": 10713, "lat": 52.48944, "lon": 13.31187, "planning-area-id": 4501146}}, {"type": "Feature", "geometry": {"type": "Point", "coordinates": [13.27696, 52.44922]}, "properties": {"id": "1933757018", "name": "Bibliothek für Sozialwissenschaften und Osteuropastudien, Stiller Lesesaal", "street": "Ihnestraße 21", "zip-code": 14195, "lat": 52.44922, "lon": 13.27696, "planning-area-id": 6400843}}, {"type": "Feature", "geometry": {"type": "Point", "coordinates": [13.36693, 52.50851]}, "properties": {"id": "2094774970", "name": "Kunstbibliothek", "street": "Matthäikirchplatz 6", "zip-code": 10785, "lat": 52.50851, "lon": 13.36693, "planning-area-id": 1100102}}, {"type": "Feature", "geometry": {"type": "Point", "coordinates": [13.30291, 52.63561]}, "properties": {"id": "2270319509", "name": "Das Buddhistische Haus", "lat": 52.63561, "lon": 13.30291, "planning-area-id": 12400721}}, {"type": "Feature", "geometry": {"type": "Point", "coordinates": [13.40563, 52.49]}, "properties": {"id": "2402339489", "name": "La Rayuela", "street": "Südstern 2", "zip-code": 10961, "lat": 52.49, "lon": 13.40563, "planning-area-id": 2200210}}, {"type": "Feature", "geometry": {"type": "Point", "coordinates": [13.32487, 52.50213]}, "properties": {"id": "2479053622", "name": "Institut Français Berlin, Mediathek", "street": "Kurfürstendamm 211", "zip-code": 10719, "lat": 52.50213, "lon": 13.32487, "planning-area-id": 4501041}}, {"type": "Feature", "geometry": {"type": "Point", "coordinates": [13.52862, 52.40338]}, "properties": {"id": "2571245538", "name": "Stadtteilbibliothek Altglienicke im Bürgerhaus", "street": "Ortolfstraße 182", "zip-code": 12524, "lat": 52.40338, "lon": 13.52862, "planning-area-id": 9300922}}, {"type": "Feature", "geometry": {"type": "Point", "coordinates": [13.38968, 52.48648]}, "properties": {"id": "2644700001", "name": "Archiv der Jugendkulturen", "street": "Fidicinstraße 3", "zip-code": 10965, "lat": 52.48648, "lon": 13.38968, "planning-area-id": 2200211}}, {"type": "Feature", "geometry": {"type": "Point", "coordinates": [13.37666, 52.52669]}, "properties": {"id": "2777497901", "name": "Patientenbibliothek", "street": "Bonhoefferweg 4", "lat": 52.52669, "lon": 13.37666, "planning-area-id": 1100308}}, {"type": "Feature", "geometry": {"type": "Point", "coordinates": [13.178, 52.54997]}, "properties": {"id": "2802477601", "name": "Stadtteilbibliothek", "lat": 52.54997, "lon": 13.178, "planning-area-id": 5100209}}, {"type": "Feature", "geometry": {"type": "Point", "coordinates": [13.36782, 52.58711]}, "properties": {"id": "2964523835", "name": "Kulturpost und Bibliothek", "street": "Hauptstraße 32", "zip-code": 13158, "lat": 52.58711, "lon": 13.36782, "planning-area-id": 3400619}}, {"type": "Feature", "geometry": {"type": "Point", "coordinates": [13.43073, 52.49523]}, "properties": {"id": "3203713887", "name": "kalabal!k", "street": "Reichenberger Straße 63a", "zip-code": 10999, "lat": 52.49523, "lon": 13.43073, "planning-area-id": 2300418}}, {"type": "Feature", "geometry": {"type": "Point", "coordinates": [13.35873, 52.42604]}, "properties": {"id": "3428467245", "name": "Universitätsarchiv", "street": "Malteserstraße 74-100", "zip-code": 12249, "lat": 52.42604, "lon": 13.35873, "planning-area-id": 6200316}}, {"type": "Feature", "geometry": {"type": "Point", "coordinates": [13.35782, 52.49432]}, "properties": {"id": "3478842465", "name": "Schulbiblothek", "lat": 52.49432, "lon": 13.35782, "planning-area-id": 7100204}}, {"type": "Feature", "geometry": {"type": "Point", "coordinates": [13.16564, 52.43278]}, "properties": {"id": "3518345658", "name": "Joseph Wulf Bibliothek", "street": "Am Großen Wannsee 58", "zip-code": 14109, "lat": 52.43278, "lon": 13.16564, "planning-area-id": 6400735}}, {"type": "Feature", "geometry": {"type": "Point", "coordinates": [13.37729, 52.52023]}, "properties": {"id": "3806550974", "name": "Bibliothek des Deutschen Bundestages", "street": "Adele-Schreiber-Krieger-Straße 1", "zip-code": 10117, "lat": 52.52023, "lon": 13.37729, "planning-area-id": 1100308}}, {"type": "Feature", "geometry": {"type": "Point", "coordinates": [13.36342, 52.50375]}, "properties": {"id": "3837620248", "name": "Bibliothek Tiergarten-Süd", "street": "Lützowstraße 27", "zip-code": 10785, "lat": 52.50375, "lon": 13.36342, "planning-area-id": 1100103}}, {"type": "Feature", "geometry": {"type": "Point", "coordinates": [13.28265, 52.49217]}, "properties": {"id": "3952396497", "name": "Umweltbibliothek", "street": "Bismarckplatz 1", "zip-code": 14193, "lat": 52.49217, "lon": 13.28265, "planning-area-id": 4400726}}, {"type": "Feature", "geometry": {"type": "Point", "coordinates": [13.50611, 52.56497]}, "properties": {"id": "3981795844", "name": "Anna-Seghers-Bibliothek", "street": "Prerower Platz 2", "zip-code": 13051, "lat": 52.56497, "lon": 13.50611, "planning-area-id": 11100307}}, {"type": "Feature", "geometry": {"type": "Point", "coordinates": [13.38389, 52.50674]}, "properties": {"id": "4114649179", "name": "Bibliothek der Stiftung Topographie des Terrors", "street": "Niederkirchnerstraße 8", "zip-code": 10963, "lat": 52.50674, "lon": 13.38389, "planning-area-id": 2100101}}, {"type": "Feature", "geometry": {"type": "Point", "coordinates": [13.38594, 52.53055]}, "properties": {"id": "4221527005", "name": "Zweigbibliothek Asien-/Afrikawissenschaften und Islamische Theologie", "street": "Invalidenstraße 118", "zip-code": 10115, "lat": 52.53055, "lon": 13.38594, "planning-area-id": 1100415}}, {"type": "Feature", "geometry": {"type": "Point", "coordinates": [13.14298, 52.45325]}, "properties": {"id": "4271022996", "name": "Stadtteilbibliothek Kladow", "street": "Sakrower Landstraße 2", "zip-code": 14089, "lat": 52.45325, "lon": 13.14298, "planning-area-id": 5400943}}, {"type": "Feature", "geometry": {"type": "Point", "coordinates": [13.4195, 52.53315]}, "properties": {"id": "4432723694", "name": "Bibliothek Am Wasserturm", "street": "Prenzlauer Allee 227-228", "zip-code": 10405, "lat": 52.53315, "lon": 13.4195, "planning-area-id": 3701556}}, {"type": "Feature", "geometry": {"type": "Point", "coordinates": [13.51892, 52.45257]}, "properties": {"id": "4706616647", "name": "Bibliothek", "street": "Britzer Straße 5", "zip-code": 12439, "lat": 52.45257, "lon": 13.51892, "planning-area-id": 9200613}}, {"type": "Feature", "geometry": {"type": "Point", "coordinates": [13.3308, 52.52221]}, "properties": {"id": "4805428213", "name": "Medienforum Berlin", "street": "Levetzowstraße 1-2", "zip-code": 10555, "lat": 52.52221, "lon": 13.3308, "planning-area-id": 1200522}}, {"type": "Feature", "geometry": {"type": "Point", "coordinates": [13.34275, 52.51709]}, "properties": {"id": "4806499594", "name": "Hansabibliothek", "street": "Altonaer Straße 15", "zip-code": 10557, "lat": 52.51709, "lon": 13.34275, "planning-area-id": 1200629}}, {"type": "Feature", "geometry": {"type": "Point", "coordinates": [13.36383, 52.52175]}, "properties": {"id": "5062614778", "lat": 52.52175, "lon": 13.36383, "planning-area-id": 1200628}}, {"type": "Feature", "geometry": {"type": "Point", "coordinates": [13.3951, 52.52037]}, "properties": {"id": "5245440325", "name": "Zweigbibliothek Musikwissenschaft", "street": "Am Kupfergraben 5", "zip-code": 10117, "lat": 52.52037, "lon": 13.3951, "planning-area-id": 1100206}}, {"type": "Feature", "geometry": {"type": "Point", "coordinates": [13.60682, 52.5416]}, "properties": {"id": "5275440213", "name": "Peter-Weiss-Bibliothek", "street": "Hellersdorfer Promenade 24", "zip-code": 12627, "lat": 52.5416, "lon": 13.60682, "planning-area-id": 10200422}}, {"type": "Feature", "geometry": {"type": "Point", "coordinates": [13.35231, 52.59766]}, "properties": {"id": "5318467222", "name": "Bibliothek im Märkischen Viertel", "street": "Wilhelmsruher Damm 142c", "zip-code": 13439, "lat": 52.59766, "lon": 13.35231, "planning-area-id": 12601134}}, {"type": "Feature", "geometry": {"type": "Point", "coordinates": [13.38015, 52.52616]}, "properties": {"id": "5533888846", "name": "Charité Medizinische Bibliothek Campus Mitte", "street": "Philippstraße 11/12", "zip-code": 10115, "lat": 52.52616, "lon": 13.38015, "planning-area-id": 1100308}}, {"type": "Feature", "geometry": {"type": "Point", "coordinates": [13.29514, 52.63544]}, "properties": {"id": "5643477411", "name": "Stadtteilbibliothek Frohnau", "street": "Fuchssteinerweg 17", "zip-code": 13465, "lat": 52.63544, "lon": 13.29514, "planning-area-id": 12400721}}, {"type": "Feature", "geometry": {"type": "Point", "coordinates": [13.3262, 52.53158]}, "properties": {"id": "5735063971", "name": "Kurt-Tucholsky-Bibliothek", "street": "Rostocker Straße 32b", "zip-code": 10553, "lat": 52.53158, "lon": 13.3262, "planning-area-id": 1200518}}, {"type": "Feature", "geometry": {"type": "Point", "coordinates": [13.23904, 52.54292]}, "properties": {"id": "5798364681", "name": "Stadtteilbibliothek Haselhorst", "street": "Gartenfelder Straße 104", "zip-code": 13599, "lat": 52.54292, "lon": 13.23904, "planning-area-id": 5300737}}, {"type": "Feature", "geometry": {"type": "Point", "coordinates": [13.34782, 52.46027]}, "properties": {"id": "5838369566", "name": "Patientenbibliothek", "lat": 52.46027, "lon": 13.34782, "planning-area-id": 7300619}}, {"type": "Feature", "geometry": {"type": "Point", "coordinates": [13.42738, 52.47693]}, "properties": {"id": "5977960159", "name": "Bücherstube", "street": "Briesestraße 79", "zip-code": 12053, "lat": 52.47693, "lon": 13.42738, "planning-area-id": 8100207}}, {"type": "Feature", "geometry": {"type": "Point", "coordinates": [13.39273, 52.52001]}, "properties": {"id": "6046124564", "name": "Zweigbibliothek Germanistik", "street": "Dorotheenstraße 24", "zip-code": 10117, "lat": 52.52001, "lon": 13.39273, "planning-area-id": 1100206}}, {"type": "Feature", "geometry": {"type": "Point", "coordinates": [13.32513, 52.51408]}, "properties": {"id": "6275993185", "name": "Mathematische Fachbibliothek", "street": "Straße des 17. Juni 136", "zip-code": 10623, "lat": 52.51408, "lon": 13.32513, "planning-area-id": 4300622}}, {"type": "Feature", "geometry": {"type": "Point", "coordinates": [13.28902, 52.52424]}, "properties": {"id": "6508696687", "name": "ESCP Bibliothek am Campus Berlin", "street": "Heubnerweg 8-10", "zip-code": 14059, "lat": 52.52424, "lon": 13.28902, "planning-area-id": 4300412}}, {"type": "Feature", "geometry": {"type": "Point", "coordinates": [13.28133, 52.44783]}, "properties": {"id": "6720863485", "name": "Bibliothek Rechtswissenschaft", "street": "Vant-Hoff-Straße 8", "zip-code": 14195, "lat": 52.44783, "lon": 13.28133, "planning-area-id": 6400843}}, {"type": "Feature", "geometry": {"type": "Point", "coordinates": [13.41077, 52.53218]}, "properties": {"id": "6880841994", "name": "ICI Berlin", "street": "Christinenstraße 18-19", "zip-code": 10119, "lat": 52.53218, "lon": 13.41077, "planning-area-id": 3701554}}, {"type": "Feature", "geometry": {"type": "Point", "coordinates": [13.41031, 52.51288]}, "properties": {"id": "6976235391", "name": "Bildagentur für Kunst, Kultur und Geschichte", "street": "Märkisches Ufer 16;18", "zip-code": 10179, "lat": 52.51288, "lon": 13.41031, "planning-area-id": 1100312}}, {"type": "Feature", "geometry": {"type": "Point", "coordinates": [13.39209, 52.52462]}, "properties": {"id": "7232178641", "name": "Teilbibliothek Japanologie", "street": "Johannisstraße 10", "zip-code": 10117, "lat": 52.52462, "lon": 13.39209, "planning-area-id": 1100309}}, {"type": "Feature", "geometry": {"type": "Point", "coordinates": [13.32836, 52.50434]}, "properties": {"id": "7798570856", "name": "Bibliothek der Jüdischen Gemeinde", "lat": 52.50434, "lon": 13.32836, "planning-area-id": 4501042}}, {"type": "Feature", "geometry": {"type": "Point", "coordinates": [13.39805, 52.38597]}, "properties": {"id": "8097837782", "name": "Katholische öffentliche Bücherei", "lat": 52.38597, "lon": 13.39805, "planning-area-id": 7601544}}, {"type": "Feature", "geometry": {"type": "Point", "coordinates": [13.59289, 52.52936]}, "properties": {"id": "8151138614", "name": "Stadtteilbibliothek Kaulsdorf", "street": "Neue Grottkauer Straße 5", "zip-code": 12619, "lat": 52.52936, "lon": 13.59289, "planning-area-id": 10200628}}, {"type": "Feature", "geometry": {"type": "Point", "coordinates": [13.16541, 52.5224]}, "properties": {"id": "8435515108", "name": "Stadtteilbibliothek Heerstraße", "street": "Obstallee 22F", "zip-code": 13593, "lat": 52.5224, "lon": 13.16541, "planning-area-id": 5200527}}, {"type": "Feature", "geometry": {"type": "Point", "coordinates": [13.54961, 52.43858]}, "properties": {"id": "9067856748", "name": "Stefan-Heym-Kinderbibliothek", "street": "Dörpfeldstraße 52", "zip-code": 12489, "lat": 52.43858, "lon": 13.54961, "planning-area-id": 9200717}}, {"type": "Feature", "geometry": {"type": "Point", "coordinates": [13.46207, 52.42567]}, "properties": {"id": "9077951933", "name": "Gertrud-Junge-Bibliothek", "street": "Bat-Yam-Platz 1", "zip-code": 12353, "lat": 52.42567, "lon": 13.46207, "planning-area-id": 8300935}}, {"type": "Feature", "geometry": {"type": "Point", "coordinates": [13.49431, 52.41893]}, "properties": {"id": "9347421347", "name": "Gertrud-Haß-Bibliothek", "street": "Alt-Rudow 45", "zip-code": 12357, "lat": 52.41893, "lon": 13.49431, "planning-area-id": 8401243}}, {"type": "Feature", "geometry": {"type": "Point", "coordinates": [13.42307, 52.50371]}, "properties": {"id": "9780942686", "name": "Kollektivbibliothek", "street": "Mariannenplatz 2B", "zip-code": 10997, "lat": 52.50371, "lon": 13.42307, "planning-area-id": 2300314}}, {"type": "Feature", "geometry": {"type": "Point", "coordinates": [13.324, 52.51336]}, "properties": {"id": "10197004045", "name": "Bereichsbibliothek Architektur und Kunstwissenschaft", "street": "Straße des 17. Juni 152", "zip-code": 10623, "lat": 52.51336, "lon": 13.324, "planning-area-id": 4300622}}, {"type": "Feature", "geometry": {"type": "Point", "coordinates": [13.32401, 52.51096]}, "properties": {"id": "11309948213", "name": "Bereichsbibliothek Physik", "lat": 52.51096, "lon": 13.32401, "planning-area-id": 4300622}}, {"type": "Feature", "geometry": {"type": "Point", "coordinates": [13.32123, 52.51045]}, "properties": {"id": "11446515471", "name": "BIbliothek des Schiller-Gymnasiums", "street": "Schillerstraße 125", "zip-code": 10625, "lat": 52.51045, "lon": 13.32123, "planning-area-id": 4300624}}, {"type": "Feature", "geometry": {"type": "Point", "coordinates": [13.19678, 52.56984]}, "properties": {"id": "11585204402", "name": "WiKo Bibliothek", "lat": 52.56984, "lon": 13.19678, "planning-area-id": 5100101}}, {"type": "Feature", "geometry": {"type": "Point", "coordinates": [13.54972, 52.43887]}, "properties": {"id": "11778098531", "name": "Stefan-Heym-Erwachsenenbibliothek", "street": "Dörpfeldstraße 54", "lat": 52.43887, "lon": 13.54972, "planning-area-id": 9200717}}, {"type": "Feature", "geometry": {"type": "Point", "coordinates": [13.52637, 52.50794]}, "properties": {"id": "11805773403", "name": "HWR Bibliothek Campus Lichtenberg", "street": "Alt-Friedrichsfelde 60", "zip-code": 10315, "lat": 52.50794, "lon": 13.52637, "planning-area-id": 11401034}}, {"type": "Feature", "geometry": {"type": "Point", "coordinates": [13.39968, 52.51149]}, "properties": {"id": "11929111653", "lat": 52.51149, "lon": 13.39968, "planning-area-id": 1100207}}, {"type": "Feature", "geometry": {"type": "Point", "coordinates": [13.27776, 52.44812]}, "properties": {"id": "12160416171", "name": "Zentralbibliothek der Freien Universität Berlin", "street": "Garystraße 39", "zip-code": 14195, "lat": 52.44812, "lon": 13.27776, "planning-area-id": 6400843}}, {"type": "Feature", "geometry": {"type": "Point", "coordinates": [13.37664, 52.5267]}, "properties": {"id": "12942410449", "name": "Patentenbibilothek", "lat": 52.5267, "lon": 13.37664, "planning-area-id": 1100308}}]}