{"type": "FeatureCollection", "features": [{"type": "Feature", "geometry": {"type": "Point", "coordinates": [13.31179, 52.5846]}, "properties": {"id": "277958275", "name": "Kieser Training", "street": "Holzhauser Straße 140d", "zip-code": 13509, "lat": 52.5846, "lon": 13.31179, "planning-area-id": 12500825}}, {"type": "Feature", "geometry": {"type": "Point", "coordinates": [13.4425, 52.54676]}, "properties": {"id": "277958277", "name": "Kieser Training", "street": "Ostseestraße 107", "zip-code": 10409, "lat": 52.54676, "lon": 13.4425, "planning-area-id": 3601245}}, {"type": "Feature", "geometry": {"type": "Point", "coordinates": [13.30518, 52.47999]}, "properties": {"id": "277958288", "name": "Kieser Training", "street": "Forckenbeckstraße 9-13", "zip-code": 14199, "lat": 52.47999, "lon": 13.30518, "planning-area-id": 4400830}}, {"type": "Feature", "geometry": {"type": "Point", "coordinates": [13.32969, 52.4429]}, "properties": {"id": "277958289", "name": "Kieser Training", "street": "Teltowkanalstraße 2", "zip-code": 12247, "lat": 52.4429, "lon": 13.32969, "planning-area-id": 6200312}}, {"type": "Feature", "geometry": {"type": "Point", "coordinates": [13.469, 52.43399]}, "properties": {"id": "277958291", "name": "Kieser Training", "street": "Rudower Straße 132", "zip-code": 12351, "lat": 52.43399, "lon": 13.469, "planning-area-id": 8401139}}, {"type": "Feature", "geometry": {"type": "Point", "coordinates": [13.3142, 52.50643]}, "properties": {"id": "349301672", "name": "Brooklyn Fitboxing Charlottenburg", "street": "Kantstraße 38", "zip-code": 10625, "lat": 52.50643, "lon": 13.3142, "planning-area-id": 4300624}}, {"type": "Feature", "geometry": {"type": "Point", "coordinates": [13.28022, 52.5888]}, "properties": {"id": "353900373", "name": "Future Fit", "street": "Alt-Tegel 21", "zip-code": 13507, "lat": 52.5888, "lon": 13.28022, "planning-area-id": 12200515}}, {"type": "Feature", "geometry": {"type": "Point", "coordinates": [13.35019, 52.53292]}, "properties": {"id": "428142496", "name": "Rocket Station", "zip-code": 10559, "lat": 52.53292, "lon": 13.35019, "planning-area-id": 1200623}}, {"type": "Feature", "geometry": {"type": "Point", "coordinates": [13.43369, 52.48102]}, "properties": {"id": "440337320", "name": "authentic body control", "street": "Boddinstraße 4", "lat": 52.48102, "lon": 13.43369, "planning-area-id": 8100206}}, {"type": "Feature", "geometry": {"type": "Point", "coordinates": [13.46182, 52.51685]}, "properties": {"id": "499500765", "name": "Yogi Escape", "street": "Rigaer Straße 25", "zip-code": 10247, "lat": 52.51685, "lon": 13.46182, "planning-area-id": 2500728}}, {"type": "Feature", "geometry": {"type": "Point", "coordinates": [13.47469, 52.53618]}, "properties": {"id": "617268225", "name": "McFit", "street": "Konrad-Wolf-Straße 56-60", "zip-code": 13055, "lat": 52.53618, "lon": 13.47469, "planning-area-id": 11200514}}, {"type": "Feature", "geometry": {"type": "Point", "coordinates": [13.33324, 52.52676]}, "properties": {"id": "645677448", "name": "Fitbox", "street": "Turmstraße 74", "zip-code": 10551, "lat": 52.52676, "lon": 13.33324, "planning-area-id": 1200521}}, {"type": "Feature", "geometry": {"type": "Point", "coordinates": [13.29252, 52.47443]}, "properties": {"id": "664244052", "name": "Pilatesraum Berlin", "street": "Breite Straße 33", "zip-code": 14199, "lat": 52.47443, "lon": 13.29252, "planning-area-id": 4400832}}, {"type": "Feature", "geometry": {"type": "Point", "coordinates": [13.30807, 52.50215]}, "properties": {"id": "673611600", "name": "Viva Studio", "street": "Wilmersdorfer Straße 98", "zip-code": 10629, "lat": 52.50215, "lon": 13.30807, "planning-area-id": 4501040}}, {"type": "Feature", "geometry": {"type": "Point", "coordinates": [13.42108, 52.53993]}, "properties": {"id": "786216888", "name": "Womens Lift Lounge", "street": "Danziger Straße 55", "zip-code": 10435, "lat": 52.53993, "lon": 13.42108, "planning-area-id": 3601348}}, {"type": "Feature", "geometry": {"type": "Point", "coordinates": [13.29431, 52.50059]}, "properties": {"id": "810590618", "name": "Aspria", "lat": 52.50059, "lon": 13.29431, "planning-area-id": 4500937}}, {"type": "Feature", "geometry": {"type": "Point", "coordinates": [13.32696, 52.46443]}, "properties": {"id": "812219708", "name": "Superfit", "street": "Schloßstraße 1", "zip-code": 12163, "lat": 52.46443, "lon": 13.32696, "planning-area-id": 6100103}}, {"type": "Feature", "geometry": {"type": "Point", "coordinates": [13.32837, 52.48662]}, "properties": {"id": "823473534", "name": "McFit", "street": "Berliner Straße 148", "zip-code": 10715, "lat": 52.48662, "lon": 13.32837, "planning-area-id": 4501150}}, {"type": "Feature", "geometry": {"type": "Point", "coordinates": [13.3277, 52.46488]}, "properties": {"id": "833174269", "name": "Elbgym", "street": "Walther-Schreiber-Platz 1", "zip-code": 12161, "lat": 52.46488, "lon": 13.3277, "planning-area-id": 7300516}}, {"type": "Feature", "geometry": {"type": "Point", "coordinates": [13.39082, 52.51239]}, "properties": {"id": "879311582", "name": "Holmes Place", "street": "Anton-Wilhelm-Amo-Straße 50", "zip-code": 10117, "lat": 52.51239, "lon": 13.39082, "planning-area-id": 1100206}}, {"type": "Feature", "geometry": {"type": "Point", "coordinates": [13.3082, 52.52589]}, "properties": {"id": "891052374", "name": "Tayfun Personal Trainer", "street": "Kaiserin-Augusta-Allee 45", "zip-code": 10589, "lat": 52.52589, "lon": 13.3082, "planning-area-id": 4300518}}, {"type": "Feature", "geometry": {"type": "Point", "coordinates": [13.49886, 52.5218]}, "properties": {"id": "901662461", "name": "McFit", "street": "Siegfriedstraße 177", "zip-code": 10365, "lat": 52.5218, "lon": 13.49886, "planning-area-id": 11300721}}, {"type": "Feature", "geometry": {"type": "Point", "coordinates": [13.33731, 52.50457]}, "properties": {"id": "925525521", "name": "SuperFit Europa-Center", "street": "Tauentzienstraße 9-12", "lat": 52.50457, "lon": 13.33731, "planning-area-id": 4501042}}, {"type": "Feature", "geometry": {"type": "Point", "coordinates": [13.32508, 52.46097]}, "properties": {"id": "928931970", "name": "Fitness First", "street": "Schloßstraße 110", "zip-code": 12163, "lat": 52.46097, "lon": 13.32508, "planning-area-id": 6100103}}, {"type": "Feature", "geometry": {"type": "Point", "coordinates": [13.4488, 52.51105]}, "properties": {"id": "932651529", "name": "SunYoga", "street": "Torellstraße 7", "zip-code": 10243, "lat": 52.51105, "lon": 13.4488, "planning-area-id": 2400624}}, {"type": "Feature", "geometry": {"type": "Point", "coordinates": [13.41424, 52.49275]}, "properties": {"id": "958096426", "name": "Yoga im Graefekiez", "street": "Grimmstraße 19", "zip-code": 10967, "lat": 52.49275, "lon": 13.41424, "planning-area-id": 2200213}}, {"type": "Feature", "geometry": {"type": "Point", "coordinates": [13.32705, 52.46453]}, "properties": {"id": "970070951", "name": "Superfit Woman", "street": "Schloßstraße 1", "zip-code": 12163, "lat": 52.46453, "lon": 13.32705, "planning-area-id": 6100103}}, {"type": "Feature", "geometry": {"type": "Point", "coordinates": [13.26389, 52.43747]}, "properties": {"id": "1056915608", "name": "Fitness First", "street": "Clayallee 328-334", "zip-code": 14169, "lat": 52.43747, "lon": 13.26389, "planning-area-id": 6400841}}, {"type": "Feature", "geometry": {"type": "Point", "coordinates": [13.26419, 52.43784]}, "properties": {"id": "1056915620", "name": "Fitness First", "street": "Clayallee 328-334", "zip-code": 14169, "lat": 52.43784, "lon": 13.26419, "planning-area-id": 6400841}}, {"type": "Feature", "geometry": {"type": "Point", "coordinates": [13.45488, 52.51003]}, "properties": {"id": "1094853553", "name": "Beat81", "street": "Libauer Straße 1", "zip-code": 10245, "lat": 52.51003, "lon": 13.45488, "planning-area-id": 2500834}}, {"type": "Feature", "geometry": {"type": "Point", "coordinates": [13.26116, 52.42964]}, "properties": {"id": "1112755252", "name": "Mrs. Sporty", "street": "Mühlenstraße 4", "zip-code": 14167, "lat": 52.42964, "lon": 13.26116, "planning-area-id": 6300526}}, {"type": "Feature", "geometry": {"type": "Point", "coordinates": [13.41471, 52.54964]}, "properties": {"id": "1120057604", "name": "Fitness First", "street": "Schönhauser Allee 80", "zip-code": 10439, "lat": 52.54964, "lon": 13.41471, "planning-area-id": 3601243}}, {"type": "Feature", "geometry": {"type": "Point", "coordinates": [13.42557, 52.52935]}, "properties": {"id": "1218312075", "name": "Yoga Hub Berlin", "street": "Greifswalder Straße 8d", "zip-code": 10405, "lat": 52.52935, "lon": 13.42557, "planning-area-id": 3701660}}, {"type": "Feature", "geometry": {"type": "Point", "coordinates": [13.4409, 52.51294]}, "properties": {"id": "1270475988", "name": "Fitness Company Berlin", "street": "Rüdersdorfer Straße 71", "zip-code": 10243, "lat": 52.51294, "lon": 13.4409, "planning-area-id": 2400625}}, {"type": "Feature", "geometry": {"type": "Point", "coordinates": [13.32625, 52.50724]}, "properties": {"id": "1279265631", "name": "Fitness and More", "lat": 52.50724, "lon": 13.32625, "planning-area-id": 4300622}}, {"type": "Feature", "geometry": {"type": "Point", "coordinates": [13.33106, 52.47067]}, "properties": {"id": "1333143675", "name": "Sivananda Yoga", "street": "Schmiljanstraße 24", "zip-code": 12161, "lat": 52.47067, "lon": 13.33106, "planning-area-id": 7300517}}, {"type": "Feature", "geometry": {"type": "Point", "coordinates": [13.20584, 52.53711]}, "properties": {"id": "1336704497", "name": "Gymfit", "lat": 52.53711, "lon": 13.20584, "planning-area-id": 5100316}}, {"type": "Feature", "geometry": {"type": "Point", "coordinates": [13.28951, 52.4772]}, "properties": {"id": "1387894027", "name": "Mrs. Sporty", "lat": 52.4772, "lon": 13.28951, "planning-area-id": 4400830}}, {"type": "Feature", "geometry": {"type": "Point", "coordinates": [13.4278, 52.5313]}, "properties": {"id": "1389043773", "name": "B23 Space", "street": "Greifswalder Straße 23", "zip-code": 10405, "lat": 52.5313, "lon": 13.4278, "planning-area-id": 3701660}}, {"type": "Feature", "geometry": {"type": "Point", "coordinates": [13.32259, 52.50234]}, "properties": {"id": "1389063019", "name": "UFC Gym", "street": "Kurfürstendamm 38", "zip-code": 10719, "lat": 52.50234, "lon": 13.32259, "planning-area-id": 4501041}}, {"type": "Feature", "geometry": {"type": "Point", "coordinates": [13.30584, 52.50837]}, "properties": {"id": "1438454178", "name": "Superfit", "street": "Wilmersdorfer Straße 54", "zip-code": 10627, "lat": 52.50837, "lon": 13.30584, "planning-area-id": 4300623}}, {"type": "Feature", "geometry": {"type": "Point", "coordinates": [13.416, 52.51861]}, "properties": {"id": "1438455119", "name": "SuperFit", "street": "Grunerstraße 20", "zip-code": 10179, "lat": 52.51861, "lon": 13.416, "planning-area-id": 1100311}}, {"type": "Feature", "geometry": {"type": "Point", "coordinates": [13.36041, 52.55376]}, "properties": {"id": "1457608587", "name": "McFit", "street": "Seestraße 64", "zip-code": 13347, "lat": 52.55376, "lon": 13.36041, "planning-area-id": 1401048}}, {"type": "Feature", "geometry": {"type": "Point", "coordinates": [13.38866, 52.49341]}, "properties": {"id": "1470020226", "name": "SunYoga", "street": "Mehringdamm 33", "zip-code": 10961, "lat": 52.49341, "lon": 13.38866, "planning-area-id": 2200210}}, {"type": "Feature", "geometry": {"type": "Point", "coordinates": [13.40799, 52.5489]}, "properties": {"id": "1471968739", "name": "Bewegungsstudio", "lat": 52.5489, "lon": 13.40799, "planning-area-id": 3601142}}, {"type": "Feature", "geometry": {"type": "Point", "coordinates": [13.42986, 52.48841]}, "properties": {"id": "1576962361", "name": "Sacred Space", "lat": 52.48841, "lon": 13.42986, "planning-area-id": 8100311}}, {"type": "Feature", "geometry": {"type": "Point", "coordinates": [13.43798, 52.42235]}, "properties": {"id": "1577855726", "name": "M&M Fitness-Center", "lat": 52.42235, "lon": 13.43798, "planning-area-id": 8200833}}, {"type": "Feature", "geometry": {"type": "Point", "coordinates": [13.61236, 52.50522]}, "properties": {"id": "1583959145", "name": "McFit", "street": "Alt-Mahlsdorf 24", "zip-code": 12623, "lat": 52.50522, "lon": 13.61236, "planning-area-id": 10400939}}, {"type": "Feature", "geometry": {"type": "Point", "coordinates": [13.42153, 52.53915]}, "properties": {"id": "1584743772", "name": "Hadi Zalzadeh", "street": "Kollwitzstraße 102", "zip-code": 10435, "lat": 52.53915, "lon": 13.42153, "planning-area-id": 3701555}}, {"type": "Feature", "geometry": {"type": "Point", "coordinates": [13.46988, 52.50955]}, "properties": {"id": "1588139056", "name": "Green Studio Pilates", "street": "Jessnerstraße 58", "zip-code": 10247, "lat": 52.50955, "lon": 13.46988, "planning-area-id": 2500832}}, {"type": "Feature", "geometry": {"type": "Point", "coordinates": [13.39301, 52.48977]}, "properties": {"id": "1610111889", "name": "Yoga-Institut Berlin", "street": "Bergmannstraße 91", "zip-code": 10961, "lat": 52.48977, "lon": 13.39301, "planning-area-id": 2200211}}, {"type": "Feature", "geometry": {"type": "Point", "coordinates": [13.35463, 52.54924]}, "properties": {"id": "1715298789", "name": "Fit T9 Frauenfitness", "street": "Müllerstraße 36", "zip-code": 13353, "lat": 52.54924, "lon": 13.35463, "planning-area-id": 1401048}}, {"type": "Feature", "geometry": {"type": "Point", "coordinates": [13.32941, 52.47642]}, "properties": {"id": "1718478056", "name": "myoga", "street": "Sieglindestraße 7", "zip-code": 12159, "lat": 52.47642, "lon": 13.32941, "planning-area-id": 7300517}}, {"type": "Feature", "geometry": {"type": "Point", "coordinates": [13.37554, 52.43061]}, "properties": {"id": "1762116722", "name": "McFit", "lat": 52.43061, "lon": 13.37554, "planning-area-id": 7501133}}, {"type": "Feature", "geometry": {"type": "Point", "coordinates": [13.35049, 52.4974]}, "properties": {"id": "1870398737", "name": "Rent-A-Trainer-Berlin Gym", "street": "Nollendorfstraße 23", "zip-code": 10777, "lat": 52.4974, "lon": 13.35049, "planning-area-id": 7100102}}, {"type": "Feature", "geometry": {"type": "Point", "coordinates": [13.31923, 52.49792]}, "properties": {"id": "1915070108", "name": "Urban Boost", "street": "Pariser Straße 43", "zip-code": 10707, "lat": 52.49792, "lon": 13.31923, "planning-area-id": 4501044}}, {"type": "Feature", "geometry": {"type": "Point", "coordinates": [13.28603, 52.47783]}, "properties": {"id": "1918474939", "name": "Zentrum für Yoga & Qigong", "lat": 52.47783, "lon": 13.28603, "planning-area-id": 4400830}}, {"type": "Feature", "geometry": {"type": "Point", "coordinates": [13.41985, 52.60696]}, "properties": {"id": "1970628072", "name": "Mrs. Sporty", "street": "Hugenottenplatz 3", "zip-code": 13127, "lat": 52.60696, "lon": 13.41985, "planning-area-id": 3200310}}, {"type": "Feature", "geometry": {"type": "Point", "coordinates": [13.54697, 52.43768]}, "properties": {"id": "1981014509", "name": "Impuls EMS-Studio", "street": "Genossenschaftsstraße 69", "zip-code": 12489, "lat": 52.43768, "lon": 13.54697, "planning-area-id": 9200716}}, {"type": "Feature", "geometry": {"type": "Point", "coordinates": [13.35672, 52.48796]}, "properties": {"id": "2059798815", "name": "Yoga in der Schwangerschaft Frauke Stadali", "street": "Belziger Straße 7", "zip-code": 10823, "lat": 52.48796, "lon": 13.35672, "planning-area-id": 7200409}}, {"type": "Feature", "geometry": {"type": "Point", "coordinates": [13.3071, 52.5063]}, "properties": {"id": "2082268403", "name": "Fitness First", "lat": 52.5063, "lon": 13.3071, "planning-area-id": 4300623}}, {"type": "Feature", "geometry": {"type": "Point", "coordinates": [13.32117, 52.51156]}, "properties": {"id": "2116638898", "name": "Kieser Training", "lat": 52.51156, "lon": 13.32117, "planning-area-id": 4300622}}, {"type": "Feature", "geometry": {"type": "Point", "coordinates": [13.37436, 52.46968]}, "properties": {"id": "2149937826", "name": "McFit", "street": "Schöneberger Straße 12-15", "zip-code": 12103, "lat": 52.46968, "lon": 13.37436, "planning-area-id": 7400823}}, {"type": "Feature", "geometry": {"type": "Point", "coordinates": [13.40903, 52.55082]}, "properties": {"id": "2158310119", "name": "Abnehmen im Liegen", "street": "Schivelbeiner Straße 35", "zip-code": 10439, "lat": 52.55082, "lon": 13.40903, "planning-area-id": 3601141}}, {"type": "Feature", "geometry": {"type": "Point", "coordinates": [13.30491, 52.51193]}, "properties": {"id": "2187588493", "name": "Holmes Place", "street": "Wilmersdorfer Straße 38", "zip-code": 10585, "lat": 52.51193, "lon": 13.30491, "planning-area-id": 4300621}}, {"type": "Feature", "geometry": {"type": "Point", "coordinates": [13.34569, 52.52488]}, "properties": {"id": "2306175948", "name": "McFit", "street": "Alt-Moabit 96D", "zip-code": 10559, "lat": 52.52488, "lon": 13.34569, "planning-area-id": 1200626}}, {"type": "Feature", "geometry": {"type": "Point", "coordinates": [13.31013, 52.50003]}, "properties": {"id": "2334538079", "name": "Three Boons Yoga", "zip-code": 10707, "lat": 52.50003, "lon": 13.31013, "planning-area-id": 4501043}}, {"type": "Feature", "geometry": {"type": "Point", "coordinates": [13.49833, 52.46392]}, "properties": {"id": "2427830701", "name": "McFit", "lat": 52.46392, "lon": 13.49833, "planning-area-id": 9200613}}, {"type": "Feature", "geometry": {"type": "Point", "coordinates": [13.42014, 52.49534]}, "properties": {"id": "2445179072", "name": "JOHN REED Fitness", "street": "Kottbusser Damm 1", "zip-code": 10967, "lat": 52.49534, "lon": 13.42014, "planning-area-id": 2200213}}, {"type": "Feature", "geometry": {"type": "Point", "coordinates": [13.52546, 52.48304]}, "properties": {"id": "2445856559", "name": "EMSLounge", "lat": 52.48304, "lon": 13.52546, "planning-area-id": 11501339}}, {"type": "Feature", "geometry": {"type": "Point", "coordinates": [13.27578, 52.53605]}, "properties": {"id": "2449154365", "name": "Sport & Therapiezentrum", "lat": 52.53605, "lon": 13.27578, "planning-area-id": 5300841}}, {"type": "Feature", "geometry": {"type": "Point", "coordinates": [13.42429, 52.47746]}, "properties": {"id": "2477046562", "name": "Tagtigall", "street": "Herrfurthstraße 6a", "zip-code": 12049, "lat": 52.47746, "lon": 13.42429, "planning-area-id": 8100102}}, {"type": "Feature", "geometry": {"type": "Point", "coordinates": [13.40942, 52.54719]}, "properties": {"id": "2489837401", "name": "Mindful Life Berlin", "street": "Gleimstraße 19", "zip-code": 10437, "lat": 52.54719, "lon": 13.40942, "planning-area-id": 3601142}}, {"type": "Feature", "geometry": {"type": "Point", "coordinates": [13.35522, 52.59669]}, "properties": {"id": "2690994059", "name": "Crunchfit", "street": "Wilhelmsruher Damm 128", "zip-code": 13439, "lat": 52.59669, "lon": 13.35522, "planning-area-id": 12601235}}, {"type": "Feature", "geometry": {"type": "Point", "coordinates": [13.40952, 52.52831]}, "properties": {"id": "2764574468", "name": "Rocycle Berlin Mitte", "street": "Linienstraße 41", "zip-code": 10119, "lat": 52.52831, "lon": 13.40952, "planning-area-id": 1100310}}, {"type": "Feature", "geometry": {"type": "Point", "coordinates": [13.42901, 52.455]}, "properties": {"id": "2821190540", "name": "Venice Sporting Club", "street": "Tempelhofer Weg 44", "zip-code": 12347, "lat": 52.455, "lon": 13.42901, "planning-area-id": 8200624}}, {"type": "Feature", "geometry": {"type": "Point", "coordinates": [13.62442, 52.45696]}, "properties": {"id": "2840752454", "name": "Localfit", "street": "Fürstenwalder Damm 479", "zip-code": 12587, "lat": 52.45696, "lon": 13.62442, "planning-area-id": 9501736}}, {"type": "Feature", "geometry": {"type": "Point", "coordinates": [13.4135, 52.55097]}, "properties": {"id": "2850021274", "name": "John Reed Womens Club", "street": "Schönhauser Allee 112", "zip-code": 10439, "lat": 52.55097, "lon": 13.4135, "planning-area-id": 3601141}}, {"type": "Feature", "geometry": {"type": "Point", "coordinates": [13.22718, 52.53742]}, "properties": {"id": "2851949842", "name": "McFit", "street": "Am Juliusturm 19", "zip-code": 13599, "lat": 52.53742, "lon": 13.22718, "planning-area-id": 5300736}}, {"type": "Feature", "geometry": {"type": "Point", "coordinates": [13.32352, 52.60721]}, "properties": {"id": "2851949843", "name": "McFit", "street": "Oraniendamm 64", "zip-code": 13469, "lat": 52.60721, "lon": 13.32352, "planning-area-id": 12601032}}, {"type": "Feature", "geometry": {"type": "Point", "coordinates": [13.19727, 52.51646]}, "properties": {"id": "2901372702", "name": "VIP’n’Fit", "street": "Pichelsdorfer Straße 31", "zip-code": 13595, "lat": 52.51646, "lon": 13.19727, "planning-area-id": 5200630}}, {"type": "Feature", "geometry": {"type": "Point", "coordinates": [13.39908, 52.53497]}, "properties": {"id": "2935486803", "name": "Körperformen", "street": "Anklamer Straße 17", "zip-code": 10115, "lat": 52.53497, "lon": 13.39908, "planning-area-id": 1100416}}, {"type": "Feature", "geometry": {"type": "Point", "coordinates": [13.42005, 52.60591]}, "properties": {"id": "2960514356", "name": "Clever fit", "street": "Rosenthaler Weg 24B", "zip-code": 13127, "lat": 52.60591, "lon": 13.42005, "planning-area-id": 3200308}}, {"type": "Feature", "geometry": {"type": "Point", "coordinates": [13.33888, 52.50372]}, "properties": {"id": "2985821756", "name": "McFit", "street": "Tauentzienstraße 8", "zip-code": 10789, "lat": 52.50372, "lon": 13.33888, "planning-area-id": 4501042}}, {"type": "Feature", "geometry": {"type": "Point", "coordinates": [13.45557, 52.50751]}, "properties": {"id": "2995644691", "name": "Berlin Strength", "street": "Revaler Straße 99", "zip-code": 10245, "lat": 52.50751, "lon": 13.45557, "planning-area-id": 2500834}}, {"type": "Feature", "geometry": {"type": "Point", "coordinates": [13.60269, 52.53628]}, "properties": {"id": "3021116630", "name": "FitX", "street": "Hellersdorfer Straße 235", "zip-code": 12627, "lat": 52.53628, "lon": 13.60269, "planning-area-id": 10200421}}, {"type": "Feature", "geometry": {"type": "Point", "coordinates": [13.33476, 52.53068]}, "properties": {"id": "3045401463", "name": "Pole Sport Studio Berlin", "street": "Wiclefstraße 18", "zip-code": 10551, "lat": 52.53068, "lon": 13.33476, "planning-area-id": 1200519}}, {"type": "Feature", "geometry": {"type": "Point", "coordinates": [13.38054, 52.52772]}, "properties": {"id": "3140164400", "name": "Kieser Training", "street": "Hannoversche Straße 19", "zip-code": 10115, "lat": 52.52772, "lon": 13.38054, "planning-area-id": 1100308}}, {"type": "Feature", "geometry": {"type": "Point", "coordinates": [13.27012, 52.45194]}, "properties": {"id": "3176577534", "name": "Clays", "street": "Clayallee 171", "zip-code": 14195, "lat": 52.45194, "lon": 13.27012, "planning-area-id": 6400842}}, {"type": "Feature", "geometry": {"type": "Point", "coordinates": [13.5491, 52.43094]}, "properties": {"id": "3266506461", "name": "McFit", "street": "Adlergestell 299", "zip-code": 12489, "lat": 52.43094, "lon": 13.5491, "planning-area-id": 9200716}}, {"type": "Feature", "geometry": {"type": "Point", "coordinates": [13.43291, 52.48212]}, "properties": {"id": "3267299482", "name": "Superfit", "street": "Karl-Marx-Straße 66", "zip-code": 12043, "lat": 52.48212, "lon": 13.43291, "planning-area-id": 8100206}}, {"type": "Feature", "geometry": {"type": "Point", "coordinates": [13.38489, 52.45247]}, "properties": {"id": "3317540786", "name": "Clever fit", "lat": 52.45247, "lon": 13.38489, "planning-area-id": 7501031}}, {"type": "Feature", "geometry": {"type": "Point", "coordinates": [13.30287, 52.49849]}, "properties": {"id": "3385637223", "name": "FitX", "street": "Kurfürstendamm 156", "zip-code": 10709, "lat": 52.49849, "lon": 13.30287, "planning-area-id": 4500938}}, {"type": "Feature", "geometry": {"type": "Point", "coordinates": [13.44216, 52.54336]}, "properties": {"id": "3411940909", "name": "Clever fit", "street": "Greifswalder Straße 90", "zip-code": 10409, "lat": 52.54336, "lon": 13.44216, "planning-area-id": 3601449}}, {"type": "Feature", "geometry": {"type": "Point", "coordinates": [13.36551, 52.48166]}, "properties": {"id": "3453943122", "name": "CrossFit", "street": "Wilhelm-Kabus-Straße 40", "zip-code": 10829, "lat": 52.48166, "lon": 13.36551, "planning-area-id": 7200413}}, {"type": "Feature", "geometry": {"type": "Point", "coordinates": [13.4083, 52.55298]}, "properties": {"id": "3464981113", "name": "Yoga am Arnimplatz", "street": "Schönfließer Straße 11", "zip-code": 10439, "lat": 52.55298, "lon": 13.4083, "planning-area-id": 3601141}}, {"type": "Feature", "geometry": {"type": "Point", "coordinates": [13.42074, 52.5018]}, "properties": {"id": "3475027209", "name": "EFX Sport-Gruppe - Fitness", "lat": 52.5018, "lon": 13.42074, "planning-area-id": 2300314}}, {"type": "Feature", "geometry": {"type": "Point", "coordinates": [13.57637, 52.45825]}, "properties": {"id": "3566958751", "name": "Kieser Training", "street": "Bahnhofstraße 33-38", "zip-code": 12555, "lat": 52.45825, "lon": 13.57637, "planning-area-id": 9501939}}, {"type": "Feature", "geometry": {"type": "Point", "coordinates": [13.40666, 52.5698]}, "properties": {"id": "3658141193", "name": "Fitness First", "lat": 52.5698, "lon": 13.40666, "planning-area-id": 3400723}}, {"type": "Feature", "geometry": {"type": "Point", "coordinates": [13.32995, 52.42949]}, "properties": {"id": "3670161823", "name": "Elixia", "lat": 52.42949, "lon": 13.32995, "planning-area-id": 6200422}}, {"type": "Feature", "geometry": {"type": "Point", "coordinates": [13.33077, 52.50137]}, "properties": {"id": "3782374475", "name": "Clever fit", "street": "Joachimsthaler Straße 19", "zip-code": 10719, "lat": 52.50137, "lon": 13.33077, "planning-area-id": 4501042}}, {"type": "Feature", "geometry": {"type": "Point", "coordinates": [13.35114, 52.49859]}, "properties": {"id": "3826014915", "name": "Stromtown", "street": "Motzstraße 9", "zip-code": 10777, "lat": 52.49859, "lon": 13.35114, "planning-area-id": 7100102}}, {"type": "Feature", "geometry": {"type": "Point", "coordinates": [13.32524, 52.46227]}, "properties": {"id": "3841253417", "name": "Holmes Place", "street": "Schildhornstraße 1", "zip-code": 12163, "lat": 52.46227, "lon": 13.32524, "planning-area-id": 6100103}}, {"type": "Feature", "geometry": {"type": "Point", "coordinates": [13.34534, 52.4851]}, "properties": {"id": "3853848970", "name": "Fitbox", "street": "Martin-Luther-Straße 103", "zip-code": 10825, "lat": 52.4851, "lon": 13.34534, "planning-area-id": 7200409}}, {"type": "Feature", "geometry": {"type": "Point", "coordinates": [13.5157, 52.50542]}, "properties": {"id": "3862712290", "name": "Mrs. Sporty", "lat": 52.50542, "lon": 13.5157, "planning-area-id": 11401137}}, {"type": "Feature", "geometry": {"type": "Point", "coordinates": [13.53724, 52.53243]}, "properties": {"id": "3874310962", "name": "McFit", "street": "Märkische Allee 160a", "zip-code": 12681, "lat": 52.53243, "lon": 13.53724, "planning-area-id": 10100312}}, {"type": "Feature", "geometry": {"type": "Point", "coordinates": [13.39899, 52.5659]}, "properties": {"id": "3877191661", "name": "40 Min", "street": "Florastraße 88/89", "zip-code": 13187, "lat": 52.5659, "lon": 13.39899, "planning-area-id": 3400721}}, {"type": "Feature", "geometry": {"type": "Point", "coordinates": [13.44752, 52.5112]}, "properties": {"id": "3907029679", "name": "Hale Now", "street": "Torellstraße 2", "zip-code": 10243, "lat": 52.5112, "lon": 13.44752, "planning-area-id": 2400624}}, {"type": "Feature", "geometry": {"type": "Point", "coordinates": [13.54861, 52.5438]}, "properties": {"id": "3957099326", "name": "Kieser Training", "lat": 52.5438, "lon": 13.54861, "planning-area-id": 10100210}}, {"type": "Feature", "geometry": {"type": "Point", "coordinates": [13.57897, 52.45781]}, "properties": {"id": "4128610787", "name": "Superfit", "street": "Bahnhofstraße 23-25", "zip-code": 12555, "lat": 52.45781, "lon": 13.57897, "planning-area-id": 9501939}}, {"type": "Feature", "geometry": {"type": "Point", "coordinates": [13.47371, 52.51427]}, "properties": {"id": "4128610788", "name": "Superfit", "street": "Frankfurter Allee 111", "zip-code": 10247, "lat": 52.51427, "lon": 13.47371, "planning-area-id": 2500729}}, {"type": "Feature", "geometry": {"type": "Point", "coordinates": [13.28592, 52.58495]}, "properties": {"id": "4128610990", "name": "Superfit", "lat": 52.58495, "lon": 13.28592, "planning-area-id": 12200515}}, {"type": "Feature", "geometry": {"type": "Point", "coordinates": [13.60266, 52.53648]}, "properties": {"id": "4235017790", "name": "Fit T9", "street": "Janusz-Korczak-Straße 4-8", "zip-code": 12627, "lat": 52.53648, "lon": 13.60266, "planning-area-id": 10200421}}, {"type": "Feature", "geometry": {"type": "Point", "coordinates": [13.38701, 52.52648]}, "properties": {"id": "4253980789", "name": "Crossfit Grenzgänger", "lat": 52.52648, "lon": 13.38701, "planning-area-id": 1100308}}, {"type": "Feature", "geometry": {"type": "Point", "coordinates": [13.36727, 52.53084]}, "properties": {"id": "4253995591", "name": "CrossFit", "street": "Heidestraße 48", "zip-code": 10557, "lat": 52.53084, "lon": 13.36727, "planning-area-id": 1200624}}, {"type": "Feature", "geometry": {"type": "Point", "coordinates": [13.38024, 52.53233]}, "properties": {"id": "4254495166", "name": "Hauptstadt Crossfit", "lat": 52.53233, "lon": 13.38024, "planning-area-id": 1100308}}, {"type": "Feature", "geometry": {"type": "Point", "coordinates": [13.38722, 52.48888]}, "properties": {"id": "4254944691", "name": "Crossfit gute Hoffnungshütte", "lat": 52.48888, "lon": 13.38722, "planning-area-id": 2200211}}, {"type": "Feature", "geometry": {"type": "Point", "coordinates": [13.57598, 52.4541]}, "properties": {"id": "4304263292", "name": "Figurenzentrum Köpenick", "lat": 52.4541, "lon": 13.57598, "planning-area-id": 9501939}}, {"type": "Feature", "geometry": {"type": "Point", "coordinates": [13.59113, 52.54528]}, "properties": {"id": "4308049689", "name": "CITI-Frauen-Fitness", "street": "Alte Hellersdorfer Straße 119", "zip-code": 12629, "lat": 52.54528, "lon": 13.59113, "planning-area-id": 10200417}}, {"type": "Feature", "geometry": {"type": "Point", "coordinates": [13.35137, 52.54868]}, "properties": {"id": "4315470224", "name": "Yoga Stübchen", "street": "Genter Straße 65", "zip-code": 13353, "lat": 52.54868, "lon": 13.35137, "planning-area-id": 1400942}}, {"type": "Feature", "geometry": {"type": "Point", "coordinates": [13.20103, 52.54332]}, "properties": {"id": "4316237225", "name": "ladys spandau", "street": "Bismarckstraße 17", "zip-code": 13585, "lat": 52.54332, "lon": 13.20103, "planning-area-id": 5100315}}, {"type": "Feature", "geometry": {"type": "Point", "coordinates": [13.44609, 52.51634]}, "properties": {"id": "4320893092", "name": "Bodystreet", "street": "Karl-Marx-Allee 110", "zip-code": 10243, "lat": 52.51634, "lon": 13.44609, "planning-area-id": 2400624}}, {"type": "Feature", "geometry": {"type": "Point", "coordinates": [13.41555, 52.51775]}, "properties": {"id": "4333951890", "name": "Beat81", "street": "Dircksenstraße 90", "zip-code": 10178, "lat": 52.51775, "lon": 13.41555, "planning-area-id": 1100310}}, {"type": "Feature", "geometry": {"type": "Point", "coordinates": [13.41612, 52.52304]}, "properties": {"id": "4420021957", "name": "FitX", "street": "Alexanderstraße 7", "zip-code": 10178, "lat": 52.52304, "lon": 13.41612, "planning-area-id": 1100310}}, {"type": "Feature", "geometry": {"type": "Point", "coordinates": [13.39742, 52.51064]}, "properties": {"id": "4424022530", "name": "McFit", "street": "Leipziger Straße 46/47", "zip-code": 10117, "lat": 52.51064, "lon": 13.39742, "planning-area-id": 1100207}}, {"type": "Feature", "geometry": {"type": "Point", "coordinates": [13.31723, 52.48997]}, "properties": {"id": "4437696196", "name": "7 circles", "street": "Sächsische Straße 39", "lat": 52.48997, "lon": 13.31723, "planning-area-id": 4501147}}, {"type": "Feature", "geometry": {"type": "Point", "coordinates": [13.34246, 52.44671]}, "properties": {"id": "4446537033", "name": "Sporteve", "lat": 52.44671, "lon": 13.34246, "planning-area-id": 6100206}}, {"type": "Feature", "geometry": {"type": "Point", "coordinates": [13.31573, 52.45371]}, "properties": {"id": "4459534982", "name": "Kreuzretter", "street": "Schloßstraße 54", "zip-code": 12165, "lat": 52.45371, "lon": 13.31573, "planning-area-id": 6100101}}, {"type": "Feature", "geometry": {"type": "Point", "coordinates": [13.32568, 52.60515]}, "properties": {"id": "4474870489", "name": "Therapiezentrum Waidmannslust", "street": "Oranienburger Straße 141", "zip-code": 13437, "lat": 52.60515, "lon": 13.32568, "planning-area-id": 12601031}}, {"type": "Feature", "geometry": {"type": "Point", "coordinates": [13.39548, 52.51396]}, "properties": {"id": "4514846830", "name": "Fitness First", "street": "Jägerstraße 27", "zip-code": 10117, "lat": 52.51396, "lon": 13.39548, "planning-area-id": 1100206}}, {"type": "Feature", "geometry": {"type": "Point", "coordinates": [13.45993, 52.5085]}, "properties": {"id": "4530197498", "name": "Green Yoga", "street": "Gärtnerstraße 3", "zip-code": 10245, "lat": 52.5085, "lon": 13.45993, "planning-area-id": 2500834}}, {"type": "Feature", "geometry": {"type": "Point", "coordinates": [13.39549, 52.53225]}, "properties": {"id": "4539202778", "name": "Fitbox", "street": "Invalidenstraße 152", "lat": 52.53225, "lon": 13.39549, "planning-area-id": 1100415}}, {"type": "Feature", "geometry": {"type": "Point", "coordinates": [13.2912, 52.58252]}, "properties": {"id": "4555677789", "name": "Fit in Tegel", "street": "Ernststraße 2", "zip-code": 13509, "lat": 52.58252, "lon": 13.2912, "planning-area-id": 12200412}}, {"type": "Feature", "geometry": {"type": "Point", "coordinates": [13.32868, 52.42744]}, "properties": {"id": "4572112192", "name": "Freiraum", "lat": 52.42744, "lon": 13.32868, "planning-area-id": 6200422}}, {"type": "Feature", "geometry": {"type": "Point", "coordinates": [13.39173, 52.50792]}, "properties": {"id": "4604863055", "name": "Bodystreet", "lat": 52.50792, "lon": 13.39173, "planning-area-id": 1100207}}, {"type": "Feature", "geometry": {"type": "Point", "coordinates": [13.45945, 52.51235]}, "properties": {"id": "4611801889", "name": "Yogibar", "street": "Boxhagener Straße 31", "zip-code": 10245, "lat": 52.51235, "lon": 13.45945, "planning-area-id": 2500833}}, {"type": "Feature", "geometry": {"type": "Point", "coordinates": [13.39854, 52.53452]}, "properties": {"id": "4614154589", "name": "Jivamukti Yoga Berlin", "street": "Brunnenstraße 29", "zip-code": 10119, "lat": 52.53452, "lon": 13.39854, "planning-area-id": 1100416}}, {"type": "Feature", "geometry": {"type": "Point", "coordinates": [13.46378, 52.49939]}, "properties": {"id": "4672876466", "name": "EagleCoach", "street": "Corinthstraße 51", "zip-code": 10245, "lat": 52.49939, "lon": 13.46378, "planning-area-id": 2500835}}, {"type": "Feature", "geometry": {"type": "Point", "coordinates": [13.43522, 52.48467]}, "properties": {"id": "4673478561", "name": "Studio Sonne", "street": "Sonnenallee 67", "zip-code": 12045, "lat": 52.48467, "lon": 13.43522, "planning-area-id": 8100312}}, {"type": "Feature", "geometry": {"type": "Point", "coordinates": [13.54678, 52.43715]}, "properties": {"id": "4797313796", "name": "Clever fit", "lat": 52.43715, "lon": 13.54678, "planning-area-id": 9200716}}, {"type": "Feature", "geometry": {"type": "Point", "coordinates": [13.39969, 52.56888]}, "properties": {"id": "4809992562", "name": "Premium Ems Personal Training", "lat": 52.56888, "lon": 13.39969, "planning-area-id": 3400721}}, {"type": "Feature", "geometry": {"type": "Point", "coordinates": [13.39841, 52.568]}, "properties": {"id": "4812222804", "name": "Ki-Haus", "street": "Wollankstraße 6", "zip-code": 13187, "lat": 52.568, "lon": 13.39841, "planning-area-id": 3400721}}, {"type": "Feature", "geometry": {"type": "Point", "coordinates": [13.3891, 52.51914]}, "properties": {"id": "4815247561", "name": "DocOrtho", "lat": 52.51914, "lon": 13.3891, "planning-area-id": 1100206}}, {"type": "Feature", "geometry": {"type": "Point", "coordinates": [13.43666, 52.49192]}, "properties": {"id": "4819499443", "name": "Peace Yoga Berlin", "street": "Glogauer Straße 19", "zip-code": 10999, "lat": 52.49192, "lon": 13.43666, "planning-area-id": 2300418}}, {"type": "Feature", "geometry": {"type": "Point", "coordinates": [13.3896, 52.54796]}, "properties": {"id": "4825870145", "name": "JOHN REED Fitness", "street": "Brunnenstraße 105-109", "zip-code": 13355, "lat": 52.54796, "lon": 13.3896, "planning-area-id": 1300834}}, {"type": "Feature", "geometry": {"type": "Point", "coordinates": [13.39579, 52.52489]}, "properties": {"id": "4849302124", "name": "Bikram Yoga Berlin-Mitte", "street": "Krausnickstraße 23", "zip-code": 10115, "lat": 52.52489, "lon": 13.39579, "planning-area-id": 1100309}}, {"type": "Feature", "geometry": {"type": "Point", "coordinates": [13.28795, 52.41836]}, "properties": {"id": "4861464949", "name": "McFit", "street": "Goerzallee 188", "zip-code": 14167, "lat": 52.41836, "lon": 13.28795, "planning-area-id": 6300632}}, {"type": "Feature", "geometry": {"type": "Point", "coordinates": [13.45754, 52.5115]}, "properties": {"id": "4908049913", "name": "Fitbox", "street": "Grünberger Straße 62", "zip-code": 10245, "lat": 52.5115, "lon": 13.45754, "planning-area-id": 2500833}}, {"type": "Feature", "geometry": {"type": "Point", "coordinates": [13.4339, 52.53126]}, "properties": {"id": "5001635832", "name": "FEEL THE BARRE", "street": "Bötzowstraße 26", "zip-code": 10407, "lat": 52.53126, "lon": 13.4339, "planning-area-id": 3701660}}, {"type": "Feature", "geometry": {"type": "Point", "coordinates": [13.30026, 52.49784]}, "properties": {"id": "5051041622", "name": "Mrs. Sporty", "lat": 52.49784, "lon": 13.30026, "planning-area-id": 4500938}}, {"type": "Feature", "geometry": {"type": "Point", "coordinates": [13.32135, 52.48944]}, "properties": {"id": "5082292600", "name": "Yoga Vidya Center Berlin-Wilmersdorf", "street": "Pfalzburger Straße 43", "zip-code": 10717, "lat": 52.48944, "lon": 13.32135, "planning-area-id": 4501147}}, {"type": "Feature", "geometry": {"type": "Point", "coordinates": [13.50391, 52.56488]}, "properties": {"id": "5147968721", "name": "Active Ladies", "street": "Zingster Straße 4", "zip-code": 13051, "lat": 52.56488, "lon": 13.50391, "planning-area-id": 11100307}}, {"type": "Feature", "geometry": {"type": "Point", "coordinates": [13.60934, 52.53776]}, "properties": {"id": "5248623193", "name": "Power Factory GmbH", "street": "Tangermünder Straße 129", "zip-code": 12627, "lat": 52.53776, "lon": 13.60934, "planning-area-id": 10200422}}, {"type": "Feature", "geometry": {"type": "Point", "coordinates": [13.54214, 52.54194]}, "properties": {"id": "5248861547", "name": "Ladycompany", "lat": 52.54194, "lon": 13.54214, "planning-area-id": 10100210}}, {"type": "Feature", "geometry": {"type": "Point", "coordinates": [13.44606, 52.47896]}, "properties": {"id": "5321891322", "name": "Tayopi", "street": "Sonnenallee 147", "zip-code": 12059, "lat": 52.47896, "lon": 13.44606, "planning-area-id": 8100418}}, {"type": "Feature", "geometry": {"type": "Point", "coordinates": [13.42141, 52.48521]}, "properties": {"id": "5337021037", "name": "Holmes Place", "lat": 52.48521, "lon": 13.42141, "planning-area-id": 8100101}}, {"type": "Feature", "geometry": {"type": "Point", "coordinates": [13.40177, 52.55302]}, "properties": {"id": "5339159802", "name": "Yoga", "lat": 52.55302, "lon": 13.40177, "planning-area-id": 3601140}}, {"type": "Feature", "geometry": {"type": "Point", "coordinates": [13.48892, 52.50535]}, "properties": {"id": "5348822589", "name": "Yoga Barn", "street": "Münsterlandstraße 5", "zip-code": 10317, "lat": 52.50535, "lon": 13.48892, "planning-area-id": 11400929}}, {"type": "Feature", "geometry": {"type": "Point", "coordinates": [13.33591, 52.48475]}, "properties": {"id": "5396107633", "name": "sportraum bs", "lat": 52.48475, "lon": 13.33591, "planning-area-id": 4501153}}, {"type": "Feature", "geometry": {"type": "Point", "coordinates": [13.37723, 52.53549]}, "properties": {"id": "5424563451", "name": "Slim-Gym Club", "street": "Chausseestraße 51", "zip-code": 10115, "lat": 52.53549, "lon": 13.37723, "planning-area-id": 1100414}}, {"type": "Feature", "geometry": {"type": "Point", "coordinates": [13.32543, 52.60793]}, "properties": {"id": "5443162245", "name": "FitX", "street": "Oraniendamm 6-10", "zip-code": 13469, "lat": 52.60793, "lon": 13.32543, "planning-area-id": 12601032}}, {"type": "Feature", "geometry": {"type": "Point", "coordinates": [13.38747, 52.45387]}, "properties": {"id": "5525155938", "name": "FitX", "lat": 52.45387, "lon": 13.38747, "planning-area-id": 7400927}}, {"type": "Feature", "geometry": {"type": "Point", "coordinates": [13.40952, 52.56423]}, "properties": {"id": "5552228830", "name": "Argo Athletics", "street": "Mühlenstraße 62;63;64;65", "zip-code": 13187, "lat": 52.56423, "lon": 13.40952, "planning-area-id": 3400826}}, {"type": "Feature", "geometry": {"type": "Point", "coordinates": [13.41025, 52.52458]}, "properties": {"id": "5656522305", "name": "Evo Berlin Rosa", "street": "Rosa-Luxemburg-Straße 14", "zip-code": 10178, "lat": 52.52458, "lon": 13.41025, "planning-area-id": 1100310}}, {"type": "Feature", "geometry": {"type": "Point", "coordinates": [13.46953, 52.5079]}, "properties": {"id": "5659022957", "name": "Berlin Hot Yoga", "lat": 52.5079, "lon": 13.46953, "planning-area-id": 2500832}}, {"type": "Feature", "geometry": {"type": "Point", "coordinates": [13.36117, 52.49657]}, "properties": {"id": "5718697030", "name": "Boxsport Berlin e.V.", "lat": 52.49657, "lon": 13.36117, "planning-area-id": 7100103}}, {"type": "Feature", "geometry": {"type": "Point", "coordinates": [13.29547, 52.50806]}, "properties": {"id": "5730290887", "name": "Casa Flow Studios", "street": "Suarezstraße 13", "zip-code": 14057, "lat": 52.50806, "lon": 13.29547, "planning-area-id": 4300416}}, {"type": "Feature", "geometry": {"type": "Point", "coordinates": [13.26518, 52.51338]}, "properties": {"id": "5796921707", "name": "Mrs. Sporty", "lat": 52.51338, "lon": 13.26518, "planning-area-id": 4200310}}, {"type": "Feature", "geometry": {"type": "Point", "coordinates": [13.41012, 52.56493]}, "properties": {"id": "5825069584", "name": "Casa de Quilombo", "lat": 52.56493, "lon": 13.41012, "planning-area-id": 3400826}}, {"type": "Feature", "geometry": {"type": "Point", "coordinates": [13.40625, 52.52667]}, "properties": {"id": "5913018282", "name": "Just Fit", "street": "Steinstraße 5", "zip-code": 10119, "lat": 52.52667, "lon": 13.40625, "planning-area-id": 1100309}}, {"type": "Feature", "geometry": {"type": "Point", "coordinates": [13.5096, 52.57453]}, "properties": {"id": "5916346085", "name": "Mrs. Sporty", "street": "Rostocker Straße 15", "zip-code": 13059, "lat": 52.57453, "lon": 13.5096, "planning-area-id": 11100206}}, {"type": "Feature", "geometry": {"type": "Point", "coordinates": [13.43771, 52.49896]}, "properties": {"id": "5980998064", "name": "Kreuzberg Yoga", "street": "Lübbener Straße 9", "zip-code": 10997, "lat": 52.49896, "lon": 13.43771, "planning-area-id": 2300419}}, {"type": "Feature", "geometry": {"type": "Point", "coordinates": [13.42609, 52.49558]}, "properties": {"id": "5981095822", "name": "Zentrum für Yoga und Stimme", "street": "Paul-Lincke-Ufer 30", "zip-code": 10999, "lat": 52.49558, "lon": 13.42609, "planning-area-id": 2300417}}, {"type": "Feature", "geometry": {"type": "Point", "coordinates": [13.43735, 52.47883]}, "properties": {"id": "5985950308", "name": "Fitbox", "street": "Karl-Marx-Straße 108", "zip-code": 12043, "lat": 52.47883, "lon": 13.43735, "planning-area-id": 8100207}}, {"type": "Feature", "geometry": {"type": "Point", "coordinates": [13.25824, 52.43508]}, "properties": {"id": "6006913091", "name": "Clever fit", "street": "Martin-Buber-Straße 12", "zip-code": 14163, "lat": 52.43508, "lon": 13.25824, "planning-area-id": 6300526}}, {"type": "Feature", "geometry": {"type": "Point", "coordinates": [13.44555, 52.50587]}, "properties": {"id": "6029322205", "name": "FitX", "street": "Tamara-Danz-Straße 11", "zip-code": 10243, "lat": 52.50587, "lon": 13.44555, "planning-area-id": 2400625}}, {"type": "Feature", "geometry": {"type": "Point", "coordinates": [13.46173, 52.53047]}, "properties": {"id": "6141321914", "name": "FitX", "street": "Oderbruchstraße 14", "zip-code": 10369, "lat": 52.53047, "lon": 13.46173, "planning-area-id": 11300616}}, {"type": "Feature", "geometry": {"type": "Point", "coordinates": [13.46253, 52.48453]}, "properties": {"id": "6217415536", "name": "Paramount Fitness", "street": "Puderstraße 8", "zip-code": 12435, "lat": 52.48453, "lon": 13.46253, "planning-area-id": 9100202}}, {"type": "Feature", "geometry": {"type": "Point", "coordinates": [13.36944, 52.49056]}, "properties": {"id": "6245373115", "name": "Iyengar Yoga Zentrum", "street": "Hochkirchstraße 9/2", "zip-code": 10829, "lat": 52.49056, "lon": 13.36944, "planning-area-id": 7100206}}, {"type": "Feature", "geometry": {"type": "Point", "coordinates": [13.31729, 52.49375]}, "properties": {"id": "6249985337", "name": "taohealth", "street": "Wittelsbacherstraße 37", "zip-code": 10707, "lat": 52.49375, "lon": 13.31729, "planning-area-id": 4501043}}, {"type": "Feature", "geometry": {"type": "Point", "coordinates": [13.56029, 52.50624]}, "properties": {"id": "6261885939", "name": "FitX", "street": "Weißenhöher Straße 108", "zip-code": 12683, "lat": 52.50624, "lon": 13.56029, "planning-area-id": 10300733}}, {"type": "Feature", "geometry": {"type": "Point", "coordinates": [13.42397, 52.50071]}, "properties": {"id": "6269985404", "name": "Gelber Raum", "street": "Mariannenstraße 48", "zip-code": 10997, "lat": 52.50071, "lon": 13.42397, "planning-area-id": 2300315}}, {"type": "Feature", "geometry": {"type": "Point", "coordinates": [13.40966, 52.54842]}, "properties": {"id": "6287061378", "name": "Yoga Pankow", "lat": 52.54842, "lon": 13.40966, "planning-area-id": 3601142}}, {"type": "Feature", "geometry": {"type": "Point", "coordinates": [13.40375, 52.55307]}, "properties": {"id": "6339499872", "name": "Afra Senter", "lat": 52.55307, "lon": 13.40375, "planning-area-id": 3601140}}, {"type": "Feature", "geometry": {"type": "Point", "coordinates": [13.46275, 52.51361]}, "properties": {"id": "6357893262", "name": "Lotos Yoga", "lat": 52.51361, "lon": 13.46275, "planning-area-id": 2500831}}, {"type": "Feature", "geometry": {"type": "Point", "coordinates": [13.62534, 52.45289]}, "properties": {"id": "6388113852", "name": "Fitbox", "street": "Bölschestraße 45", "zip-code": 12587, "lat": 52.45289, "lon": 13.62534, "planning-area-id": 9501737}}, {"type": "Feature", "geometry": {"type": "Point", "coordinates": [13.44874, 52.49389]}, "properties": {"id": "6398137732", "name": "Urban Street Gym", "street": "Bouchéstraße 12", "zip-code": 12435, "lat": 52.49389, "lon": 13.44874, "planning-area-id": 9100101}}, {"type": "Feature", "geometry": {"type": "Point", "coordinates": [13.46567, 52.51482]}, "properties": {"id": "6414803768", "name": "Fitness First", "street": "Frankfurter Allee 57", "lat": 52.51482, "lon": 13.46567, "planning-area-id": 2500728}}, {"type": "Feature", "geometry": {"type": "Point", "coordinates": [13.34456, 52.525]}, "properties": {"id": "6415868985", "name": "Slim-Gym", "street": "Alt-Moabit 92", "zip-code": 10559, "lat": 52.525, "lon": 13.34456, "planning-area-id": 1200626}}, {"type": "Feature", "geometry": {"type": "Point", "coordinates": [13.58643, 52.52318]}, "properties": {"id": "6421090392", "name": "skyfit-Club", "street": "Hellersdorfer Straße 83", "zip-code": 12619, "lat": 52.52318, "lon": 13.58643, "planning-area-id": 10200629}}, {"type": "Feature", "geometry": {"type": "Point", "coordinates": [13.32384, 52.51229]}, "properties": {"id": "6447122889", "name": "Fitnessstudio TU Sport", "street": "Straße des 17. Juni 145", "zip-code": 10623, "lat": 52.51229, "lon": 13.32384, "planning-area-id": 4300622}}, {"type": "Feature", "geometry": {"type": "Point", "coordinates": [13.42549, 52.47636]}, "properties": {"id": "6451531078", "name": "Dharma Yoga", "street": "Kienitzer Straße 98", "zip-code": 12049, "lat": 52.47636, "lon": 13.42549, "planning-area-id": 8100102}}, {"type": "Feature", "geometry": {"type": "Point", "coordinates": [13.32103, 52.46495]}, "properties": {"id": "6458744287", "name": "Steglitzer Dance & Aerobic Center", "street": "Lepsiusstraße 14", "zip-code": 12163, "lat": 52.46495, "lon": 13.32103, "planning-area-id": 6100103}}, {"type": "Feature", "geometry": {"type": "Point", "coordinates": [13.32682, 52.49278]}, "properties": {"id": "6469985311", "name": "Aum Yoga Studio", "street": "Nassauische Straße 62", "zip-code": 10717, "lat": 52.49278, "lon": 13.32682, "planning-area-id": 4501149}}, {"type": "Feature", "geometry": {"type": "Point", "coordinates": [13.18743, 52.53187]}, "properties": {"id": "6497580485", "name": "McFit", "street": "Altonaer Straße 59-61", "zip-code": 13581, "lat": 52.53187, "lon": 13.18743, "planning-area-id": 5200629}}, {"type": "Feature", "geometry": {"type": "Point", "coordinates": [13.34184, 52.52654]}, "properties": {"id": "6508696785", "name": "Fit Star", "street": "Turmstraße 29", "zip-code": 10551, "lat": 52.52654, "lon": 13.34184, "planning-area-id": 1200520}}, {"type": "Feature", "geometry": {"type": "Point", "coordinates": [13.40299, 52.52797]}, "properties": {"id": "6550896785", "name": "John & Jane‘s", "street": "Rosenthaler Straße 63", "lat": 52.52797, "lon": 13.40299, "planning-area-id": 1100309}}, {"type": "Feature", "geometry": {"type": "Point", "coordinates": [13.53898, 52.5281]}, "properties": {"id": "6563440585", "name": "Clever fit", "street": "Helene-Weigel-Platz 5", "zip-code": 12681, "lat": 52.5281, "lon": 13.53898, "planning-area-id": 10100312}}, {"type": "Feature", "geometry": {"type": "Point", "coordinates": [13.35515, 52.54903]}, "properties": {"id": "6586374601", "name": "FIT/ONE", "street": "Müllerstraße 35", "zip-code": 13353, "lat": 52.54903, "lon": 13.35515, "planning-area-id": 1401048}}, {"type": "Feature", "geometry": {"type": "Point", "coordinates": [13.42133, 52.53791]}, "properties": {"id": "6693475018", "name": "Green Yoga", "street": "Sredzkistraße 59", "zip-code": 10405, "lat": 52.53791, "lon": 13.42133, "planning-area-id": 3701555}}, {"type": "Feature", "geometry": {"type": "Point", "coordinates": [13.40279, 52.5858]}, "properties": {"id": "6757633586", "name": "Green Yoga", "street": "Dietzgenstraße 56", "zip-code": 13156, "lat": 52.5858, "lon": 13.40279, "planning-area-id": 3200207}}, {"type": "Feature", "geometry": {"type": "Point", "coordinates": [13.46234, 52.50639]}, "properties": {"id": "6759112267", "name": "Studio Glücksmama", "street": "Döringstraße 2", "zip-code": 10245, "lat": 52.50639, "lon": 13.46234, "planning-area-id": 2500834}}, {"type": "Feature", "geometry": {"type": "Point", "coordinates": [13.3713, 52.49216]}, "properties": {"id": "6789070129", "name": "Fit/One", "street": "Bautzener Straße 20-24", "zip-code": 10829, "lat": 52.49216, "lon": 13.3713, "planning-area-id": 7100206}}, {"type": "Feature", "geometry": {"type": "Point", "coordinates": [13.4263, 52.50001]}, "properties": {"id": "6841151512", "name": "Sportetage", "street": "Audre-Lorde-Straße 74", "zip-code": 10997, "lat": 52.50001, "lon": 13.4263, "planning-area-id": 2300315}}, {"type": "Feature", "geometry": {"type": "Point", "coordinates": [13.42223, 52.5351]}, "properties": {"id": "6853266785", "name": "Casa FLOW", "street": "Prenzlauer Allee 38", "zip-code": 10405, "lat": 52.5351, "lon": 13.42223, "planning-area-id": 3701659}}, {"type": "Feature", "geometry": {"type": "Point", "coordinates": [13.30976, 52.50941]}, "properties": {"id": "6899045752", "name": "Iyengar Yoga", "street": "Krumme Straße 61", "zip-code": 10627, "lat": 52.50941, "lon": 13.30976, "planning-area-id": 4300623}}, {"type": "Feature", "geometry": {"type": "Point", "coordinates": [13.3844, 52.50253]}, "properties": {"id": "7006749859", "name": "Forde Fitness", "street": "Stresemannstraße 65", "zip-code": 10963, "lat": 52.50253, "lon": 13.3844, "planning-area-id": 2100101}}, {"type": "Feature", "geometry": {"type": "Point", "coordinates": [13.45187, 52.47902]}, "properties": {"id": "7057578051", "name": "Yoga im Gartenstudio", "lat": 52.47902, "lon": 13.45187, "planning-area-id": 8100418}}, {"type": "Feature", "geometry": {"type": "Point", "coordinates": [13.35569, 52.48556]}, "properties": {"id": "7066762906", "name": "FitX", "street": "Hauptstraße 141", "zip-code": 10827, "lat": 52.48556, "lon": 13.35569, "planning-area-id": 7200410}}, {"type": "Feature", "geometry": {"type": "Point", "coordinates": [13.43293, 52.53165]}, "properties": {"id": "7069825849", "name": "InLight Yoga", "street": "Hufelandstraße 23", "zip-code": 10407, "lat": 52.53165, "lon": 13.43293, "planning-area-id": 3701660}}, {"type": "Feature", "geometry": {"type": "Point", "coordinates": [13.43278, 52.53171]}, "properties": {"id": "7069825850", "name": "EMS Sport und Bewegung", "street": "Hufelandstraße 23", "zip-code": 10407, "lat": 52.53171, "lon": 13.43278, "planning-area-id": 3701660}}, {"type": "Feature", "geometry": {"type": "Point", "coordinates": [13.43404, 52.53311]}, "properties": {"id": "7095755738", "name": "Makeda", "street": "Pasteurstraße 20", "zip-code": 10407, "lat": 52.53311, "lon": 13.43404, "planning-area-id": 3701660}}, {"type": "Feature", "geometry": {"type": "Point", "coordinates": [13.37783, 52.54949]}, "properties": {"id": "7133818467", "name": "CrunchFit", "street": "Pankstraße 32-39", "lat": 52.54949, "lon": 13.37783, "planning-area-id": 1300836}}, {"type": "Feature", "geometry": {"type": "Point", "coordinates": [13.4241, 52.488]}, "properties": {"id": "7161037005", "name": "American Fitness", "street": "Hermannplatz 10", "zip-code": 10967, "lat": 52.488, "lon": 13.4241, "planning-area-id": 2200212}}, {"type": "Feature", "geometry": {"type": "Point", "coordinates": [13.43613, 52.53363]}, "properties": {"id": "7194124792", "name": "Kindersport Sven Bora", "street": "Dietrich-Bonhoeffer-Straße 17a", "zip-code": 10407, "lat": 52.53363, "lon": 13.43613, "planning-area-id": 3701660}}, {"type": "Feature", "geometry": {"type": "Point", "coordinates": [13.43619, 52.53361]}, "properties": {"id": "7194124793", "name": "yogi", "street": "Dietrich-Bonhoeffer-Straße 17a", "zip-code": 10407, "lat": 52.53361, "lon": 13.43619, "planning-area-id": 3701660}}, {"type": "Feature", "geometry": {"type": "Point", "coordinates": [13.44676, 52.4758]}, "properties": {"id": "7231134046", "name": "yogaraum Am Richardplatz", "street": "Hertzbergstraße 27", "lat": 52.4758, "lon": 13.44676, "planning-area-id": 8100416}}, {"type": "Feature", "geometry": {"type": "Point", "coordinates": [13.3746, 52.59543]}, "properties": {"id": "7239669952", "name": "Mrs. Sporty", "street": "Hauptstraße 101B", "zip-code": 13158, "lat": 52.59543, "lon": 13.3746, "planning-area-id": 3400618}}, {"type": "Feature", "geometry": {"type": "Point", "coordinates": [13.46686, 52.50798]}, "properties": {"id": "7252377721", "name": "TSX Sportsclub", "lat": 52.50798, "lon": 13.46686, "planning-area-id": 2500833}}, {"type": "Feature", "geometry": {"type": "Point", "coordinates": [13.42236, 52.54399]}, "properties": {"id": "7272720758", "name": "Formwandler", "street": "Dunckerstraße 21", "zip-code": 10437, "lat": 52.54399, "lon": 13.42236, "planning-area-id": 3601348}}, {"type": "Feature", "geometry": {"type": "Point", "coordinates": [13.41971, 52.54162]}, "properties": {"id": "7275474348", "name": "Via Pilates", "street": "Dunckerstraße 84", "zip-code": 10437, "lat": 52.54162, "lon": 13.41971, "planning-area-id": 3601347}}, {"type": "Feature", "geometry": {"type": "Point", "coordinates": [13.42281, 52.54505]}, "properties": {"id": "7279178744", "name": "House of Healing", "street": "Dunckerstraße 70", "zip-code": 10437, "lat": 52.54505, "lon": 13.42281, "planning-area-id": 3601347}}, {"type": "Feature", "geometry": {"type": "Point", "coordinates": [13.42078, 52.54455]}, "properties": {"id": "7279405008", "name": "YogaCircle", "street": "Schliemannstraße 22", "zip-code": 10437, "lat": 52.54455, "lon": 13.42078, "planning-area-id": 3601347}}, {"type": "Feature", "geometry": {"type": "Point", "coordinates": [13.71536, 52.4313]}, "properties": {"id": "7296568749", "name": "fit & feminin", "street": "Fürstenwalder Allee 318", "zip-code": 12589, "lat": 52.4313, "lon": 13.71536, "planning-area-id": 9501838}}, {"type": "Feature", "geometry": {"type": "Point", "coordinates": [13.42355, 52.53953]}, "properties": {"id": "7311293615", "name": "My Sports", "street": "Danziger Straße 69", "zip-code": 10435, "lat": 52.53953, "lon": 13.42355, "planning-area-id": 3601348}}, {"type": "Feature", "geometry": {"type": "Point", "coordinates": [13.32462, 52.4758]}, "properties": {"id": "7544210933", "name": "EMS Training Berlin", "lat": 52.4758, "lon": 13.32462, "planning-area-id": 7300515}}, {"type": "Feature", "geometry": {"type": "Point", "coordinates": [13.44529, 52.47349]}, "properties": {"id": "7553701884", "name": "Oma Om Yoga", "street": "Richardstraße 43", "zip-code": 12055, "lat": 52.47349, "lon": 13.44529, "planning-area-id": 8100416}}, {"type": "Feature", "geometry": {"type": "Point", "coordinates": [13.33278, 52.46945]}, "properties": {"id": "7554171386", "name": "Fitbox", "street": "Rheinstraße 17", "zip-code": 12159, "lat": 52.46945, "lon": 13.33278, "planning-area-id": 7300517}}, {"type": "Feature", "geometry": {"type": "Point", "coordinates": [13.34242, 52.5527]}, "properties": {"id": "7623775571", "name": "Blue Panta", "street": "Transvaalstraße 11", "zip-code": 13351, "lat": 52.5527, "lon": 13.34242, "planning-area-id": 1400937}}, {"type": "Feature", "geometry": {"type": "Point", "coordinates": [13.34019, 52.47581]}, "properties": {"id": "7640755748", "name": "Yogazeit Stråla", "street": "Hauptstraße 69", "zip-code": 12159, "lat": 52.47581, "lon": 13.34019, "planning-area-id": 7300517}}, {"type": "Feature", "geometry": {"type": "Point", "coordinates": [13.30446, 52.51626]}, "properties": {"id": "7650571611", "name": "Yogavihar", "lat": 52.51626, "lon": 13.30446, "planning-area-id": 4300621}}, {"type": "Feature", "geometry": {"type": "Point", "coordinates": [13.33965, 52.46706]}, "properties": {"id": "7680118565", "name": "Entspannt mit Yoga", "street": "Beckerstraße 9", "zip-code": 12157, "lat": 52.46706, "lon": 13.33965, "planning-area-id": 7300619}}, {"type": "Feature", "geometry": {"type": "Point", "coordinates": [13.33243, 52.47262]}, "properties": {"id": "7683719224", "name": "Raum für Bewegung Quan Dao", "street": "Niedstraße 12", "zip-code": 12159, "lat": 52.47262, "lon": 13.33243, "planning-area-id": 7300517}}, {"type": "Feature", "geometry": {"type": "Point", "coordinates": [13.3259, 52.47266]}, "properties": {"id": "7749923385", "name": "Akademie für Yoga Berlin", "street": "Wilhelmshöher Straße 5", "zip-code": 12161, "lat": 52.47266, "lon": 13.3259, "planning-area-id": 7300515}}, {"type": "Feature", "geometry": {"type": "Point", "coordinates": [13.33069, 52.46679]}, "properties": {"id": "7776107176", "name": "Donna Mobile", "street": "Rheinstraße 46", "zip-code": 12161, "lat": 52.46679, "lon": 13.33069, "planning-area-id": 7300618}}, {"type": "Feature", "geometry": {"type": "Point", "coordinates": [13.33707, 52.47025]}, "properties": {"id": "7776239760", "name": "Flow Fitness", "street": "Fregestraße 11", "zip-code": 12159, "lat": 52.47025, "lon": 13.33707, "planning-area-id": 7300618}}, {"type": "Feature", "geometry": {"type": "Point", "coordinates": [13.32317, 52.47236]}, "properties": {"id": "7777530626", "name": "Peronal Pilates", "street": "Wilhelmshöher Straße 20", "zip-code": 12161, "lat": 52.47236, "lon": 13.32317, "planning-area-id": 7300515}}, {"type": "Feature", "geometry": {"type": "Point", "coordinates": [13.32361, 52.48674]}, "properties": {"id": "7804846347", "name": "CrossFit", "street": "Berliner Straße 30", "zip-code": 10715, "lat": 52.48674, "lon": 13.32361, "planning-area-id": 4501149}}, {"type": "Feature", "geometry": {"type": "Point", "coordinates": [13.55991, 52.5085]}, "properties": {"id": "7836953685", "name": "Health Gym Berlin", "lat": 52.5085, "lon": 13.55991, "planning-area-id": 10300733}}, {"type": "Feature", "geometry": {"type": "Point", "coordinates": [13.35778, 52.49458]}, "properties": {"id": "7850361039", "name": "Ashtanga Yoga Schule", "lat": 52.49458, "lon": 13.35778, "planning-area-id": 7100103}}, {"type": "Feature", "geometry": {"type": "Point", "coordinates": [13.42779, 52.5368]}, "properties": {"id": "7867810048", "name": "Mrs. Sporty", "street": "Winsstraße 42", "zip-code": 10405, "lat": 52.5368, "lon": 13.42779, "planning-area-id": 3701658}}, {"type": "Feature", "geometry": {"type": "Point", "coordinates": [13.33251, 52.47927]}, "properties": {"id": "8042827117", "name": "Strom-Linien", "street": "Prinzregentenstraße 42", "zip-code": 10715, "lat": 52.47927, "lon": 13.33251, "planning-area-id": 4501153}}, {"type": "Feature", "geometry": {"type": "Point", "coordinates": [13.4118, 52.54441]}, "properties": {"id": "8066147155", "name": "Ready Set Move – Personal Training Berlin", "street": "Schönhauser Allee 134", "zip-code": 10437, "lat": 52.54441, "lon": 13.4118, "planning-area-id": 3601142}}, {"type": "Feature", "geometry": {"type": "Point", "coordinates": [13.33133, 52.49099]}, "properties": {"id": "8077205619", "name": "Fitbox", "lat": 52.49099, "lon": 13.33133, "planning-area-id": 4501152}}, {"type": "Feature", "geometry": {"type": "Point", "coordinates": [13.33049, 52.45269]}, "properties": {"id": "8091797796", "name": "Kessler Sports", "zip-code": 12167, "lat": 52.45269, "lon": 13.33049, "planning-area-id": 6100207}}, {"type": "Feature", "geometry": {"type": "Point", "coordinates": [13.32027, 52.47094]}, "properties": {"id": "8094802649", "name": "Sporteve", "street": "Laubacher Straße 12", "zip-code": 14197, "lat": 52.47094, "lon": 13.32027, "planning-area-id": 7300516}}, {"type": "Feature", "geometry": {"type": "Point", "coordinates": [13.3208, 52.45752]}, "properties": {"id": "8120989341", "name": "Fitness First Ladies", "lat": 52.45752, "lon": 13.3208, "planning-area-id": 6100102}}, {"type": "Feature", "geometry": {"type": "Point", "coordinates": [13.3209, 52.47142]}, "properties": {"id": "8143925996", "name": "Pilates On The Go", "street": "Wiesbadener Straße 79", "zip-code": 12161, "lat": 52.47142, "lon": 13.3209, "planning-area-id": 7300516}}, {"type": "Feature", "geometry": {"type": "Point", "coordinates": [13.31036, 52.50058]}, "properties": {"id": "8197441972", "name": "Rocycle", "lat": 52.50058, "lon": 13.31036, "planning-area-id": 4501040}}, {"type": "Feature", "geometry": {"type": "Point", "coordinates": [13.32316, 52.47032]}, "properties": {"id": "8199219273", "name": "pilaME", "street": "Homuthstraße 6", "zip-code": 12161, "lat": 52.47032, "lon": 13.32316, "planning-area-id": 7300516}}, {"type": "Feature", "geometry": {"type": "Point", "coordinates": [13.32895, 52.46979]}, "properties": {"id": "8222836706", "name": "Praxis für die Seele", "street": "Bundesallee 123", "zip-code": 12161, "lat": 52.46979, "lon": 13.32895, "planning-area-id": 7300516}}, {"type": "Feature", "geometry": {"type": "Point", "coordinates": [13.54791, 52.43952]}, "properties": {"id": "8231100116", "name": "Yoga Glück", "street": "Hackenbergstraße 7", "zip-code": 12489, "lat": 52.43952, "lon": 13.54791, "planning-area-id": 9200717}}, {"type": "Feature", "geometry": {"type": "Point", "coordinates": [13.3673, 52.60487]}, "properties": {"id": "8330198881", "name": "Fitnessclub Vitalis", "street": "Zerpenschleuser Ring 37", "zip-code": 13439, "lat": 52.60487, "lon": 13.3673, "planning-area-id": 12601133}}, {"type": "Feature", "geometry": {"type": "Point", "coordinates": [13.33455, 52.4877]}, "properties": {"id": "8422865852", "name": "Hundred & Friends", "street": "Berliner Straße 161", "zip-code": 10715, "lat": 52.4877, "lon": 13.33455, "planning-area-id": 4501153}}, {"type": "Feature", "geometry": {"type": "Point", "coordinates": [13.49842, 52.56039]}, "properties": {"id": "8462294818", "name": "FIT/ONE", "street": "Hansastraße 236", "zip-code": 13051, "lat": 52.56039, "lon": 13.49842, "planning-area-id": 11200410}}, {"type": "Feature", "geometry": {"type": "Point", "coordinates": [13.40522, 52.55356]}, "properties": {"id": "8558365378", "name": "Centerline Pilates", "lat": 52.55356, "lon": 13.40522, "planning-area-id": 3601140}}, {"type": "Feature", "geometry": {"type": "Point", "coordinates": [13.42259, 52.53712]}, "properties": {"id": "8621664469", "name": "Fitbox", "street": "Prenzlauer Allee 207", "zip-code": 10405, "lat": 52.53712, "lon": 13.42259, "planning-area-id": 3701555}}, {"type": "Feature", "geometry": {"type": "Point", "coordinates": [13.41772, 52.53993]}, "properties": {"id": "8622816454", "name": "ride-berlin.com", "lat": 52.53993, "lon": 13.41772, "planning-area-id": 3701555}}, {"type": "Feature", "geometry": {"type": "Point", "coordinates": [13.29135, 52.51103]}, "properties": {"id": "8626109382", "name": "Iyengar Yoga", "lat": 52.51103, "lon": 13.29135, "planning-area-id": 4300414}}, {"type": "Feature", "geometry": {"type": "Point", "coordinates": [13.34075, 52.48726]}, "properties": {"id": "8637655134", "name": "Schule für Yoga und Prana", "street": "Innsbrucker Straße 56", "zip-code": 10825, "lat": 52.48726, "lon": 13.34075, "planning-area-id": 7200307}}, {"type": "Feature", "geometry": {"type": "Point", "coordinates": [13.44853, 52.51213]}, "properties": {"id": "8662502304", "name": "Soulsport Yoga", "street": "Gubener Straße 47", "zip-code": 10243, "lat": 52.51213, "lon": 13.44853, "planning-area-id": 2400624}}, {"type": "Feature", "geometry": {"type": "Point", "coordinates": [13.34713, 52.5492]}, "properties": {"id": "8679795668", "name": "pilatique, Pilatesstudio", "lat": 52.5492, "lon": 13.34713, "planning-area-id": 1400938}}, {"type": "Feature", "geometry": {"type": "Point", "coordinates": [13.29608, 52.49907]}, "properties": {"id": "8839649644", "name": "Be Your Star Fitnesscoaching", "street": "Joachim-Friedrich-Straße 41", "zip-code": 10711, "lat": 52.49907, "lon": 13.29608, "planning-area-id": 4500937}}, {"type": "Feature", "geometry": {"type": "Point", "coordinates": [13.38165, 52.48253]}, "properties": {"id": "8989690901", "name": "Iyengar", "lat": 52.48253, "lon": 13.38165, "planning-area-id": 7400720}}, {"type": "Feature", "geometry": {"type": "Point", "coordinates": [13.37565, 52.50065]}, "properties": {"id": "9067697047", "name": "X-Step", "street": "Tempelhofer Ufer 36", "zip-code": 10963, "lat": 52.50065, "lon": 13.37565, "planning-area-id": 2200207}}, {"type": "Feature", "geometry": {"type": "Point", "coordinates": [13.33186, 52.60103]}, "properties": {"id": "9258064630", "street": "Oranienburger Straße 110", "zip-code": 13437, "lat": 52.60103, "lon": 13.33186, "planning-area-id": 12601031}}, {"type": "Feature", "geometry": {"type": "Point", "coordinates": [13.45343, 52.54786]}, "properties": {"id": "9402426708", "name": "BiSee Yoga", "street": "Bizetstraße 43", "zip-code": 13088, "lat": 52.54786, "lon": 13.45343, "planning-area-id": 3500936}}, {"type": "Feature", "geometry": {"type": "Point", "coordinates": [13.33953, 52.46233]}, "properties": {"id": "9404573372", "name": "Bodystreet", "street": "Bismarckstraße 70", "zip-code": 12157, "lat": 52.46233, "lon": 13.33953, "planning-area-id": 6100210}}, {"type": "Feature", "geometry": {"type": "Point", "coordinates": [13.4596, 52.55008]}, "properties": {"id": "9431775959", "name": "Fitbox", "street": "Berliner Allee 108", "zip-code": 13088, "lat": 52.55008, "lon": 13.4596, "planning-area-id": 3500936}}, {"type": "Feature", "geometry": {"type": "Point", "coordinates": [13.45722, 52.54769]}, "properties": {"id": "9504311194", "name": "Sonne Mond & Sterne", "street": "Meyerbeerstraße 59", "zip-code": 13088, "lat": 52.54769, "lon": 13.45722, "planning-area-id": 3500936}}, {"type": "Feature", "geometry": {"type": "Point", "coordinates": [13.39829, 52.49391]}, "properties": {"id": "9524144982", "name": "PRO-STAGE", "lat": 52.49391, "lon": 13.39829, "planning-area-id": 2200210}}, {"type": "Feature", "geometry": {"type": "Point", "coordinates": [13.27262, 52.50846]}, "properties": {"id": "9529221826", "name": "LovFit", "lat": 52.50846, "lon": 13.27262, "planning-area-id": 4200310}}, {"type": "Feature", "geometry": {"type": "Point", "coordinates": [13.30601, 52.50975]}, "properties": {"id": "9592884391", "name": "JOHN REED Fitness", "street": "Wilmersdorfer Straße 126-127", "zip-code": 10627, "lat": 52.50975, "lon": 13.30601, "planning-area-id": 4300623}}, {"type": "Feature", "geometry": {"type": "Point", "coordinates": [13.34084, 52.46279]}, "properties": {"id": "9632071018", "name": "MO.VE", "street": "Kissinger Straße 9", "zip-code": 12157, "lat": 52.46279, "lon": 13.34084, "planning-area-id": 6100210}}, {"type": "Feature", "geometry": {"type": "Point", "coordinates": [13.43298, 52.50169]}, "properties": {"id": "9662767223", "name": "Peace Yoga Berlin", "street": "Eisenbahnstraße 5", "zip-code": 10997, "lat": 52.50169, "lon": 13.43298, "planning-area-id": 2300315}}, {"type": "Feature", "geometry": {"type": "Point", "coordinates": [13.41039, 52.57022]}, "properties": {"id": "9708780370", "name": "Bodystreet", "street": "Berliner Straße 2", "zip-code": 13187, "lat": 52.57022, "lon": 13.41039, "planning-area-id": 3400723}}, {"type": "Feature", "geometry": {"type": "Point", "coordinates": [13.4041, 52.52094]}, "properties": {"id": "9728794514", "name": "Ladycompany - Fitness für Frauen", "street": "Spandauer Straße 4", "zip-code": 10178, "lat": 52.52094, "lon": 13.4041, "planning-area-id": 1100310}}, {"type": "Feature", "geometry": {"type": "Point", "coordinates": [13.46568, 52.51533]}, "properties": {"id": "9775820813", "name": "yogafürdich Berlin", "lat": 52.51533, "lon": 13.46568, "planning-area-id": 2500728}}, {"type": "Feature", "geometry": {"type": "Point", "coordinates": [13.41093, 52.55273]}, "properties": {"id": "9806604950", "name": "dein Pilates", "lat": 52.55273, "lon": 13.41093, "planning-area-id": 3601141}}, {"type": "Feature", "geometry": {"type": "Point", "coordinates": [13.45584, 52.51123]}, "properties": {"id": "9830837796", "name": "Bunker Berlin", "street": "Grünberger Straße 54", "zip-code": 10245, "lat": 52.51123, "lon": 13.45584, "planning-area-id": 2500833}}, {"type": "Feature", "geometry": {"type": "Point", "coordinates": [13.46332, 52.51337]}, "properties": {"id": "9846635117", "name": "Lotos Yoga Berlin - YOGA LOFT", "street": "Scharnweberstraße 30", "lat": 52.51337, "lon": 13.46332, "planning-area-id": 2500831}}, {"type": "Feature", "geometry": {"type": "Point", "coordinates": [13.48929, 52.49195]}, "properties": {"id": "9852432518", "name": "AXT CrossFit", "street": "Hauptstraße 13", "zip-code": 10317, "lat": 52.49195, "lon": 13.48929, "planning-area-id": 11501238}}, {"type": "Feature", "geometry": {"type": "Point", "coordinates": [13.4769, 52.52327]}, "properties": {"id": "9867335575", "street": "Storkower Straße 225", "zip-code": 10367, "lat": 52.52327, "lon": 13.4769, "planning-area-id": 11300619}}, {"type": "Feature", "geometry": {"type": "Point", "coordinates": [13.45757, 52.49134]}, "properties": {"id": "9906919513", "name": "Fitness am Park", "street": "Elsenstraße 113", "lat": 52.49134, "lon": 13.45757, "planning-area-id": 9100101}}, {"type": "Feature", "geometry": {"type": "Point", "coordinates": [13.38754, 52.48889]}, "properties": {"id": "9906938038", "name": "FitnessCenter aTB", "street": "Am Tempelhofer Berg 6", "lat": 52.48889, "lon": 13.38754, "planning-area-id": 2200211}}, {"type": "Feature", "geometry": {"type": "Point", "coordinates": [13.38131, 52.51045]}, "properties": {"id": "9928786051", "name": "AllStar Gym", "street": "Leipziger Platz 12", "zip-code": 10117, "lat": 52.51045, "lon": 13.38131, "planning-area-id": 1100205}}, {"type": "Feature", "geometry": {"type": "Point", "coordinates": [13.40957, 52.5646]}, "properties": {"id": "9985456517", "name": "mPointUp", "lat": 52.5646, "lon": 13.40957, "planning-area-id": 3400826}}, {"type": "Feature", "geometry": {"type": "Point", "coordinates": [13.30329, 52.49088]}, "properties": {"id": "10000479377", "name": "Lokai Loft", "lat": 52.49088, "lon": 13.30329, "planning-area-id": 4500939}}, {"type": "Feature", "geometry": {"type": "Point", "coordinates": [13.41279, 52.54384]}, "properties": {"id": "10035842242", "name": "Future Fit", "street": "Schönhauser Allee 57", "zip-code": 10437, "lat": 52.54384, "lon": 13.41279, "planning-area-id": 3601346}}, {"type": "Feature", "geometry": {"type": "Point", "coordinates": [13.42791, 52.54499]}, "properties": {"id": "10045257318", "name": "Bodystreet", "street": "Prenzlauer Allee 88", "lat": 52.54499, "lon": 13.42791, "planning-area-id": 3601245}}, {"type": "Feature", "geometry": {"type": "Point", "coordinates": [13.41115, 52.54472]}, "properties": {"id": "10056214905", "name": "Arcoverde Pilates Zentrum", "street": "Cantianstraße 11", "zip-code": 10437, "lat": 52.54472, "lon": 13.41115, "planning-area-id": 3601142}}, {"type": "Feature", "geometry": {"type": "Point", "coordinates": [13.42155, 52.53138]}, "properties": {"id": "10100682968", "name": "Marion Röhrig Pilates", "street": "Heinrich-Roller-Straße 24", "zip-code": 10405, "lat": 52.53138, "lon": 13.42155, "planning-area-id": 3701659}}, {"type": "Feature", "geometry": {"type": "Point", "coordinates": [13.42477, 52.53352]}, "properties": {"id": "10100813297", "name": "Pantarei Approach", "street": "Winsstraße 60", "zip-code": 10405, "lat": 52.53352, "lon": 13.42477, "planning-area-id": 3701659}}, {"type": "Feature", "geometry": {"type": "Point", "coordinates": [13.32794, 52.46908]}, "properties": {"id": "10121509310", "name": "Twenty Minutes Fitness Lounge", "street": "Stubenrauchstraße 1", "zip-code": 12161, "lat": 52.46908, "lon": 13.32794, "planning-area-id": 7300516}}, {"type": "Feature", "geometry": {"type": "Point", "coordinates": [13.32237, 52.45324]}, "properties": {"id": "10124188468", "name": "Indiv Sports", "street": "Schützenstraße 16", "lat": 52.45324, "lon": 13.32237, "planning-area-id": 6100207}}, {"type": "Feature", "geometry": {"type": "Point", "coordinates": [13.36745, 52.46257]}, "properties": {"id": "10131167926", "name": "Crunch Fit Studio Berlin-Schöneberg", "street": "Bessemerstrasse 57-75", "zip-code": 12103, "lat": 52.46257, "lon": 13.36745, "planning-area-id": 7400822}}, {"type": "Feature", "geometry": {"type": "Point", "coordinates": [13.3266, 52.49784]}, "properties": {"id": "10248360663", "name": "stromtown", "lat": 52.49784, "lon": 13.3266, "planning-area-id": 4501045}}, {"type": "Feature", "geometry": {"type": "Point", "coordinates": [13.41509, 52.51878]}, "properties": {"id": "10282680110", "name": "Beat81", "street": "Dircksenstraße 99", "zip-code": 10178, "lat": 52.51878, "lon": 13.41509, "planning-area-id": 1100310}}, {"type": "Feature", "geometry": {"type": "Point", "coordinates": [13.36807, 52.53108]}, "properties": {"id": "10293894600", "name": "Getimpulse", "street": "Heidestraße 12", "lat": 52.53108, "lon": 13.36807, "planning-area-id": 1200624}}, {"type": "Feature", "geometry": {"type": "Point", "coordinates": [13.35596, 52.49006]}, "properties": {"id": "10314570434", "name": "Die Schönebergerin", "street": "Grunewaldstraße 86", "zip-code": 10823, "lat": 52.49006, "lon": 13.35596, "planning-area-id": 7200409}}, {"type": "Feature", "geometry": {"type": "Point", "coordinates": [13.31022, 52.47949]}, "properties": {"id": "10594955331", "name": "Classic Crossfit", "street": "Mecklenburgische Straße 24a", "zip-code": 14197, "lat": 52.47949, "lon": 13.31022, "planning-area-id": 4400830}}, {"type": "Feature", "geometry": {"type": "Point", "coordinates": [13.4129, 52.54721]}, "properties": {"id": "10609414411", "name": "Fitbox", "lat": 52.54721, "lon": 13.4129, "planning-area-id": 3601142}}, {"type": "Feature", "geometry": {"type": "Point", "coordinates": [13.29633, 52.50571]}, "properties": {"id": "10648363519", "name": "Warias Kosmetik & Yoga", "lat": 52.50571, "lon": 13.29633, "planning-area-id": 4300416}}, {"type": "Feature", "geometry": {"type": "Point", "coordinates": [13.47875, 52.52688]}, "properties": {"id": "10675679016", "name": "Crunch Fit", "street": "Weißenseer Weg 112", "zip-code": 10369, "lat": 52.52688, "lon": 13.47875, "planning-area-id": 11300617}}, {"type": "Feature", "geometry": {"type": "Point", "coordinates": [13.48767, 52.5384]}, "properties": {"id": "10702130505", "name": "VitalInn", "lat": 52.5384, "lon": 13.48767, "planning-area-id": 11200513}}, {"type": "Feature", "geometry": {"type": "Point", "coordinates": [13.62372, 52.44694]}, "properties": {"id": "10727283773", "name": "Vibra Fitness Lounge", "lat": 52.44694, "lon": 13.62372, "planning-area-id": 9501737}}, {"type": "Feature", "geometry": {"type": "Point", "coordinates": [13.31151, 52.50846]}, "properties": {"id": "10780033147", "name": "Feldenkrais & QiGong", "lat": 52.50846, "lon": 13.31151, "planning-area-id": 4300623}}, {"type": "Feature", "geometry": {"type": "Point", "coordinates": [13.32742, 52.45856]}, "properties": {"id": "10788867287", "name": "Krav Maga Berlin Headquarters", "street": "Bergstraße 93", "zip-code": 12169, "lat": 52.45856, "lon": 13.32742, "planning-area-id": 6100208}}, {"type": "Feature", "geometry": {"type": "Point", "coordinates": [13.32635, 52.50693]}, "properties": {"id": "10792875944", "name": "Fitness Unlimited", "street": "Uhlandstraße 194", "zip-code": 10623, "lat": 52.50693, "lon": 13.32635, "planning-area-id": 4300622}}, {"type": "Feature", "geometry": {"type": "Point", "coordinates": [13.31605, 52.45382]}, "properties": {"id": "10797454234", "name": "Bodystreet", "lat": 52.45382, "lon": 13.31605, "planning-area-id": 6100101}}, {"type": "Feature", "geometry": {"type": "Point", "coordinates": [13.43066, 52.53112]}, "properties": {"id": "10802968151", "name": "yogibar", "lat": 52.53112, "lon": 13.43066, "planning-area-id": 3701660}}, {"type": "Feature", "geometry": {"type": "Point", "coordinates": [13.52214, 52.49765]}, "properties": {"id": "10804733989", "name": "FitX", "street": "Otto-Schmirgal-Straße 7", "zip-code": 10319, "lat": 52.49765, "lon": 13.52214, "planning-area-id": 11401137}}, {"type": "Feature", "geometry": {"type": "Point", "coordinates": [13.36466, 52.47811]}, "properties": {"id": "10881753305", "name": "FitX", "street": "Wilhelm-Kabus-Straße 77", "zip-code": 10829, "lat": 52.47811, "lon": 13.36466, "planning-area-id": 7200413}}, {"type": "Feature", "geometry": {"type": "Point", "coordinates": [13.55854, 52.53051]}, "properties": {"id": "10909471605", "name": "Sportstudio", "lat": 52.53051, "lon": 13.55854, "planning-area-id": 10300731}}, {"type": "Feature", "geometry": {"type": "Point", "coordinates": [13.33679, 52.52187]}, "properties": {"id": "10936515611", "name": "Yogaschule Petersen", "street": "Dortmunder Straße 6", "zip-code": 10555, "lat": 52.52187, "lon": 13.33679, "planning-area-id": 1200522}}, {"type": "Feature", "geometry": {"type": "Point", "coordinates": [13.36102, 52.50852]}, "properties": {"id": "10973845906", "name": "BMVg Sportcontainer", "lat": 52.50852, "lon": 13.36102, "planning-area-id": 1100102}}, {"type": "Feature", "geometry": {"type": "Point", "coordinates": [13.60201, 52.4828]}, "properties": {"id": "10978245699", "name": "Clever fit", "lat": 52.4828, "lon": 13.60201, "planning-area-id": 10400941}}, {"type": "Feature", "geometry": {"type": "Point", "coordinates": [13.60239, 52.48338]}, "properties": {"id": "10978245702", "lat": 52.48338, "lon": 13.60239, "planning-area-id": 10400941}}, {"type": "Feature", "geometry": {"type": "Point", "coordinates": [13.49666, 52.63406]}, "properties": {"id": "11010271941", "name": "Clever fit", "street": "Walter-Friedrich-Straße 1", "zip-code": 13125, "lat": 52.63406, "lon": 13.49666, "planning-area-id": 3100103}}, {"type": "Feature", "geometry": {"type": "Point", "coordinates": [13.3965, 52.53107]}, "properties": {"id": "11014339720", "name": "HIT BLN", "street": "Ackerstraße 155", "lat": 52.53107, "lon": 13.3965, "planning-area-id": 1100415}}, {"type": "Feature", "geometry": {"type": "Point", "coordinates": [13.39838, 52.56734]}, "properties": {"id": "11026581858", "name": "Studio 108", "lat": 52.56734, "lon": 13.39838, "planning-area-id": 3400721}}, {"type": "Feature", "geometry": {"type": "Point", "coordinates": [13.48164, 52.51421]}, "properties": {"id": "11046023605", "name": "BLN Athletics", "lat": 52.51421, "lon": 13.48164, "planning-area-id": 11300722}}, {"type": "Feature", "geometry": {"type": "Point", "coordinates": [13.2951, 52.64021]}, "properties": {"id": "11061882780", "name": "B-touched Yoga by Bianca", "street": "Königsbacher Zeile 23", "zip-code": 13465, "lat": 52.64021, "lon": 13.2951, "planning-area-id": 12400721}}, {"type": "Feature", "geometry": {"type": "Point", "coordinates": [13.45074, 52.53655]}, "properties": {"id": "11107054359", "name": "EVOPE Performance Center", "street": "Storkower Straße 105", "zip-code": 10407, "lat": 52.53655, "lon": 13.45074, "planning-area-id": 3601450}}, {"type": "Feature", "geometry": {"type": "Point", "coordinates": [13.36111, 52.55095]}, "properties": {"id": "11109294278", "name": "Sensing Yoga", "lat": 52.55095, "lon": 13.36111, "planning-area-id": 1401048}}, {"type": "Feature", "geometry": {"type": "Point", "coordinates": [13.65099, 52.40696]}, "properties": {"id": "11143206743", "name": "Nature Womb", "street": "Eppenbrunner Weg 30", "zip-code": 12559, "lat": 52.40696, "lon": 13.65099, "planning-area-id": 9401635}}, {"type": "Feature", "geometry": {"type": "Point", "coordinates": [13.39917, 52.52447]}, "properties": {"id": "11181712344", "name": "Yogatribe", "street": "Große Hamburger Straße 19A", "lat": 52.52447, "lon": 13.39917, "planning-area-id": 1100309}}, {"type": "Feature", "geometry": {"type": "Point", "coordinates": [13.41616, 52.52962]}, "properties": {"id": "11201598334", "name": "John Reed Bötzow", "street": "Saarbrücker Straße 4", "zip-code": 10405, "lat": 52.52962, "lon": 13.41616, "planning-area-id": 3701556}}, {"type": "Feature", "geometry": {"type": "Point", "coordinates": [13.41892, 52.55037]}, "properties": {"id": "11211952137", "name": "Mrs. Sporty", "street": "Rodenbergstraße 35", "zip-code": 10439, "lat": 52.55037, "lon": 13.41892, "planning-area-id": 3601243}}, {"type": "Feature", "geometry": {"type": "Point", "coordinates": [13.37528, 52.50546]}, "properties": {"id": "11227904749", "name": "Holmes Place", "lat": 52.50546, "lon": 13.37528, "planning-area-id": 1100102}}, {"type": "Feature", "geometry": {"type": "Point", "coordinates": [13.3113, 52.5162]}, "properties": {"id": "11291360614", "name": "Abnehmen Im Liegen", "lat": 52.5162, "lon": 13.3113, "planning-area-id": 4300619}}, {"type": "Feature", "geometry": {"type": "Point", "coordinates": [13.41009, 52.56666]}, "properties": {"id": "11433071264", "name": "Fitbox", "lat": 52.56666, "lon": 13.41009, "planning-area-id": 3400723}}, {"type": "Feature", "geometry": {"type": "Point", "coordinates": [13.3905, 52.52501]}, "properties": {"id": "11506333461", "name": "Shapesty", "street": "Aaron-Bernstein-Platz 3", "zip-code": 10117, "lat": 52.52501, "lon": 13.3905, "planning-area-id": 1100309}}, {"type": "Feature", "geometry": {"type": "Point", "coordinates": [13.41953, 52.54372]}, "properties": {"id": "11580611771", "name": "Berliner Pilates", "street": "Schliemannstraße 34", "zip-code": 10437, "lat": 52.54372, "lon": 13.41953, "planning-area-id": 3601347}}, {"type": "Feature", "geometry": {"type": "Point", "coordinates": [13.37823, 52.54213]}, "properties": {"id": "11607821257", "name": "Champions Fight-Gym", "lat": 52.54213, "lon": 13.37823, "planning-area-id": 1300836}}, {"type": "Feature", "geometry": {"type": "Point", "coordinates": [13.42132, 52.47739]}, "properties": {"id": "11613447903", "name": "Pilates Studio", "lat": 52.47739, "lon": 13.42132, "planning-area-id": 8100102}}, {"type": "Feature", "geometry": {"type": "Point", "coordinates": [13.33052, 52.46651]}, "properties": {"id": "11635521514", "name": "deen", "street": "Rheinstraße 45-46", "zip-code": 12161, "lat": 52.46651, "lon": 13.33052, "planning-area-id": 7300618}}, {"type": "Feature", "geometry": {"type": "Point", "coordinates": [13.462, 52.50555]}, "properties": {"id": "11649758184", "name": "Every Damn Day Yoga", "lat": 52.50555, "lon": 13.462, "planning-area-id": 2500834}}, {"type": "Feature", "geometry": {"type": "Point", "coordinates": [13.41026, 52.52509]}, "properties": {"id": "11662711559", "name": "Beat81", "street": "Rosa-Luxemburg-Straße 17", "lat": 52.52509, "lon": 13.41026, "planning-area-id": 1100310}}, {"type": "Feature", "geometry": {"type": "Point", "coordinates": [13.41452, 52.53013]}, "properties": {"id": "11668641549", "name": "Astānga Yoga", "lat": 52.53013, "lon": 13.41452, "planning-area-id": 3701556}}, {"type": "Feature", "geometry": {"type": "Point", "coordinates": [13.31338, 52.50429]}, "properties": {"id": "11745362202", "name": "Casa Flow Studios", "lat": 52.50429, "lon": 13.31338, "planning-area-id": 4501040}}, {"type": "Feature", "geometry": {"type": "Point", "coordinates": [13.42556, 52.47397]}, "properties": {"id": "11772015162", "lat": 52.47397, "lon": 13.42556, "planning-area-id": 8100103}}, {"type": "Feature", "geometry": {"type": "Point", "coordinates": [13.5699, 52.44208]}, "properties": {"id": "11777929542", "name": "Fitnesspoint BSM 07 e.V.", "lat": 52.44208, "lon": 13.5699, "planning-area-id": 9200819}}, {"type": "Feature", "geometry": {"type": "Point", "coordinates": [13.57545, 52.44473]}, "properties": {"id": "11809565378", "name": "EMS-Lounge Berlin-Köpenick", "lat": 52.44473, "lon": 13.57545, "planning-area-id": 9401534}}, {"type": "Feature", "geometry": {"type": "Point", "coordinates": [13.40515, 52.52897]}, "properties": {"id": "11819554609", "name": "Club Athleten", "street": "Gormannstraße 19A", "lat": 52.52897, "lon": 13.40515, "planning-area-id": 1100309}}, {"type": "Feature", "geometry": {"type": "Point", "coordinates": [13.46411, 52.50976]}, "properties": {"id": "11968290978", "name": "Hale Now", "lat": 52.50976, "lon": 13.46411, "planning-area-id": 2500833}}, {"type": "Feature", "geometry": {"type": "Point", "coordinates": [13.45488, 52.52797]}, "properties": {"id": "11986723745", "name": "JOHN REED Fitness", "lat": 52.52797, "lon": 13.45488, "planning-area-id": 3601453}}, {"type": "Feature", "geometry": {"type": "Point", "coordinates": [13.48877, 52.61723]}, "properties": {"id": "12022132930", "name": "Mrs. Sporty", "lat": 52.61723, "lon": 13.48877, "planning-area-id": 3300411}}, {"type": "Feature", "geometry": {"type": "Point", "coordinates": [13.29753, 52.50176]}, "properties": {"id": "12037528490", "name": "Junia Keitel Private Fitness & Health", "lat": 52.50176, "lon": 13.29753, "planning-area-id": 4500936}}, {"type": "Feature", "geometry": {"type": "Point", "coordinates": [13.32615, 52.45423]}, "properties": {"id": "12040833981", "name": "Win Club CrossFit", "lat": 52.45423, "lon": 13.32615, "planning-area-id": 6100207}}, {"type": "Feature", "geometry": {"type": "Point", "coordinates": [13.46601, 52.51182]}, "properties": {"id": "12054497889", "name": "Saccinanda Yoga", "lat": 52.51182, "lon": 13.46601, "planning-area-id": 2500831}}, {"type": "Feature", "geometry": {"type": "Point", "coordinates": [13.47175, 52.51749]}, "properties": {"id": "12061024993", "name": "Ashtanga Yoga Friedrichshain", "lat": 52.51749, "lon": 13.47175, "planning-area-id": 2500729}}, {"type": "Feature", "geometry": {"type": "Point", "coordinates": [13.38846, 52.50219]}, "properties": {"id": "12077318269", "name": "Urban Gladiators", "street": "Wilhelmstraße 14", "zip-code": 10963, "lat": 52.50219, "lon": 13.38846, "planning-area-id": 2100102}}, {"type": "Feature", "geometry": {"type": "Point", "coordinates": [13.34779, 52.52463]}, "properties": {"id": "12081380958", "name": "Abityoga", "street": "Alt-Moabit 104", "zip-code": 10559, "lat": 52.52463, "lon": 13.34779, "planning-area-id": 1200626}}, {"type": "Feature", "geometry": {"type": "Point", "coordinates": [13.52816, 52.40536]}, "properties": {"id": "12100384382", "name": "Clever fit", "lat": 52.40536, "lon": 13.52816, "planning-area-id": 9300922}}, {"type": "Feature", "geometry": {"type": "Point", "coordinates": [13.40081, 52.53139]}, "properties": {"id": "12109977752", "name": "Beat81", "street": "Brunnenstraße 10", "zip-code": 10119, "lat": 52.53139, "lon": 13.40081, "planning-area-id": 1100416}}, {"type": "Feature", "geometry": {"type": "Point", "coordinates": [13.42245, 52.48754]}, "properties": {"id": "12118950894", "name": "Yoga School Berlin", "street": "Hasenheide 8", "lat": 52.48754, "lon": 13.42245, "planning-area-id": 2200212}}, {"type": "Feature", "geometry": {"type": "Point", "coordinates": [13.43337, 52.50012]}, "properties": {"id": "12121758700", "name": "Beat81", "street": "Zeughofstraße 20", "zip-code": 10997, "lat": 52.50012, "lon": 13.43337, "planning-area-id": 2300315}}, {"type": "Feature", "geometry": {"type": "Point", "coordinates": [13.40204, 52.41364]}, "properties": {"id": "12135555860", "name": "Sports Time", "lat": 52.41364, "lon": 13.40204, "planning-area-id": 8200831}}, {"type": "Feature", "geometry": {"type": "Point", "coordinates": [13.41721, 52.49184]}, "properties": {"id": "12137673016", "name": "Beat81", "street": "Graefestraße 71", "zip-code": 10967, "lat": 52.49184, "lon": 13.41721, "planning-area-id": 2200213}}, {"type": "Feature", "geometry": {"type": "Point", "coordinates": [13.43021, 52.49361]}, "properties": {"id": "12143828853", "name": "Beat81", "street": "Paul-Lincke-Ufer 19", "zip-code": 10999, "lat": 52.49361, "lon": 13.43021, "planning-area-id": 2300418}}, {"type": "Feature", "geometry": {"type": "Point", "coordinates": [13.42786, 52.53523]}, "properties": {"id": "12151358598", "name": "Beat81", "street": "Christburger Straße 13", "zip-code": 10405, "lat": 52.53523, "lon": 13.42786, "planning-area-id": 3701658}}, {"type": "Feature", "geometry": {"type": "Point", "coordinates": [13.41477, 52.53865]}, "properties": {"id": "12151379486", "name": "Beat81", "street": "Knaackstraße 87", "zip-code": 10435, "lat": 52.53865, "lon": 13.41477, "planning-area-id": 3701555}}, {"type": "Feature", "geometry": {"type": "Point", "coordinates": [13.41292, 52.5475]}, "properties": {"id": "12151406837", "name": "Beat81", "street": "Schönhauser Allee 124", "zip-code": 10437, "lat": 52.5475, "lon": 13.41292, "planning-area-id": 3601142}}, {"type": "Feature", "geometry": {"type": "Point", "coordinates": [13.3135, 52.50214]}, "properties": {"id": "12153282425", "name": "Fitbox", "lat": 52.50214, "lon": 13.3135, "planning-area-id": 4501041}}, {"type": "Feature", "geometry": {"type": "Point", "coordinates": [13.39853, 52.53284]}, "properties": {"id": "12160358671", "name": "Beyond", "street": "Brunnenstraße 173", "lat": 52.53284, "lon": 13.39853, "planning-area-id": 1100415}}, {"type": "Feature", "geometry": {"type": "Point", "coordinates": [13.60134, 52.47808]}, "properties": {"id": "12171125220", "name": "Yoga & Friends", "street": "Hultschiner Damm 38", "zip-code": 12623, "lat": 52.47808, "lon": 13.60134, "planning-area-id": 10400941}}, {"type": "Feature", "geometry": {"type": "Point", "coordinates": [13.46958, 52.50783]}, "properties": {"id": "12174795144", "name": "Beat81", "street": "Boxhagener Straße 77", "zip-code": 10245, "lat": 52.50783, "lon": 13.46958, "planning-area-id": 2500832}}, {"type": "Feature", "geometry": {"type": "Point", "coordinates": [13.42222, 52.5382]}, "properties": {"id": "12180104519", "name": "Boaré", "lat": 52.5382, "lon": 13.42222, "planning-area-id": 3701555}}, {"type": "Feature", "geometry": {"type": "Point", "coordinates": [13.45878, 52.51173]}, "properties": {"id": "12183361380", "name": "energia", "lat": 52.51173, "lon": 13.45878, "planning-area-id": 2500833}}, {"type": "Feature", "geometry": {"type": "Point", "coordinates": [13.44048, 52.46469]}, "properties": {"id": "12203546736", "name": "Flow Motion Studio Neukölln", "street": "Glasower Straße 60", "zip-code": 12051, "lat": 52.46469, "lon": 13.44048, "planning-area-id": 8100209}}, {"type": "Feature", "geometry": {"type": "Point", "coordinates": [13.51227, 52.45597]}, "properties": {"id": "12261125503", "name": "Yoga Bär Studio", "lat": 52.45597, "lon": 13.51227, "planning-area-id": 9200613}}, {"type": "Feature", "geometry": {"type": "Point", "coordinates": [13.45243, 52.54601]}, "properties": {"id": "12285966732", "name": "Apollo Fitness World", "lat": 52.54601, "lon": 13.45243, "planning-area-id": 3500936}}, {"type": "Feature", "geometry": {"type": "Point", "coordinates": [13.3925, 52.52974]}, "properties": {"id": "12287922533", "name": "Yoga Rebellion", "street": "Gartenstraße 6", "zip-code": 10115, "lat": 52.52974, "lon": 13.3925, "planning-area-id": 1100415}}, {"type": "Feature", "geometry": {"type": "Point", "coordinates": [13.41796, 52.54428]}, "properties": {"id": "12329220489", "name": "Kalaa Yoga Berlin", "street": "Lychener Straße 47", "lat": 52.54428, "lon": 13.41796, "planning-area-id": 3601347}}, {"type": "Feature", "geometry": {"type": "Point", "coordinates": [13.3423, 52.50502]}, "properties": {"id": "12367443606", "name": "Aura Berlin Studio", "lat": 52.50502, "lon": 13.3423, "planning-area-id": 1100101}}, {"type": "Feature", "geometry": {"type": "Point", "coordinates": [13.34299, 52.5277]}, "properties": {"id": "12376124453", "name": "Brooklyn Fitboxing", "street": "Stromstraße 57", "lat": 52.5277, "lon": 13.34299, "planning-area-id": 1200520}}, {"type": "Feature", "geometry": {"type": "Point", "coordinates": [13.45075, 52.50368]}, "properties": {"id": "12430038866", "name": "Spree", "lat": 52.50368, "lon": 13.45075, "planning-area-id": 2500835}}, {"type": "Feature", "geometry": {"type": "Point", "coordinates": [13.60905, 52.4485]}, "properties": {"id": "12456266757", "name": "Spreerelex", "lat": 52.4485, "lon": 13.60905, "planning-area-id": 9501736}}, {"type": "Feature", "geometry": {"type": "Point", "coordinates": [13.2971, 52.53357]}, "properties": {"id": "12519378569", "name": "WD Space", "lat": 52.53357, "lon": 13.2971, "planning-area-id": 4100102}}, {"type": "Feature", "geometry": {"type": "Point", "coordinates": [13.36215, 52.48796]}, "properties": {"id": "12556828335", "name": "Die Yogapraxis", "street": "Crellestraße 22", "zip-code": 10827, "lat": 52.48796, "lon": 13.36215, "planning-area-id": 7200411}}, {"type": "Feature", "geometry": {"type": "Point", "coordinates": [13.45491, 52.51389]}, "properties": {"id": "12622719646", "name": "Klub McFit", "lat": 52.51389, "lon": 13.45491, "planning-area-id": 2500830}}, {"type": "Feature", "geometry": {"type": "Point", "coordinates": [13.35537, 52.49341]}, "properties": {"id": "12630500002", "name": "O-Yoga", "lat": 52.49341, "lon": 13.35537, "planning-area-id": 7100204}}, {"type": "Feature", "geometry": {"type": "Point", "coordinates": [13.45908, 52.56036]}, "properties": {"id": "12637232303", "name": "Reha-Sport & Gesundheitstraining", "lat": 52.56036, "lon": 13.45908, "planning-area-id": 3501037}}, {"type": "Feature", "geometry": {"type": "Point", "coordinates": [13.42726, 52.53707]}, "properties": {"id": "12653267594", "name": "soonsu", "lat": 52.53707, "lon": 13.42726, "planning-area-id": 3701658}}, {"type": "Feature", "geometry": {"type": "Point", "coordinates": [13.32776, 52.45832]}, "properties": {"id": "12712890928", "name": "OMNI Yoga", "street": "Bergstraße 92", "zip-code": 12169, "lat": 52.45832, "lon": 13.32776, "planning-area-id": 6100208}}, {"type": "Feature", "geometry": {"type": "Point", "coordinates": [13.38645, 52.52355]}, "properties": {"id": "12752614827", "name": "AURUM Training", "lat": 52.52355, "lon": 13.38645, "planning-area-id": 1100308}}, {"type": "Feature", "geometry": {"type": "Point", "coordinates": [13.41262, 52.54222]}, "properties": {"id": "12778956686", "name": "Lifted", "lat": 52.54222, "lon": 13.41262, "planning-area-id": 3601346}}, {"type": "Feature", "geometry": {"type": "Point", "coordinates": [13.38447, 52.52623]}, "properties": {"id": "12799947701", "name": "Campusfit - HU GYM", "street": "Hannoversche Straße 25", "zip-code": 10115, "lat": 52.52623, "lon": 13.38447, "planning-area-id": 1100308}}, {"type": "Feature", "geometry": {"type": "Point", "coordinates": [13.30207, 52.57422]}, "properties": {"id": "12839348801", "name": "Dawgz Life Muay Thai", "street": "Flohrstraße 26", "zip-code": 13507, "lat": 52.57422, "lon": 13.30207, "planning-area-id": 12200412}}, {"type": "Feature", "geometry": {"type": "Point", "coordinates": [13.31148, 52.50837]}, "properties": {"id": "12856418771", "name": "Mrs. Sporty", "street": "Weimarer Straße 32", "zip-code": 10625, "lat": 52.50837, "lon": 13.31148, "planning-area-id": 4300623}}, {"type": "Feature", "geometry": {"type": "Point", "coordinates": [13.35106, 52.55228]}, "properties": {"id": "12863105019", "name": "Spitfire", "street": "Müllerstraße 46", "zip-code": 13349, "lat": 52.55228, "lon": 13.35106, "planning-area-id": 1400939}}, {"type": "Feature", "geometry": {"type": "Point", "coordinates": [13.36676, 52.54465]}, "properties": {"id": "12879156506", "name": "Basic Fit", "lat": 52.54465, "lon": 13.36676, "planning-area-id": 1300836}}, {"type": "Feature", "geometry": {"type": "Point", "coordinates": [13.41401, 52.50234]}, "properties": {"id": "12957121256", "name": "QP Fitness", "street": "Oranienstraße 163", "zip-code": 10969, "lat": 52.50234, "lon": 13.41401, "planning-area-id": 2100104}}, {"type": "Feature", "geometry": {"type": "Point", "coordinates": [13.33526, 52.45167]}, "properties": {"id": "12964220599", "name": "FitBox", "lat": 52.45167, "lon": 13.33526, "planning-area-id": 6100208}}, {"type": "Feature", "geometry": {"type": "Point", "coordinates": [13.37503, 52.50066]}, "properties": {"id": "13009510401", "name": "Motions Gleisdreieck", "zip-code": 10963, "lat": 52.50066, "lon": 13.37503, "planning-area-id": 2200207}}]}