{"type": "FeatureCollection", "features": [{"type": "Feature", "geometry": {"type": "Point", "coordinates": [13.39315, 52.49136]}, "properties": {"id": "259845846", "name": "Junction-Bar", "street": "Gneisenaustraße 18", "zip-code": 10961, "lat": 52.49136, "lon": 13.39315, "planning-area-id": 2200211}}, {"type": "Feature", "geometry": {"type": "Point", "coordinates": [13.41642, 52.52322]}, "properties": {"id": "262818281", "name": "ASeven Club", "street": "Alexanderstraße 7", "zip-code": 10178, "lat": 52.52322, "lon": 13.41642, "planning-area-id": 1100310}}, {"type": "Feature", "geometry": {"type": "Point", "coordinates": [13.44902, 52.50467]}, "properties": {"id": "339749949", "name": "Matrix", "street": "Warschauer Platz 18", "zip-code": 10245, "lat": 52.50467, "lon": 13.44902, "planning-area-id": 2500835}}, {"type": "Feature", "geometry": {"type": "Point", "coordinates": [13.44507, 52.49921]}, "properties": {"id": "360111407", "name": "Lido", "street": "Cuvrystraße 7", "zip-code": 10997, "lat": 52.49921, "lon": 13.44507, "planning-area-id": 2300419}}, {"type": "Feature", "geometry": {"type": "Point", "coordinates": [13.37871, 52.54416]}, "properties": {"id": "373095675", "name": "Humboldthain Club", "street": "Hochstraße 46", "zip-code": 13357, "lat": 52.54416, "lon": 13.37871, "planning-area-id": 1300836}}, {"type": "Feature", "geometry": {"type": "Point", "coordinates": [13.44891, 52.50455]}, "properties": {"id": "383210462", "name": "Narva Lounge", "lat": 52.50455, "lon": 13.44891, "planning-area-id": 2500835}}, {"type": "Feature", "geometry": {"type": "Point", "coordinates": [13.43109, 52.49746]}, "properties": {"id": "410135945", "name": "Wild at Heart", "zip-code": 10999, "lat": 52.49746, "lon": 13.43109, "planning-area-id": 2300417}}, {"type": "Feature", "geometry": {"type": "Point", "coordinates": [13.39691, 52.52647]}, "properties": {"id": "429735547", "name": "Clärchens Ballhaus", "street": "Auguststraße 24", "zip-code": 10117, "lat": 52.52647, "lon": 13.39691, "planning-area-id": 1100309}}, {"type": "Feature", "geometry": {"type": "Point", "coordinates": [13.44149, 52.51794]}, "properties": {"id": "461623768", "name": "Sun Chiller Lounge", "lat": 52.51794, "lon": 13.44149, "planning-area-id": 2400522}}, {"type": "Feature", "geometry": {"type": "Point", "coordinates": [13.43639, 52.50863]}, "properties": {"id": "475153994", "name": "Postbahnhof", "street": "Straße der Pariser Kommune 8", "zip-code": 10243, "lat": 52.50863, "lon": 13.43639, "planning-area-id": 2400625}}, {"type": "Feature", "geometry": {"type": "Point", "coordinates": [13.45307, 52.49738]}, "properties": {"id": "485354535", "name": "Glashaus", "lat": 52.49738, "lon": 13.45307, "planning-area-id": 9100101}}, {"type": "Feature", "geometry": {"type": "Point", "coordinates": [13.4653, 52.49739]}, "properties": {"id": "485640732", "name": "Zur Wilden Renate", "street": "Alt-Stralau 70", "zip-code": 10245, "lat": 52.49739, "lon": 13.4653, "planning-area-id": 2500835}}, {"type": "Feature", "geometry": {"type": "Point", "coordinates": [13.45453, 52.50766]}, "properties": {"id": "492849637", "name": "RAW 99", "street": "Revaler Straße 99", "zip-code": 10245, "lat": 52.50766, "lon": 13.45453, "planning-area-id": 2500834}}, {"type": "Feature", "geometry": {"type": "Point", "coordinates": [13.45604, 52.5091]}, "properties": {"id": "621429565", "name": "Berndhain", "street": "Simon-Dach-Straße 32", "zip-code": 10245, "lat": 52.5091, "lon": 13.45604, "planning-area-id": 2500834}}, {"type": "Feature", "geometry": {"type": "Point", "coordinates": [13.40075, 52.53361]}, "properties": {"id": "652884290", "name": "Calabash", "street": "Veteranenstraße 21", "zip-code": 10119, "lat": 52.53361, "lon": 13.40075, "planning-area-id": 1100416}}, {"type": "Feature", "geometry": {"type": "Point", "coordinates": [13.4169, 52.51101]}, "properties": {"id": "667842214", "name": "Sage", "street": "Köpenicker Straße 76", "zip-code": 10179, "lat": 52.51101, "lon": 13.4169, "planning-area-id": 1100313}}, {"type": "Feature", "geometry": {"type": "Point", "coordinates": [13.40117, 52.53567]}, "properties": {"id": "670069373", "name": "NBI Club", "street": "Zionskirchstraße 5", "zip-code": 10119, "lat": 52.53567, "lon": 13.40117, "planning-area-id": 1100416}}, {"type": "Feature", "geometry": {"type": "Point", "coordinates": [13.41691, 52.5112]}, "properties": {"id": "729294555", "name": "Kit Kat Club", "street": "Köpenicker Straße 76", "zip-code": 10179, "lat": 52.5112, "lon": 13.41691, "planning-area-id": 1100313}}, {"type": "Feature", "geometry": {"type": "Point", "coordinates": [13.4107, 52.52678]}, "properties": {"id": "736787851", "name": "1820", "street": "Rosa-Luxemburg-Straße 41", "zip-code": 10178, "lat": 52.52678, "lon": 13.4107, "planning-area-id": 1100310}}, {"type": "Feature", "geometry": {"type": "Point", "coordinates": [13.38608, 52.46555]}, "properties": {"id": "739305494", "name": "Insomnia", "street": "Alt-Tempelhof 17", "zip-code": 12099, "lat": 52.46555, "lon": 13.38608, "planning-area-id": 7400927}}, {"type": "Feature", "geometry": {"type": "Point", "coordinates": [13.45257, 52.51563]}, "properties": {"id": "821646254", "name": "Abgedreht Klub", "zip-code": 10243, "lat": 52.51563, "lon": 13.45257, "planning-area-id": 2400624}}, {"type": "Feature", "geometry": {"type": "Point", "coordinates": [13.29324, 52.49726]}, "properties": {"id": "898983650", "name": "K133 Night Lounge", "street": "Kurfürstendamm 133/134", "zip-code": 10711, "lat": 52.49726, "lon": 13.29324, "planning-area-id": 4500938}}, {"type": "Feature", "geometry": {"type": "Point", "coordinates": [13.38029, 52.53207]}, "properties": {"id": "910429971", "name": "Ballhaus Berlin", "street": "Chausseestraße 102", "zip-code": 10115, "lat": 52.53207, "lon": 13.38029, "planning-area-id": 1100308}}, {"type": "Feature", "geometry": {"type": "Point", "coordinates": [13.38994, 52.51617]}, "properties": {"id": "918183904", "name": "Club R8", "street": "Rosmarinstraße 8", "zip-code": 10117, "lat": 52.51617, "lon": 13.38994, "planning-area-id": 1100206}}, {"type": "Feature", "geometry": {"type": "Point", "coordinates": [13.43378, 52.47946]}, "properties": {"id": "959344243", "name": "SchwuZ", "street": "Rollbergstraße 26", "zip-code": 12053, "lat": 52.47946, "lon": 13.43378, "planning-area-id": 8100206}}, {"type": "Feature", "geometry": {"type": "Point", "coordinates": [13.35344, 52.48527]}, "properties": {"id": "959625062", "name": "Havanna", "street": "Hauptstraße 30", "zip-code": 10827, "lat": 52.48527, "lon": 13.35344, "planning-area-id": 7200409}}, {"type": "Feature", "geometry": {"type": "Point", "coordinates": [13.42174, 52.48648]}, "properties": {"id": "975700421", "name": "Huxleys Neue Welt", "street": "Hasenheide 107-113", "zip-code": 10967, "lat": 52.48648, "lon": 13.42174, "planning-area-id": 8100101}}, {"type": "Feature", "geometry": {"type": "Point", "coordinates": [13.40813, 52.50301]}, "properties": {"id": "979969868", "name": "Ritter Butzke", "street": "Ritterstraße 26", "zip-code": 10969, "lat": 52.50301, "lon": 13.40813, "planning-area-id": 2100104}}, {"type": "Feature", "geometry": {"type": "Point", "coordinates": [13.39055, 52.48358]}, "properties": {"id": "988192687", "name": "Silverwings", "lat": 52.48358, "lon": 13.39055, "planning-area-id": 7400721}}, {"type": "Feature", "geometry": {"type": "Point", "coordinates": [13.40346, 52.52293]}, "properties": {"id": "1144034120", "name": "AM to PM", "street": "Am Zwirngraben 2", "zip-code": 10178, "lat": 52.52293, "lon": 13.40346, "planning-area-id": 1100310}}, {"type": "Feature", "geometry": {"type": "Point", "coordinates": [13.40754, 52.52176]}, "properties": {"id": "1145853246", "name": "Hafenbar", "street": "Karl-Liebknecht-Straße 11", "zip-code": 10178, "lat": 52.52176, "lon": 13.40754, "planning-area-id": 1100310}}, {"type": "Feature", "geometry": {"type": "Point", "coordinates": [13.41642, 52.5229]}, "properties": {"id": "1162812586", "name": "Weekend Club", "street": "Alexanderstraße 7", "zip-code": 10178, "lat": 52.5229, "lon": 13.41642, "planning-area-id": 1100310}}, {"type": "Feature", "geometry": {"type": "Point", "coordinates": [13.41424, 52.53952]}, "properties": {"id": "1165008486", "name": "Soda Club", "street": "Knaackstraße 97", "zip-code": 10435, "lat": 52.53952, "lon": 13.41424, "planning-area-id": 3701555}}, {"type": "Feature", "geometry": {"type": "Point", "coordinates": [13.30849, 52.51148]}, "properties": {"id": "1228317932", "name": "Tabu", "street": "Bismarckstraße 90", "zip-code": 10627, "lat": 52.51148, "lon": 13.30849, "planning-area-id": 4300623}}, {"type": "Feature", "geometry": {"type": "Point", "coordinates": [13.39323, 52.51213]}, "properties": {"id": "1310466406", "name": "BRICKS Club", "street": "Anton-Wilhelm-Amo-Straße 30", "zip-code": 10117, "lat": 52.51213, "lon": 13.39323, "planning-area-id": 1100207}}, {"type": "Feature", "geometry": {"type": "Point", "coordinates": [13.44826, 52.50361]}, "properties": {"id": "1361259244", "name": "Die Busche", "street": "Warschauer Platz 18", "zip-code": 10245, "lat": 52.50361, "lon": 13.44826, "planning-area-id": 2500835}}, {"type": "Feature", "geometry": {"type": "Point", "coordinates": [13.40872, 52.50329]}, "properties": {"id": "1370001597", "name": "Prince Charles", "street": "Prinzenstraße 85f", "zip-code": 10969, "lat": 52.50329, "lon": 13.40872, "planning-area-id": 2100104}}, {"type": "Feature", "geometry": {"type": "Point", "coordinates": [13.33794, 52.50405]}, "properties": {"id": "1402543376", "name": "Puro Sky Lounge Berlin", "street": "Tauentzienstraße 9-12", "zip-code": 10789, "lat": 52.50405, "lon": 13.33794, "planning-area-id": 4501042}}, {"type": "Feature", "geometry": {"type": "Point", "coordinates": [13.41162, 52.52711]}, "properties": {"id": "1450635676", "name": "Roter Salon", "street": "Rosa-Luxemburg-Platz 1", "zip-code": 10178, "lat": 52.52711, "lon": 13.41162, "planning-area-id": 1100310}}, {"type": "Feature", "geometry": {"type": "Point", "coordinates": [13.44146, 52.50075]}, "properties": {"id": "1667559178", "name": "Bi Nuu", "lat": 52.50075, "lon": 13.44146, "planning-area-id": 2300316}}, {"type": "Feature", "geometry": {"type": "Point", "coordinates": [13.40698, 52.52355]}, "properties": {"id": "1820069776", "name": "b-flat", "street": "Dircksenstraße 40", "zip-code": 10178, "lat": 52.52355, "lon": 13.40698, "planning-area-id": 1100309}}, {"type": "Feature", "geometry": {"type": "Point", "coordinates": [13.34249, 52.49901]}, "properties": {"id": "1882869375", "name": "Connection", "street": "Fuggerstraße 33", "zip-code": 10777, "lat": 52.49901, "lon": 13.34249, "planning-area-id": 7100101}}, {"type": "Feature", "geometry": {"type": "Point", "coordinates": [13.44115, 52.50296]}, "properties": {"id": "1897123562", "name": "FluxBau", "street": "Pfuelstraße 5", "lat": 52.50296, "lon": 13.44115, "planning-area-id": 2300316}}, {"type": "Feature", "geometry": {"type": "Point", "coordinates": [13.32241, 52.50406]}, "properties": {"id": "1934211315", "name": "Vagabund Club", "street": "Knesebeckstraße 77", "zip-code": 10623, "lat": 52.50406, "lon": 13.32241, "planning-area-id": 4501041}}, {"type": "Feature", "geometry": {"type": "Point", "coordinates": [13.42425, 52.49933]}, "properties": {"id": "1941952571", "name": "Bulbul Berlin", "street": "Skalitzer Straße 114", "zip-code": 10999, "lat": 52.49933, "lon": 13.42425, "planning-area-id": 2300315}}, {"type": "Feature", "geometry": {"type": "Point", "coordinates": [13.3597, 52.5344]}, "properties": {"id": "1954332576", "name": "Slaughterhouse", "street": "Lehrter Straße 35", "zip-code": 10557, "lat": 52.5344, "lon": 13.3597, "planning-area-id": 1200624}}, {"type": "Feature", "geometry": {"type": "Point", "coordinates": [13.36725, 52.55114]}, "properties": {"id": "2126202628", "name": "Orchidea", "street": "Reinickendorfer Straße 74", "zip-code": 13347, "lat": 52.55114, "lon": 13.36725, "planning-area-id": 1401043}}, {"type": "Feature", "geometry": {"type": "Point", "coordinates": [13.43484, 52.50007]}, "properties": {"id": "2147941967", "name": "Privatclub", "street": "Skalitzer Straße 85-86", "zip-code": 10997, "lat": 52.50007, "lon": 13.43484, "planning-area-id": 2300315}}, {"type": "Feature", "geometry": {"type": "Point", "coordinates": [13.44749, 52.50296]}, "properties": {"id": "2147953685", "name": "Metrom Lounge", "lat": 52.50296, "lon": 13.44749, "planning-area-id": 2500835}}, {"type": "Feature", "geometry": {"type": "Point", "coordinates": [13.3311, 52.50087]}, "properties": {"id": "2188253833", "name": "The Door", "street": "Joachimsthaler Straße 25", "zip-code": 10719, "lat": 52.50087, "lon": 13.3311, "planning-area-id": 4501042}}, {"type": "Feature", "geometry": {"type": "Point", "coordinates": [13.33083, 52.5019]}, "properties": {"id": "2347398754", "name": "Maxxim Club", "street": "Joachimsthaler Straße 15", "zip-code": 10719, "lat": 52.5019, "lon": 13.33083, "planning-area-id": 4501042}}, {"type": "Feature", "geometry": {"type": "Point", "coordinates": [13.43511, 52.49613]}, "properties": {"id": "2381034158", "name": "Reset", "lat": 52.49613, "lon": 13.43511, "planning-area-id": 2300418}}, {"type": "Feature", "geometry": {"type": "Point", "coordinates": [13.43338, 52.46435]}, "properties": {"id": "2435092394", "name": "Hole⁴⁴", "street": "Hermannstraße 146", "zip-code": 12051, "lat": 52.46435, "lon": 13.43338, "planning-area-id": 8100209}}, {"type": "Feature", "geometry": {"type": "Point", "coordinates": [13.43114, 52.50243]}, "properties": {"id": "2665268971", "name": "Auster-Club", "lat": 52.50243, "lon": 13.43114, "planning-area-id": 2300315}}, {"type": "Feature", "geometry": {"type": "Point", "coordinates": [13.41978, 52.51059]}, "properties": {"id": "2876098523", "name": "Ohm", "street": "Köpenicker Straße 70", "zip-code": 10179, "lat": 52.51059, "lon": 13.41978, "planning-area-id": 1100313}}, {"type": "Feature", "geometry": {"type": "Point", "coordinates": [13.42473, 52.51268]}, "properties": {"id": "2968181705", "name": "Nachtclub", "street": "Holzmarktstraße 25", "zip-code": 10243, "lat": 52.51268, "lon": 13.42473, "planning-area-id": 2400623}}, {"type": "Feature", "geometry": {"type": "Point", "coordinates": [13.39368, 52.52611]}, "properties": {"id": "3121055734", "name": "Flow Bar", "street": "Tucholskystraße 32", "zip-code": 10117, "lat": 52.52611, "lon": 13.39368, "planning-area-id": 1100309}}, {"type": "Feature", "geometry": {"type": "Point", "coordinates": [13.39614, 52.51122]}, "properties": {"id": "3298592393", "name": "Konzulát", "lat": 52.51122, "lon": 13.39614, "planning-area-id": 1100207}}, {"type": "Feature", "geometry": {"type": "Point", "coordinates": [13.41366, 52.53953]}, "properties": {"id": "3469247893", "name": "Alte Kantine", "street": "Knaackstraße 97", "zip-code": 10435, "lat": 52.53953, "lon": 13.41366, "planning-area-id": 3701555}}, {"type": "Feature", "geometry": {"type": "Point", "coordinates": [13.4758, 52.50754]}, "properties": {"id": "3610779779", "name": "Void", "street": "Wiesenweg 5", "zip-code": 10365, "lat": 52.50754, "lon": 13.4758, "planning-area-id": 11300826}}, {"type": "Feature", "geometry": {"type": "Point", "coordinates": [13.48339, 52.42605]}, "properties": {"id": "3777579770", "name": "Top Disco Berlin", "lat": 52.42605, "lon": 13.48339, "planning-area-id": 8401241}}, {"type": "Feature", "geometry": {"type": "Point", "coordinates": [13.40922, 52.52263]}, "properties": {"id": "3783242657", "name": "M-BIA", "street": "Dircksenstraße 123-124", "zip-code": 10178, "lat": 52.52263, "lon": 13.40922, "planning-area-id": 1100310}}, {"type": "Feature", "geometry": {"type": "Point", "coordinates": [13.4008, 52.53351]}, "properties": {"id": "3783290025", "name": "ACUD", "street": "Veteranenstraße 21", "zip-code": 10119, "lat": 52.53351, "lon": 13.4008, "planning-area-id": 1100416}}, {"type": "Feature", "geometry": {"type": "Point", "coordinates": [13.37185, 52.5075]}, "properties": {"id": "3783296627", "name": "Adagio", "street": "Marlene-Dietrich-Platz 1", "zip-code": 10785, "lat": 52.5075, "lon": 13.37185, "planning-area-id": 1100102}}, {"type": "Feature", "geometry": {"type": "Point", "coordinates": [13.35268, 52.59756]}, "properties": {"id": "3783307323", "name": "American Western Saloon", "street": "Wilhelmsruher Damm 142c", "zip-code": 13439, "lat": 52.59756, "lon": 13.35268, "planning-area-id": 12601134}}, {"type": "Feature", "geometry": {"type": "Point", "coordinates": [13.34797, 52.49871]}, "properties": {"id": "3826455881", "name": "Pussy Cat", "street": "Kalckreuthstraße 7", "zip-code": 10777, "lat": 52.49871, "lon": 13.34797, "planning-area-id": 7100102}}, {"type": "Feature", "geometry": {"type": "Point", "coordinates": [13.35343, 52.50443]}, "properties": {"id": "3830239588", "name": "Trompete", "street": "Lützowplatz 9", "zip-code": 10785, "lat": 52.50443, "lon": 13.35343, "planning-area-id": 1100103}}, {"type": "Feature", "geometry": {"type": "Point", "coordinates": [13.45109, 52.49758]}, "properties": {"id": "3838242274", "name": "Ipse", "street": "Vor dem Schlesischen Tor 2b", "zip-code": 10997, "lat": 52.49758, "lon": 13.45109, "planning-area-id": 2300419}}, {"type": "Feature", "geometry": {"type": "Point", "coordinates": [13.42216, 52.50039]}, "properties": {"id": "4034138645", "name": "SO36", "street": "Oranienstraße 190", "zip-code": 10999, "lat": 52.50039, "lon": 13.42216, "planning-area-id": 2300314}}, {"type": "Feature", "geometry": {"type": "Point", "coordinates": [13.44429, 52.4613]}, "properties": {"id": "4118217590", "name": "Stella Berlin", "street": "Jahnstraße 14", "zip-code": 12347, "lat": 52.4613, "lon": 13.44429, "planning-area-id": 8200622}}, {"type": "Feature", "geometry": {"type": "Point", "coordinates": [13.41156, 52.53122]}, "properties": {"id": "4172803384", "name": "8MM", "street": "Schönhauser Allee 177 B", "zip-code": 10119, "lat": 52.53122, "lon": 13.41156, "planning-area-id": 3701554}}, {"type": "Feature", "geometry": {"type": "Point", "coordinates": [13.41902, 52.51748]}, "properties": {"id": "4217156190", "name": "Beate Uwe", "street": "Schillingstraße 31", "zip-code": 10179, "lat": 52.51748, "lon": 13.41902, "planning-area-id": 1100311}}, {"type": "Feature", "geometry": {"type": "Point", "coordinates": [13.30579, 52.51722]}, "properties": {"id": "4236204189", "name": "MiSalsa", "zip-code": 10585, "lat": 52.51722, "lon": 13.30579, "planning-area-id": 4300621}}, {"type": "Feature", "geometry": {"type": "Point", "coordinates": [13.42046, 52.49668]}, "properties": {"id": "4283150545", "name": "Cake Club", "street": "Mariannenstraße 27", "zip-code": 10999, "lat": 52.49668, "lon": 13.42046, "planning-area-id": 2300417}}, {"type": "Feature", "geometry": {"type": "Point", "coordinates": [13.50488, 52.56475]}, "properties": {"id": "4458466133", "name": "KISS Lounge", "street": "Prerower Platz 12", "zip-code": 13051, "lat": 52.56475, "lon": 13.50488, "planning-area-id": 11100307}}, {"type": "Feature", "geometry": {"type": "Point", "coordinates": [13.32746, 52.50463]}, "properties": {"id": "4574958092", "name": "Vitrin", "lat": 52.50463, "lon": 13.32746, "planning-area-id": 4300622}}, {"type": "Feature", "geometry": {"type": "Point", "coordinates": [13.39086, 52.52679]}, "properties": {"id": "4784529624", "name": "Geheimclub (Annika von Trier)", "street": "Linienstraße 144", "zip-code": 10115, "lat": 52.52679, "lon": 13.39086, "planning-area-id": 1100309}}, {"type": "Feature", "geometry": {"type": "Point", "coordinates": [13.46259, 52.49514]}, "properties": {"id": "4815124323", "name": "Else", "street": "An den Treptowers 10", "zip-code": 12435, "lat": 52.49514, "lon": 13.46259, "planning-area-id": 9100101}}, {"type": "Feature", "geometry": {"type": "Point", "coordinates": [13.41948, 52.51068]}, "properties": {"id": "4870128450", "name": "Tresor Berlin", "street": "Köpenicker Straße 70", "zip-code": 10179, "lat": 52.51068, "lon": 13.41948, "planning-area-id": 1100313}}, {"type": "Feature", "geometry": {"type": "Point", "coordinates": [13.46159, 52.43221]}, "properties": {"id": "4894544353", "name": "BlackWhite Danceclub", "street": "Johannisthaler Chaussee 261", "zip-code": 12351, "lat": 52.43221, "lon": 13.46159, "planning-area-id": 8401139}}, {"type": "Feature", "geometry": {"type": "Point", "coordinates": [13.45453, 52.50758]}, "properties": {"id": "5155961321", "name": "Der Weiße Hase", "zip-code": 10245, "lat": 52.50758, "lon": 13.45453, "planning-area-id": 2500834}}, {"type": "Feature", "geometry": {"type": "Point", "coordinates": [13.45986, 52.47641]}, "properties": {"id": "5244438075", "name": "Internet Explorer", "street": "Ziegrastraße 11", "zip-code": 12057, "lat": 52.47641, "lon": 13.45986, "planning-area-id": 8100520}}, {"type": "Feature", "geometry": {"type": "Point", "coordinates": [13.42608, 52.51199]}, "properties": {"id": "5247942730", "name": "Kater Blau", "lat": 52.51199, "lon": 13.42608, "planning-area-id": 2400623}}, {"type": "Feature", "geometry": {"type": "Point", "coordinates": [13.43303, 52.48069]}, "properties": {"id": "5838965221", "name": "Loophole", "street": "Boddinstraße 60", "zip-code": 12053, "lat": 52.48069, "lon": 13.43303, "planning-area-id": 8100206}}, {"type": "Feature", "geometry": {"type": "Point", "coordinates": [13.45566, 52.50741]}, "properties": {"id": "5873234785", "name": "Tabula Rasa", "street": "Revaler Straße 99", "zip-code": 10245, "lat": 52.50741, "lon": 13.45566, "planning-area-id": 2500834}}, {"type": "Feature", "geometry": {"type": "Point", "coordinates": [13.4663, 52.50247]}, "properties": {"id": "5906879511", "name": "://about blank", "street": "Markgrafendamm 24c", "zip-code": 10245, "lat": 52.50247, "lon": 13.4663, "planning-area-id": 2500835}}, {"type": "Feature", "geometry": {"type": "Point", "coordinates": [13.30993, 52.50634]}, "properties": {"id": "6032392904", "name": "KTV Bar", "lat": 52.50634, "lon": 13.30993, "planning-area-id": 4300623}}, {"type": "Feature", "geometry": {"type": "Point", "coordinates": [13.4473, 52.50293]}, "properties": {"id": "6192377288", "name": "Ava Club", "street": "Warschauer Platz 18", "zip-code": 10245, "lat": 52.50293, "lon": 13.4473, "planning-area-id": 2500835}}, {"type": "Feature", "geometry": {"type": "Point", "coordinates": [13.32304, 52.4989]}, "properties": {"id": "6252070333", "name": "al2 eventlocation berlin", "street": "Pfalzburger Straße 83", "zip-code": 10719, "lat": 52.4989, "lon": 13.32304, "planning-area-id": 4501044}}, {"type": "Feature", "geometry": {"type": "Point", "coordinates": [13.44303, 52.51116]}, "properties": {"id": "6341225967", "name": "Berghain", "zip-code": 10243, "lat": 52.51116, "lon": 13.44303, "planning-area-id": 2400625}}, {"type": "Feature", "geometry": {"type": "Point", "coordinates": [13.42866, 52.53065]}, "properties": {"id": "6381619922", "name": "Musikbrauerei", "street": "Greifswalder Straße 23A", "zip-code": 10405, "lat": 52.53065, "lon": 13.42866, "planning-area-id": 3701660}}, {"type": "Feature", "geometry": {"type": "Point", "coordinates": [13.36675, 52.53063]}, "properties": {"id": "6381637814", "name": "Trauma Bar und Kino", "street": "Heidestraße 50", "zip-code": 10557, "lat": 52.53063, "lon": 13.36675, "planning-area-id": 1200624}}, {"type": "Feature", "geometry": {"type": "Point", "coordinates": [13.31531, 52.50604]}, "properties": {"id": "6441603779", "name": "New West Club", "street": "Kantstraße 134", "zip-code": 10625, "lat": 52.50604, "lon": 13.31531, "planning-area-id": 4300624}}, {"type": "Feature", "geometry": {"type": "Point", "coordinates": [13.40069, 52.52997]}, "properties": {"id": "6482231157", "name": "Cosmic Kaspar", "street": "Brunnenstraße 197-198", "zip-code": 10119, "lat": 52.52997, "lon": 13.40069, "planning-area-id": 1100415}}, {"type": "Feature", "geometry": {"type": "Point", "coordinates": [13.21071, 52.52275]}, "properties": {"id": "6573680438", "name": "Ballhaus Spandau", "street": "Dorfstraße 5", "zip-code": 13597, "lat": 52.52275, "lon": 13.21071, "planning-area-id": 5200632}}, {"type": "Feature", "geometry": {"type": "Point", "coordinates": [13.3983, 52.52223]}, "properties": {"id": "7230925407", "name": "Mokka Mitte Bar", "lat": 52.52223, "lon": 13.3983, "planning-area-id": 1100310}}, {"type": "Feature", "geometry": {"type": "Point", "coordinates": [13.46503, 52.49706]}, "properties": {"id": "8069721818", "name": "OST", "street": "Alt-Stralau 1-2", "zip-code": 10245, "lat": 52.49706, "lon": 13.46503, "planning-area-id": 2500835}}, {"type": "Feature", "geometry": {"type": "Point", "coordinates": [13.50526, 52.45999]}, "properties": {"id": "9216819283", "name": "Revier Südost", "street": "Schnellerstraße 137", "zip-code": 12439, "lat": 52.45999, "lon": 13.50526, "planning-area-id": 9200613}}, {"type": "Feature", "geometry": {"type": "Point", "coordinates": [13.28096, 52.58935]}, "properties": {"id": "9271890630", "name": "Entenkeller 2.0", "lat": 52.58935, "lon": 13.28096, "planning-area-id": 12200515}}, {"type": "Feature", "geometry": {"type": "Point", "coordinates": [13.41681, 52.51117]}, "properties": {"id": "9272743117", "name": "Melancholie 2", "street": "Brückenstraße 1", "zip-code": 10179, "lat": 52.51117, "lon": 13.41681, "planning-area-id": 1100313}}, {"type": "Feature", "geometry": {"type": "Point", "coordinates": [13.49765, 52.52481]}, "properties": {"id": "9662447417", "name": "Velvet Monkey", "street": "Herzbergstraße 53B", "zip-code": 10365, "lat": 52.52481, "lon": 13.49765, "planning-area-id": 11300721}}, {"type": "Feature", "geometry": {"type": "Point", "coordinates": [13.32795, 52.53819]}, "properties": {"id": "9683590917", "name": "Heideglühen", "street": "Seestraße 1", "zip-code": 13353, "lat": 52.53819, "lon": 13.32795, "planning-area-id": 4100101}}, {"type": "Feature", "geometry": {"type": "Point", "coordinates": [13.44534, 52.50272]}, "properties": {"id": "9806828894", "name": "Pirates Club", "street": "Mühlenstraße 78-80", "zip-code": 10243, "lat": 52.50272, "lon": 13.44534, "planning-area-id": 2400625}}, {"type": "Feature", "geometry": {"type": "Point", "coordinates": [13.49973, 52.47924]}, "properties": {"id": "9830787917", "name": "MONOM", "lat": 52.47924, "lon": 13.49973, "planning-area-id": 9200510}}, {"type": "Feature", "geometry": {"type": "Point", "coordinates": [13.43464, 52.50586]}, "properties": {"id": "9895178218", "name": "spindler & klatt", "street": "Köpenicker Straße 16", "zip-code": 10997, "lat": 52.50586, "lon": 13.43464, "planning-area-id": 2300316}}, {"type": "Feature", "geometry": {"type": "Point", "coordinates": [13.42286, 52.51307]}, "properties": {"id": "10621062970", "name": "Fitzroy", "street": "Holzmarktstraße 15—18", "zip-code": 10179, "lat": 52.51307, "lon": 13.42286, "planning-area-id": 1100311}}, {"type": "Feature", "geometry": {"type": "Point", "coordinates": [13.29651, 52.47527]}, "properties": {"id": "10672763641", "name": "The Hub", "lat": 52.47527, "lon": 13.29651, "planning-area-id": 4400832}}, {"type": "Feature", "geometry": {"type": "Point", "coordinates": [13.45949, 52.47754]}, "properties": {"id": "11066768896", "name": "Falscher Fisch", "street": "Ziegrastraße 1", "zip-code": 12057, "lat": 52.47754, "lon": 13.45949, "planning-area-id": 8100520}}, {"type": "Feature", "geometry": {"type": "Point", "coordinates": [13.35405, 52.55095]}, "properties": {"id": "11435535669", "lat": 52.55095, "lon": 13.35405, "planning-area-id": 1401048}}, {"type": "Feature", "geometry": {"type": "Point", "coordinates": [13.41735, 52.51158]}, "properties": {"id": "11472992147", "name": "Nachspiel - Afterhour @KitKat Club Berlin", "lat": 52.51158, "lon": 13.41735, "planning-area-id": 1100313}}, {"type": "Feature", "geometry": {"type": "Point", "coordinates": [13.40782, 52.503]}, "properties": {"id": "12137704154", "name": "Kreuzwerk", "street": "Lobeckstraße 30-35", "zip-code": 10969, "lat": 52.503, "lon": 13.40782, "planning-area-id": 2100104}}, {"type": "Feature", "geometry": {"type": "Point", "coordinates": [13.30454, 52.50572]}, "properties": {"id": "12290743501", "name": "Sin City Tabledance", "lat": 52.50572, "lon": 13.30454, "planning-area-id": 4300623}}, {"type": "Feature", "geometry": {"type": "Point", "coordinates": [13.31421, 52.50992]}, "properties": {"id": "12301286133", "name": "Frivole Bar moechtegern", "street": "Leibnitzstraße 87", "lat": 52.50992, "lon": 13.31421, "planning-area-id": 4300623}}, {"type": "Feature", "geometry": {"type": "Point", "coordinates": [13.33802, 52.50557]}, "properties": {"id": "12372968542", "name": "808", "lat": 52.50557, "lon": 13.33802, "planning-area-id": 4501042}}, {"type": "Feature", "geometry": {"type": "Point", "coordinates": [13.45292, 52.49713]}, "properties": {"id": "12942103605", "name": "Arena Club", "lat": 52.49713, "lon": 13.45292, "planning-area-id": 9100101}}]}