{"type": "FeatureCollection", "features": [{"type": "Feature", "geometry": {"type": "Point", "coordinates": [13.31386, 52.56995]}, "properties": {"id": "137549003", "name": "Bunte  Klänge Kindergarten", "street": "Graf-Haeseler-Straße 23", "zip-code": 13403, "lat": 52.56995, "lon": 13.31386, "planning-area-id": 12200309}}, {"type": "Feature", "geometry": {"type": "Point", "coordinates": [13.43339, 52.50153]}, "properties": {"id": "167048488", "name": "Nestwärme Kita", "lat": 52.50153, "lon": 13.43339, "planning-area-id": 2300315}}, {"type": "Feature", "geometry": {"type": "Point", "coordinates": [13.32582, 52.47674]}, "properties": {"id": "268915158", "name": "Kita Fehlerstraße 2", "street": "Fehlerstraße 2", "zip-code": 12161, "lat": 52.47674, "lon": 13.32582, "planning-area-id": 7300515}}, {"type": "Feature", "geometry": {"type": "Point", "coordinates": [13.3325, 52.46852]}, "properties": {"id": "268915167", "name": "Ganztagsbetreuung der Fläming-Grundschule", "street": "Rheinstraße 54", "zip-code": 12161, "lat": 52.46852, "lon": 13.3325, "planning-area-id": 7300618}}, {"type": "Feature", "geometry": {"type": "Point", "coordinates": [13.34962, 52.53988]}, "properties": {"id": "268915173", "name": "kidsweb.de Kindertagesbetreuung", "lat": 52.53988, "lon": 13.34962, "planning-area-id": 1401046}}, {"type": "Feature", "geometry": {"type": "Point", "coordinates": [13.3587, 52.50068]}, "properties": {"id": "268915177", "name": "EKG - An der Apostelkirche 1", "street": "Kurfürstenstraße 139", "zip-code": 10785, "lat": 52.50068, "lon": 13.3587, "planning-area-id": 7100103}}, {"type": "Feature", "geometry": {"type": "Point", "coordinates": [13.32583, 52.59163]}, "properties": {"id": "268915180", "name": "EKG - Alt-Wittenau 64", "street": "Alt-Wittenau 64", "zip-code": 13437, "lat": 52.59163, "lon": 13.32583, "planning-area-id": 12500927}}, {"type": "Feature", "geometry": {"type": "Point", "coordinates": [13.2698, 52.55046]}, "properties": {"id": "268915183", "name": "EKG - An der Mäckeritzbrücke 4", "lat": 52.55046, "lon": 13.2698, "planning-area-id": 12200414}}, {"type": "Feature", "geometry": {"type": "Point", "coordinates": [13.31551, 52.61758]}, "properties": {"id": "268915185", "name": "EKG - Berliner Straße 120", "lat": 52.61758, "lon": 13.31551, "planning-area-id": 12400723}}, {"type": "Feature", "geometry": {"type": "Point", "coordinates": [13.35714, 52.44738]}, "properties": {"id": "268915194", "name": "EKG - Ellwanger Straße 9-11", "lat": 52.44738, "lon": 13.35714, "planning-area-id": 6100205}}, {"type": "Feature", "geometry": {"type": "Point", "coordinates": [13.3211, 52.47913]}, "properties": {"id": "268915196", "name": "EKG - Detmolder Straße 17", "lat": 52.47913, "lon": 13.3211, "planning-area-id": 4501151}}, {"type": "Feature", "geometry": {"type": "Point", "coordinates": [13.38667, 52.43899]}, "properties": {"id": "268915198", "name": "EKG - Friedenstraße 20", "lat": 52.43899, "lon": 13.38667, "planning-area-id": 7501133}}, {"type": "Feature", "geometry": {"type": "Point", "coordinates": [13.40576, 52.38533]}, "properties": {"id": "268915205", "name": "Ev. Teilzeit-Kita Goltzstraße", "street": "Goltzstraße 33", "zip-code": 12307, "lat": 52.38533, "lon": 13.40576, "planning-area-id": 7601547}}, {"type": "Feature", "geometry": {"type": "Point", "coordinates": [13.36077, 52.5602]}, "properties": {"id": "268915206", "name": "EKG - Gemeindezentrum Schillerhöhe", "lat": 52.5602, "lon": 13.36077, "planning-area-id": 1400940}}, {"type": "Feature", "geometry": {"type": "Point", "coordinates": [13.28704, 52.50449]}, "properties": {"id": "268915210", "name": "Kita der Evangelischen Kirchengemeinde Am Lietzensee", "street": "Herbartstraße 4", "zip-code": 14057, "lat": 52.50449, "lon": 13.28704, "planning-area-id": 4300415}}, {"type": "Feature", "geometry": {"type": "Point", "coordinates": [13.32743, 52.44763]}, "properties": {"id": "268915214", "name": "Lemmis Kreativ-Kita", "street": "Gravelottestraße 10", "zip-code": 12167, "lat": 52.44763, "lon": 13.32743, "planning-area-id": 6100206}}, {"type": "Feature", "geometry": {"type": "Point", "coordinates": [13.37843, 52.46003]}, "properties": {"id": "268915217", "name": "EKG - Kaiserin-Augusta-Straße 23", "street": "Kaiserin-Augusta-Straße 23", "zip-code": 12103, "lat": 52.46003, "lon": 13.37843, "planning-area-id": 7400824}}, {"type": "Feature", "geometry": {"type": "Point", "coordinates": [13.14479, 52.45396]}, "properties": {"id": "268915220", "name": "Miniclub", "street": "Kladower Damm 369", "zip-code": 14089, "lat": 52.45396, "lon": 13.14479, "planning-area-id": 5400944}}, {"type": "Feature", "geometry": {"type": "Point", "coordinates": [13.18584, 52.51186]}, "properties": {"id": "268915222", "name": "Eltern-Kind-Gruppe", "street": "Jaczostraße 54", "zip-code": 13595, "lat": 52.51186, "lon": 13.18584, "planning-area-id": 5200634}}, {"type": "Feature", "geometry": {"type": "Point", "coordinates": [13.45053, 52.42264]}, "properties": {"id": "268915227", "name": "EKG - Martin-Luther-King-Weg 6", "lat": 52.42264, "lon": 13.45053, "planning-area-id": 8200833}}, {"type": "Feature", "geometry": {"type": "Point", "coordinates": [13.31395, 52.50829]}, "properties": {"id": "268915231", "name": "Kindergarten Trinitatis", "street": "Leibnizstraße 79", "zip-code": 10625, "lat": 52.50829, "lon": 13.31395, "planning-area-id": 4300623}}, {"type": "Feature", "geometry": {"type": "Point", "coordinates": [13.28672, 52.45942]}, "properties": {"id": "268915236", "name": "Teilzeit-KiTa Martin-Niemöller-Haus", "street": "Pacelliallee 61", "zip-code": 14195, "lat": 52.45942, "lon": 13.28672, "planning-area-id": 6400844}}, {"type": "Feature", "geometry": {"type": "Point", "coordinates": [13.21926, 52.43761]}, "properties": {"id": "268915238", "name": "EKG - Matterhornstraße 37", "lat": 52.43761, "lon": 13.21926, "planning-area-id": 6400838}}, {"type": "Feature", "geometry": {"type": "Point", "coordinates": [13.32688, 52.49395]}, "properties": {"id": "268915239", "name": "EKG - Nassauische Straße 66", "lat": 52.49395, "lon": 13.32688, "planning-area-id": 4501149}}, {"type": "Feature", "geometry": {"type": "Point", "coordinates": [13.1822, 52.55894]}, "properties": {"id": "268915241", "name": "EKG - Schwanter Weg 3", "lat": 52.55894, "lon": 13.1822, "planning-area-id": 5100105}}, {"type": "Feature", "geometry": {"type": "Point", "coordinates": [13.2674, 52.54148]}, "properties": {"id": "268915244", "name": "EKG - Schuckertdamm 336-338", "lat": 52.54148, "lon": 13.2674, "planning-area-id": 5300839}}, {"type": "Feature", "geometry": {"type": "Point", "coordinates": [13.31861, 52.4561]}, "properties": {"id": "268915246", "name": "Eltern-Kind-Gruppe Matthäus", "street": "Schloßstraße 44C", "zip-code": 12165, "lat": 52.4561, "lon": 13.31861, "planning-area-id": 6100101}}, {"type": "Feature", "geometry": {"type": "Point", "coordinates": [13.40226, 52.40536]}, "properties": {"id": "268915247", "name": "EKG - Rackebüller Weg 64", "street": "Rackebüller Weg 64", "lat": 52.40536, "lon": 13.40226, "planning-area-id": 7601442}}, {"type": "Feature", "geometry": {"type": "Point", "coordinates": [13.12759, 52.46533]}, "properties": {"id": "268915250", "name": "Kita der Evangelischen Kirchengemeinde Am Groß-Glienicker See", "street": "Waldallee 3", "zip-code": 14089, "lat": 52.46533, "lon": 13.12759, "planning-area-id": 5400943}}, {"type": "Feature", "geometry": {"type": "Point", "coordinates": [13.33926, 52.49473]}, "properties": {"id": "268915258", "name": "EKT - Abrakadabra e.V.", "street": "Motzstraße 63", "zip-code": 10777, "lat": 52.49473, "lon": 13.33926, "planning-area-id": 7100101}}, {"type": "Feature", "geometry": {"type": "Point", "coordinates": [13.33158, 52.52998]}, "properties": {"id": "268915266", "name": "Kinderladen Ali Baba", "street": "Waldstraße 15", "zip-code": 10551, "lat": 52.52998, "lon": 13.33158, "planning-area-id": 1200519}}, {"type": "Feature", "geometry": {"type": "Point", "coordinates": [13.43637, 52.46633]}, "properties": {"id": "268915269", "name": "Ali Baba und seine Räuber \"Löwenzahn\"", "street": "Kranoldstraße 1", "zip-code": 12051, "lat": 52.46633, "lon": 13.43637, "planning-area-id": 8100209}}, {"type": "Feature", "geometry": {"type": "Point", "coordinates": [13.32047, 52.46038]}, "properties": {"id": "268915271", "name": "EKT - Ahörnchen e.V.", "lat": 52.46038, "lon": 13.32047, "planning-area-id": 6100102}}, {"type": "Feature", "geometry": {"type": "Point", "coordinates": [13.35268, 52.48787]}, "properties": {"id": "268915272", "name": "Kinderladen Affentheater", "street": "Merseburger Straße 5", "zip-code": 10823, "lat": 52.48787, "lon": 13.35268, "planning-area-id": 7200409}}, {"type": "Feature", "geometry": {"type": "Point", "coordinates": [13.31568, 52.52979]}, "properties": {"id": "268915276", "name": "Arche Moabit", "street": "Huttenstraße 31", "zip-code": 10553, "lat": 52.52979, "lon": 13.31568, "planning-area-id": 1200517}}, {"type": "Feature", "geometry": {"type": "Point", "coordinates": [13.32467, 52.47266]}, "properties": {"id": "268915281", "name": "Kinderladen Atze + Co.", "street": "Wilhelmshöher Straße 9", "zip-code": 12161, "lat": 52.47266, "lon": 13.32467, "planning-area-id": 7300515}}, {"type": "Feature", "geometry": {"type": "Point", "coordinates": [13.43186, 52.47131]}, "properties": {"id": "268915285", "name": "Altenbraker Kinderladen", "lat": 52.47131, "lon": 13.43186, "planning-area-id": 8100208}}, {"type": "Feature", "geometry": {"type": "Point", "coordinates": [13.41995, 52.47704]}, "properties": {"id": "268915289", "name": "Feldmäuse an der Hasenheide", "street": "Lichtenrader Straße 11", "zip-code": 12049, "lat": 52.47704, "lon": 13.41995, "planning-area-id": 8100102}}, {"type": "Feature", "geometry": {"type": "Point", "coordinates": [13.30794, 52.44598]}, "properties": {"id": "268915290", "name": "Kinderladen Blumenladen", "street": "Moltkestraße 47", "zip-code": 12203, "lat": 52.44598, "lon": 13.30794, "planning-area-id": 6300633}}, {"type": "Feature", "geometry": {"type": "Point", "coordinates": [13.28954, 52.51413]}, "properties": {"id": "268915292", "name": "Kita Bollerwagen", "street": "Sophie-Charlotten-Straße 83b", "zip-code": 14059, "lat": 52.51413, "lon": 13.28954, "planning-area-id": 4300413}}, {"type": "Feature", "geometry": {"type": "Point", "coordinates": [13.40151, 52.49398]}, "properties": {"id": "268915293", "name": "EKT - Brausepulver e.V.", "street": "Urbanstraße 6", "zip-code": 10961, "lat": 52.49398, "lon": 13.40151, "planning-area-id": 2200210}}, {"type": "Feature", "geometry": {"type": "Point", "coordinates": [13.41725, 52.49427]}, "properties": {"id": "268915297", "name": "EKT - Bunte Mischung e.V.", "street": "Böckhstraße 47-48", "zip-code": 10967, "lat": 52.49427, "lon": 13.41725, "planning-area-id": 2200213}}, {"type": "Feature", "geometry": {"type": "Point", "coordinates": [13.43168, 52.46938]}, "properties": {"id": "268915298", "name": "Kinderladen \"Lieblingsmenschen\"", "street": "Nogatstraße 24", "zip-code": 12051, "lat": 52.46938, "lon": 13.43168, "planning-area-id": 8100208}}, {"type": "Feature", "geometry": {"type": "Point", "coordinates": [13.3258, 52.47585]}, "properties": {"id": "268915302", "name": "Kinderladen Berliner Malbüro", "street": "Mainauer Straße 6", "zip-code": 12161, "lat": 52.47585, "lon": 13.3258, "planning-area-id": 7300515}}, {"type": "Feature", "geometry": {"type": "Point", "coordinates": [13.41528, 52.54666]}, "properties": {"id": "268915307", "name": "Kita Billabong", "street": "Greifenhagener Straße 14", "zip-code": 10437, "lat": 52.54666, "lon": 13.41528, "planning-area-id": 3601346}}, {"type": "Feature", "geometry": {"type": "Point", "coordinates": [13.35456, 52.57522]}, "properties": {"id": "268915311", "name": "EKT - Das EI", "lat": 52.57522, "lon": 13.35456, "planning-area-id": 12100205}}, {"type": "Feature", "geometry": {"type": "Point", "coordinates": [13.3936, 52.48747]}, "properties": {"id": "268915313", "name": "EKT - Combo e.V.", "zip-code": 10965, "lat": 52.48747, "lon": 13.3936, "planning-area-id": 2200211}}, {"type": "Feature", "geometry": {"type": "Point", "coordinates": [13.4189, 52.49418]}, "properties": {"id": "268915314", "name": "EKT - Der kleine Horrorladen e.V.", "lat": 52.49418, "lon": 13.4189, "planning-area-id": 2200213}}, {"type": "Feature", "geometry": {"type": "Point", "coordinates": [13.52431, 52.48832]}, "properties": {"id": "268915317", "name": "EKT - Das tapfere Schneiderlein", "lat": 52.48832, "lon": 13.52431, "planning-area-id": 11501339}}, {"type": "Feature", "geometry": {"type": "Point", "coordinates": [13.36147, 52.50274]}, "properties": {"id": "268915322", "name": "Cocorico et Co", "street": "Kluckstraße 29", "zip-code": 10785, "lat": 52.50274, "lon": 13.36147, "planning-area-id": 1100103}}, {"type": "Feature", "geometry": {"type": "Point", "coordinates": [13.30217, 52.52385]}, "properties": {"id": "268915324", "name": "CIP Kita Theo Tintenklecks", "street": "Mierendorffstraße 21", "zip-code": 10589, "lat": 52.52385, "lon": 13.30217, "planning-area-id": 4300517}}, {"type": "Feature", "geometry": {"type": "Point", "coordinates": [13.29321, 52.51672]}, "properties": {"id": "268915325", "name": "Sonnenblume", "street": "Christstraße 42", "zip-code": 14059, "lat": 52.51672, "lon": 13.29321, "planning-area-id": 4300413}}, {"type": "Feature", "geometry": {"type": "Point", "coordinates": [13.20431, 52.55576]}, "properties": {"id": "268915327", "name": "EKT - Die Knöpfe", "lat": 52.55576, "lon": 13.20431, "planning-area-id": 5100105}}, {"type": "Feature", "geometry": {"type": "Point", "coordinates": [13.42302, 52.47969]}, "properties": {"id": "268915328", "name": "Die Kinkies", "street": "Weisestraße 4", "zip-code": 12049, "lat": 52.47969, "lon": 13.42302, "planning-area-id": 8100102}}, {"type": "Feature", "geometry": {"type": "Point", "coordinates": [13.37423, 52.48767]}, "properties": {"id": "268915330", "name": "Kinderladen Monumentenbande", "street": "Monumentenstraße 16", "zip-code": 10965, "lat": 52.48767, "lon": 13.37423, "planning-area-id": 2200209}}, {"type": "Feature", "geometry": {"type": "Point", "coordinates": [13.3225, 52.4173]}, "properties": {"id": "268915331", "name": "EKT - Die Maulwürfe", "lat": 52.4173, "lon": 13.3225, "planning-area-id": 6200423}}, {"type": "Feature", "geometry": {"type": "Point", "coordinates": [13.36369, 52.4856]}, "properties": {"id": "268915332", "name": "Kita Tulpen", "lat": 52.4856, "lon": 13.36369, "planning-area-id": 7200414}}, {"type": "Feature", "geometry": {"type": "Point", "coordinates": [13.3214, 52.4801]}, "properties": {"id": "268915333", "name": "Kinderladen Die Lauser", "street": "Koblenzer Straße 7", "zip-code": 10715, "lat": 52.4801, "lon": 13.3214, "planning-area-id": 4501151}}, {"type": "Feature", "geometry": {"type": "Point", "coordinates": [13.3846, 52.5527]}, "properties": {"id": "268915337", "name": "Kita SilberStern", "street": "Stettiner Straße 56", "zip-code": 13357, "lat": 52.5527, "lon": 13.3846, "planning-area-id": 1300733}}, {"type": "Feature", "geometry": {"type": "Point", "coordinates": [13.24747, 52.61063]}, "properties": {"id": "268915339", "name": "Die Igelkinder", "street": "Am Bärensprung 36", "zip-code": 13503, "lat": 52.61063, "lon": 13.24747, "planning-area-id": 12400619}}, {"type": "Feature", "geometry": {"type": "Point", "coordinates": [13.40168, 52.41727]}, "properties": {"id": "268915340", "name": "Kinderladen Igelkinder", "street": "Sandsteinweg 25A", "zip-code": 12349, "lat": 52.41727, "lon": 13.40168, "planning-area-id": 8200831}}, {"type": "Feature", "geometry": {"type": "Point", "coordinates": [13.58842, 52.46247]}, "properties": {"id": "268915341", "name": "EKT - Die Grünspechte e.V.", "lat": 52.46247, "lon": 13.58842, "planning-area-id": 9502042}}, {"type": "Feature", "geometry": {"type": "Point", "coordinates": [13.41583, 52.54238]}, "properties": {"id": "268915343", "name": "Domino", "street": "Lychener Straße 21", "zip-code": 10437, "lat": 52.54238, "lon": 13.41583, "planning-area-id": 3601347}}, {"type": "Feature", "geometry": {"type": "Point", "coordinates": [13.34815, 52.48034]}, "properties": {"id": "268915346", "name": "Kita Wilde 13", "street": "Fritz-Reuter-Straße 8", "zip-code": 10827, "lat": 52.48034, "lon": 13.34815, "planning-area-id": 7200308}}, {"type": "Feature", "geometry": {"type": "Point", "coordinates": [13.1805, 52.52612]}, "properties": {"id": "268915347", "name": "EKT - Die Seeburg e.V.", "lat": 52.52612, "lon": 13.1805, "planning-area-id": 5200420}}, {"type": "Feature", "geometry": {"type": "Point", "coordinates": [13.35178, 52.49025]}, "properties": {"id": "268915351", "name": "Schülerladen Minipfiff", "lat": 52.49025, "lon": 13.35178, "planning-area-id": 7100204}}, {"type": "Feature", "geometry": {"type": "Point", "coordinates": [13.35373, 52.48397]}, "properties": {"id": "268915353", "name": "Kita Rosen", "street": "Albertstraße 14-18", "zip-code": 10827, "lat": 52.48397, "lon": 13.35373, "planning-area-id": 7200410}}, {"type": "Feature", "geometry": {"type": "Point", "coordinates": [13.38989, 52.56505]}, "properties": {"id": "268915354", "name": "EKT - Die Ministerne e.V.", "street": "Sternstraße 9", "zip-code": 13359, "lat": 52.56505, "lon": 13.38989, "planning-area-id": 1300731}}, {"type": "Feature", "geometry": {"type": "Point", "coordinates": [13.40273, 52.58761]}, "properties": {"id": "268915357", "name": "Pankis", "street": "Heinrich-Böll-Straße 1", "zip-code": 13156, "lat": 52.58761, "lon": 13.40273, "planning-area-id": 3200207}}, {"type": "Feature", "geometry": {"type": "Point", "coordinates": [13.40991, 52.53579]}, "properties": {"id": "268915361", "name": "EKT - Erdnuckel e.V.", "street": "Choriner Straße 30", "zip-code": 10435, "lat": 52.53579, "lon": 13.40991, "planning-area-id": 3701554}}, {"type": "Feature", "geometry": {"type": "Point", "coordinates": [13.35945, 52.54225]}, "properties": {"id": "268915364", "name": "EKT Eisbär", "street": "Sparrstraße 20", "zip-code": 13353, "lat": 52.54225, "lon": 13.35945, "planning-area-id": 1401047}}, {"type": "Feature", "geometry": {"type": "Point", "coordinates": [13.43353, 52.53362]}, "properties": {"id": "268915365", "name": "Elfenland", "street": "Pasteurstraße 15", "zip-code": 10407, "lat": 52.53362, "lon": 13.43353, "planning-area-id": 3701660}}, {"type": "Feature", "geometry": {"type": "Point", "coordinates": [13.39084, 52.49331]}, "properties": {"id": "268915366", "name": "Deutsch-Türkischer Kinderklub", "street": "Nostitzstraße 6", "zip-code": 10961, "lat": 52.49331, "lon": 13.39084, "planning-area-id": 2200210}}, {"type": "Feature", "geometry": {"type": "Point", "coordinates": [13.50076, 52.50377]}, "properties": {"id": "268915367", "name": "Kita „Sonnenhof“", "street": "Archenholdstraße 72", "zip-code": 10315, "lat": 52.50377, "lon": 13.50076, "planning-area-id": 11400929}}, {"type": "Feature", "geometry": {"type": "Point", "coordinates": [13.50767, 52.50453]}, "properties": {"id": "268915368", "name": "Kita „Erlenhof“", "street": "Kraetkestraße 18", "zip-code": 10315, "lat": 52.50453, "lon": 13.50767, "planning-area-id": 11400930}}, {"type": "Feature", "geometry": {"type": "Point", "coordinates": [13.26379, 52.50329]}, "properties": {"id": "268915369", "name": "Kinderladen Eichhörnchen", "street": "Harbigstraße 14", "zip-code": 14055, "lat": 52.50329, "lon": 13.26379, "planning-area-id": 4200207}}, {"type": "Feature", "geometry": {"type": "Point", "coordinates": [13.26614, 52.49579]}, "properties": {"id": "268915370", "name": "Kinderladen Eichkatzweg", "street": "Eichkatzweg 11", "zip-code": 14055, "lat": 52.49579, "lon": 13.26614, "planning-area-id": 4200207}}, {"type": "Feature", "geometry": {"type": "Point", "coordinates": [13.20822, 52.54778]}, "properties": {"id": "268915371", "name": "EKT - Dreiecke und Kreise e.V.", "lat": 52.54778, "lon": 13.20822, "planning-area-id": 5100314}}, {"type": "Feature", "geometry": {"type": "Point", "coordinates": [13.30226, 52.50105]}, "properties": {"id": "268915372", "name": "EKT - Droysen-Mäuse e.V.", "lat": 52.50105, "lon": 13.30226, "planning-area-id": 4500936}}, {"type": "Feature", "geometry": {"type": "Point", "coordinates": [13.34299, 52.52754]}, "properties": {"id": "268915373", "name": "Integrationskinderladen Drunter & Drüber", "street": "Stromstraße 58", "zip-code": 10551, "lat": 52.52754, "lon": 13.34299, "planning-area-id": 1200520}}, {"type": "Feature", "geometry": {"type": "Point", "coordinates": [13.29423, 52.51767]}, "properties": {"id": "268915374", "name": "Drunter und Drüber", "street": "Neufertstraße 12", "zip-code": 14059, "lat": 52.51767, "lon": 13.29423, "planning-area-id": 4300413}}, {"type": "Feature", "geometry": {"type": "Point", "coordinates": [13.33566, 52.52161]}, "properties": {"id": "268915376", "name": "Kila Frecher Spatz", "street": "Elberfelder Straße 18", "zip-code": 10555, "lat": 52.52161, "lon": 13.33566, "planning-area-id": 1200522}}, {"type": "Feature", "geometry": {"type": "Point", "coordinates": [13.19525, 52.51646]}, "properties": {"id": "268915379", "name": "EKT - Förderverein christlicher Kindererziehung e.V.", "lat": 52.51646, "lon": 13.19525, "planning-area-id": 5200630}}, {"type": "Feature", "geometry": {"type": "Point", "coordinates": [13.29485, 52.50491]}, "properties": {"id": "268915382", "name": "Kinderladen Flitzpiepen", "street": "Holtzendorffstraße 14", "zip-code": 14057, "lat": 52.50491, "lon": 13.29485, "planning-area-id": 4300416}}, {"type": "Feature", "geometry": {"type": "Point", "coordinates": [13.33381, 52.5234]}, "properties": {"id": "268915384", "name": "Katz&Kedi Kinderladen", "street": "Jagowstraße 28", "zip-code": 10555, "lat": 52.5234, "lon": 13.33381, "planning-area-id": 1200522}}, {"type": "Feature", "geometry": {"type": "Point", "coordinates": [13.29938, 52.50518]}, "properties": {"id": "268915385", "name": "EKT - Firlefanz e.V.", "lat": 52.50518, "lon": 13.29938, "planning-area-id": 4300416}}, {"type": "Feature", "geometry": {"type": "Point", "coordinates": [13.35184, 52.49294]}, "properties": {"id": "268915388", "name": "Kindertagesstätte Fidibus", "lat": 52.49294, "lon": 13.35184, "planning-area-id": 7100204}}, {"type": "Feature", "geometry": {"type": "Point", "coordinates": [13.29579, 52.49668]}, "properties": {"id": "268915391", "name": "EKT - Georg-Wilhelm-Kindergruppe e.V.", "street": "Joachim-Friedrich-Straße 48", "zip-code": 10711, "lat": 52.49668, "lon": 13.29579, "planning-area-id": 4500938}}, {"type": "Feature", "geometry": {"type": "Point", "coordinates": [13.39786, 52.56877]}, "properties": {"id": "268915400", "name": "Kinderladen Garuda", "street": "Kreuzstraße 5", "zip-code": 13187, "lat": 52.56877, "lon": 13.39786, "planning-area-id": 3400721}}, {"type": "Feature", "geometry": {"type": "Point", "coordinates": [13.31582, 52.51903]}, "properties": {"id": "268915402", "name": "Kinderladen Charlottenburg", "street": "Galvanistraße 14", "zip-code": 10587, "lat": 52.51903, "lon": 13.31582, "planning-area-id": 4300619}}, {"type": "Feature", "geometry": {"type": "Point", "coordinates": [13.62669, 52.45277]}, "properties": {"id": "268915403", "name": "Der Friedrichshagener Kinderladen", "street": "Drachholzstraße 2", "zip-code": 12587, "lat": 52.45277, "lon": 13.62669, "planning-area-id": 9501737}}, {"type": "Feature", "geometry": {"type": "Point", "coordinates": [13.42152, 52.47752]}, "properties": {"id": "268915410", "name": "EKT - Hasenreiter e.V.", "street": "Herrfurthplatz 4", "zip-code": 12049, "lat": 52.47752, "lon": 13.42152, "planning-area-id": 8100102}}, {"type": "Feature", "geometry": {"type": "Point", "coordinates": [13.29226, 52.50363]}, "properties": {"id": "268915411", "name": "Kita Canicas", "street": "Friedbergstraße 41", "zip-code": 14057, "lat": 52.50363, "lon": 13.29226, "planning-area-id": 4300416}}, {"type": "Feature", "geometry": {"type": "Point", "coordinates": [13.41052, 52.48902]}, "properties": {"id": "268915413", "name": "EKT Herzlichtgarten e.V.", "street": "Hasenheide 51", "zip-code": 10967, "lat": 52.48902, "lon": 13.41052, "planning-area-id": 2200212}}, {"type": "Feature", "geometry": {"type": "Point", "coordinates": [13.30354, 52.5838]}, "properties": {"id": "268915415", "name": "Schubarts Lieblingskinder", "street": "Schubartstraße 44", "zip-code": 13509, "lat": 52.5838, "lon": 13.30354, "planning-area-id": 12500825}}, {"type": "Feature", "geometry": {"type": "Point", "coordinates": [13.27465, 52.45601]}, "properties": {"id": "268915419", "name": "EKT - Hort der Rudolf-Steiner-Schule e.V.", "lat": 52.45601, "lon": 13.27465, "planning-area-id": 6400844}}, {"type": "Feature", "geometry": {"type": "Point", "coordinates": [13.31582, 52.51874]}, "properties": {"id": "268915420", "name": "EKT - Hoppel-Poppel", "street": "Galvanistraße 15", "zip-code": 10587, "lat": 52.51874, "lon": 13.31582, "planning-area-id": 4300619}}, {"type": "Feature", "geometry": {"type": "Point", "coordinates": [13.4389, 52.49323]}, "properties": {"id": "268915421", "name": "EKT - Hollerbusch e.V.", "street": "Reichenberger Straße 99", "zip-code": 10999, "lat": 52.49323, "lon": 13.4389, "planning-area-id": 2300418}}, {"type": "Feature", "geometry": {"type": "Point", "coordinates": [13.28033, 52.58603]}, "properties": {"id": "268915422", "name": "EKT - Hokus Pokus e.V.", "lat": 52.58603, "lon": 13.28033, "planning-area-id": 12200515}}, {"type": "Feature", "geometry": {"type": "Point", "coordinates": [13.41038, 52.54626]}, "properties": {"id": "268915424", "name": "EKT - Grashüpfer e.V.", "lat": 52.54626, "lon": 13.41038, "planning-area-id": 3601142}}, {"type": "Feature", "geometry": {"type": "Point", "coordinates": [13.34284, 52.46437]}, "properties": {"id": "268915427", "name": "Kinderladen Großstadtpflänzchen", "street": "Cranachstraße 39/40", "zip-code": 12157, "lat": 52.46437, "lon": 13.34284, "planning-area-id": 7300619}}, {"type": "Feature", "geometry": {"type": "Point", "coordinates": [13.39589, 52.49326]}, "properties": {"id": "268915431", "name": "Kinderladen Guten Tag Kinder", "street": "Fürbringerstraße 27", "zip-code": 10961, "lat": 52.49326, "lon": 13.39589, "planning-area-id": 2200210}}, {"type": "Feature", "geometry": {"type": "Point", "coordinates": [13.31588, 52.46336]}, "properties": {"id": "268915432", "name": "Kindergarten Happy Kids", "street": "Gritznerstraße 33", "zip-code": 12163, "lat": 52.46336, "lon": 13.31588, "planning-area-id": 6100102}}, {"type": "Feature", "geometry": {"type": "Point", "coordinates": [13.28033, 52.51347]}, "properties": {"id": "268915433", "name": "EKT - Grünes Nashorn e.V.", "lat": 52.51347, "lon": 13.28033, "planning-area-id": 4200311}}, {"type": "Feature", "geometry": {"type": "Point", "coordinates": [13.40167, 52.49396]}, "properties": {"id": "268915441", "name": "EKT - Känguruh e.V.", "street": "Urbanstraße 6", "zip-code": 10961, "lat": 52.49396, "lon": 13.40167, "planning-area-id": 2200210}}, {"type": "Feature", "geometry": {"type": "Point", "coordinates": [13.39146, 52.48692]}, "properties": {"id": "268915442", "name": "Kinderladen Kalle Kirschkern", "street": "Fidicinstraße 32", "zip-code": 10965, "lat": 52.48692, "lon": 13.39146, "planning-area-id": 2200211}}, {"type": "Feature", "geometry": {"type": "Point", "coordinates": [13.29263, 52.47032]}, "properties": {"id": "268915443", "name": "EKT - Kantis Kinder-Klub e.V.", "lat": 52.47032, "lon": 13.29263, "planning-area-id": 4400832}}, {"type": "Feature", "geometry": {"type": "Point", "coordinates": [13.30254, 52.5177]}, "properties": {"id": "268915445", "name": "Kita Karamell", "street": "Gierkezeile 42", "zip-code": 10585, "lat": 52.5177, "lon": 13.30254, "planning-area-id": 4300621}}, {"type": "Feature", "geometry": {"type": "Point", "coordinates": [13.29293, 52.51345]}, "properties": {"id": "268915447", "name": "EKT - Kartoffelladen e.V.", "lat": 52.51345, "lon": 13.29293, "planning-area-id": 4300413}}, {"type": "Feature", "geometry": {"type": "Point", "coordinates": [13.37601, 52.48708]}, "properties": {"id": "268915449", "name": "Katzbachpiraten", "street": "Katzbachstraße 19", "zip-code": 10965, "lat": 52.48708, "lon": 13.37601, "planning-area-id": 2200209}}, {"type": "Feature", "geometry": {"type": "Point", "coordinates": [13.3649, 52.60015]}, "properties": {"id": "268915455", "name": "EKT - Hort im Märkischen Viertel e.V.", "lat": 52.60015, "lon": 13.3649, "planning-area-id": 12601133}}, {"type": "Feature", "geometry": {"type": "Point", "coordinates": [13.37608, 52.55506]}, "properties": {"id": "268915466", "name": "EKT - Jo Jo e.V.", "street": "Schwedenstraße 3a", "zip-code": 13357, "lat": 52.55506, "lon": 13.37608, "planning-area-id": 1401045}}, {"type": "Feature", "geometry": {"type": "Point", "coordinates": [13.29882, 52.52535]}, "properties": {"id": "268915467", "name": "Kita Cheburashka", "street": "Mindener Straße 11", "zip-code": 10589, "lat": 52.52535, "lon": 13.29882, "planning-area-id": 4300517}}, {"type": "Feature", "geometry": {"type": "Point", "coordinates": [13.35024, 52.47929]}, "properties": {"id": "268915471", "name": "Kita Ebersstraße", "street": "Ebersstraße 68", "zip-code": 10827, "lat": 52.47929, "lon": 13.35024, "planning-area-id": 7200308}}, {"type": "Feature", "geometry": {"type": "Point", "coordinates": [13.33555, 52.47449]}, "properties": {"id": "268915474", "name": "Kita Lauterstraße 30", "street": "Lauterstraße 30", "zip-code": 12159, "lat": 52.47449, "lon": 13.33555, "planning-area-id": 7300517}}, {"type": "Feature", "geometry": {"type": "Point", "coordinates": [13.3315, 52.45837]}, "properties": {"id": "268915487", "name": "Kinderladen Kasymir", "street": "Menckenstraße 1", "zip-code": 12169, "lat": 52.45837, "lon": 13.3315, "planning-area-id": 6100208}}, {"type": "Feature", "geometry": {"type": "Point", "coordinates": [13.20492, 52.54767]}, "properties": {"id": "268915494", "name": "EKT - Kinderhaus Gruberzeile e.V.", "lat": 52.54767, "lon": 13.20492, "planning-area-id": 5100314}}, {"type": "Feature", "geometry": {"type": "Point", "coordinates": [13.4067, 52.53639]}, "properties": {"id": "268915497", "name": "Kita Kindersorpresa", "street": "Schwedter Straße 29", "zip-code": 10435, "lat": 52.53639, "lon": 13.4067, "planning-area-id": 3701554}}, {"type": "Feature", "geometry": {"type": "Point", "coordinates": [13.29459, 52.51384]}, "properties": {"id": "268915498", "name": "KiBest Die Kita", "street": "Nehringstraße 16A", "zip-code": 14059, "lat": 52.51384, "lon": 13.29459, "planning-area-id": 4300413}}, {"type": "Feature", "geometry": {"type": "Point", "coordinates": [13.42947, 52.50047]}, "properties": {"id": "268915500", "name": "Kinder aus Kreuzberg", "lat": 52.50047, "lon": 13.42947, "planning-area-id": 2300315}}, {"type": "Feature", "geometry": {"type": "Point", "coordinates": [13.31365, 52.51079]}, "properties": {"id": "268915502", "name": "EKT - Kinderladen Purzelbaum e.V.", "lat": 52.51079, "lon": 13.31365, "planning-area-id": 4300623}}, {"type": "Feature", "geometry": {"type": "Point", "coordinates": [13.27105, 52.48724]}, "properties": {"id": "268915506", "name": "Kindergruppe Hasensprung", "street": "Koenigsallee 35", "zip-code": 14193, "lat": 52.48724, "lon": 13.27105, "planning-area-id": 4400728}}, {"type": "Feature", "geometry": {"type": "Point", "coordinates": [13.32289, 52.48006]}, "properties": {"id": "268915508", "name": "Kinderladen Mainzelmännchen", "street": "Mainzer Straße 25", "zip-code": 10715, "lat": 52.48006, "lon": 13.32289, "planning-area-id": 4501151}}, {"type": "Feature", "geometry": {"type": "Point", "coordinates": [13.30185, 52.52047]}, "properties": {"id": "268915509", "name": "EKT - Kindergarten am Schloß Charlottenburg", "street": "Eosanderstraße 13", "zip-code": 10587, "lat": 52.52047, "lon": 13.30185, "planning-area-id": 4300619}}, {"type": "Feature", "geometry": {"type": "Point", "coordinates": [13.46241, 52.51298]}, "properties": {"id": "268915511", "name": "Kinderladen Kinderbüro", "street": "Scharnweberstraße 33", "zip-code": 10247, "lat": 52.51298, "lon": 13.46241, "planning-area-id": 2500831}}, {"type": "Feature", "geometry": {"type": "Point", "coordinates": [13.32426, 52.48566]}, "properties": {"id": "268915514", "name": "Kinderland", "street": "Wilhelmsaue 18", "zip-code": 10715, "lat": 52.48566, "lon": 13.32426, "planning-area-id": 4501150}}, {"type": "Feature", "geometry": {"type": "Point", "coordinates": [13.36983, 52.45819]}, "properties": {"id": "268915515", "name": "Kinderspielkreis Alboinplatz", "street": "Alboinstraße 113", "zip-code": 12105, "lat": 52.45819, "lon": 13.36983, "planning-area-id": 7400823}}, {"type": "Feature", "geometry": {"type": "Point", "coordinates": [13.36807, 52.4458]}, "properties": {"id": "268915519", "name": "Kinderladen \"Villa Kunterbunt\"", "street": "Kurfürstenstraße 114", "zip-code": 12105, "lat": 52.4458, "lon": 13.36807, "planning-area-id": 7501029}}, {"type": "Feature", "geometry": {"type": "Point", "coordinates": [13.34436, 52.46157]}, "properties": {"id": "268915520", "name": "Kinderladen Zweitausendfüssler", "street": "Thorwaldsenstraße 29", "zip-code": 12157, "lat": 52.46157, "lon": 13.34436, "planning-area-id": 6100210}}, {"type": "Feature", "geometry": {"type": "Point", "coordinates": [13.35556, 52.40819]}, "properties": {"id": "268915524", "name": "EKT - Kinderwelt e.V.", "lat": 52.40819, "lon": 13.35556, "planning-area-id": 7601341}}, {"type": "Feature", "geometry": {"type": "Point", "coordinates": [13.35137, 52.52732]}, "properties": {"id": "268915529", "name": "Kinderladen Badehaus", "street": "Wilsnacker Straße 62", "zip-code": 10559, "lat": 52.52732, "lon": 13.35137, "planning-area-id": 1200625}}, {"type": "Feature", "geometry": {"type": "Point", "coordinates": [13.42468, 52.49967]}, "properties": {"id": "268915530", "name": "EKT - Kinderladen Bande e.V.", "street": "Oranienstraße 202", "zip-code": 10999, "lat": 52.49967, "lon": 13.42468, "planning-area-id": 2300315}}, {"type": "Feature", "geometry": {"type": "Point", "coordinates": [13.35279, 52.4933]}, "properties": {"id": "268915531", "name": "Kinderladen Feuerkäfer", "street": "Frankenstraße 15", "zip-code": 10781, "lat": 52.4933, "lon": 13.35279, "planning-area-id": 7100204}}, {"type": "Feature", "geometry": {"type": "Point", "coordinates": [13.29756, 52.50458]}, "properties": {"id": "268915536", "name": "EKT - Kinderladen - was sonst e.V.", "street": "Friedbergstraße 5", "zip-code": 14057, "lat": 52.50458, "lon": 13.29756, "planning-area-id": 4300416}}, {"type": "Feature", "geometry": {"type": "Point", "coordinates": [13.38626, 52.49248]}, "properties": {"id": "268915537", "name": "Kinderladen Luftabong", "street": "Yorckstraße 88H", "zip-code": 10965, "lat": 52.49248, "lon": 13.38626, "planning-area-id": 2200209}}, {"type": "Feature", "geometry": {"type": "Point", "coordinates": [13.43376, 52.50045]}, "properties": {"id": "268915538", "name": "EKT – Kinderladen Muko e.V.", "lat": 52.50045, "lon": 13.43376, "planning-area-id": 2300315}}, {"type": "Feature", "geometry": {"type": "Point", "coordinates": [13.43342, 52.46601]}, "properties": {"id": "268915539", "name": "Kinderladen Pimpinella", "street": "Kranoldstraße 9", "zip-code": 12051, "lat": 52.46601, "lon": 13.43342, "planning-area-id": 8100209}}, {"type": "Feature", "geometry": {"type": "Point", "coordinates": [13.45703, 52.50827]}, "properties": {"id": "268915540", "name": "Kinderladen Sol", "street": "Dirschauer Straße 13", "zip-code": 10245, "lat": 52.50827, "lon": 13.45703, "planning-area-id": 2500834}}, {"type": "Feature", "geometry": {"type": "Point", "coordinates": [13.31871, 52.50906]}, "properties": {"id": "268915542", "name": "Kinderladen Goethestraße", "street": "Goethestraße 13", "zip-code": 10623, "lat": 52.50906, "lon": 13.31871, "planning-area-id": 4300624}}, {"type": "Feature", "geometry": {"type": "Point", "coordinates": [13.27068, 52.53517]}, "properties": {"id": "268915544", "name": "EKT - Kinderladen Immerfrech e.V.", "lat": 52.53517, "lon": 13.27068, "planning-area-id": 5300841}}, {"type": "Feature", "geometry": {"type": "Point", "coordinates": [13.26235, 52.49907]}, "properties": {"id": "268915546", "name": "EKT - Knuddelmonster e.V./Helene-Keller-Schule", "lat": 52.49907, "lon": 13.26235, "planning-area-id": 4200207}}, {"type": "Feature", "geometry": {"type": "Point", "coordinates": [13.42474, 52.4741]}, "properties": {"id": "268915548", "name": "Kleiner Fratz", "street": "Weisestraße 28", "zip-code": 12049, "lat": 52.4741, "lon": 13.42474, "planning-area-id": 8100103}}, {"type": "Feature", "geometry": {"type": "Point", "coordinates": [13.35492, 52.49312]}, "properties": {"id": "268915550", "name": "Kinderladen Konfetti", "street": "Gleditschstraße 40", "zip-code": 10781, "lat": 52.49312, "lon": 13.35492, "planning-area-id": 7100204}}, {"type": "Feature", "geometry": {"type": "Point", "coordinates": [13.41932, 52.48896]}, "properties": {"id": "268915552", "name": "Kinderladen Knulp", "street": "Jahnstraße 4", "zip-code": 10967, "lat": 52.48896, "lon": 13.41932, "planning-area-id": 2200212}}, {"type": "Feature", "geometry": {"type": "Point", "coordinates": [13.31878, 52.4821]}, "properties": {"id": "268915554", "name": "Kleine Panther", "street": "Aachener Straße 43", "zip-code": 10713, "lat": 52.4821, "lon": 13.31878, "planning-area-id": 4501148}}, {"type": "Feature", "geometry": {"type": "Point", "coordinates": [13.3485, 52.55393]}, "properties": {"id": "268915556", "name": "Kleine Himmelswolke", "street": "Türkenstraße 5", "zip-code": 13349, "lat": 52.55393, "lon": 13.3485, "planning-area-id": 1400939}}, {"type": "Feature", "geometry": {"type": "Point", "coordinates": [13.43006, 52.61238]}, "properties": {"id": "268915557", "name": "EKT - Kleiner Fratz e.V.", "street": "Triftstraße 27B", "zip-code": 13127, "lat": 52.61238, "lon": 13.43006, "planning-area-id": 3200310}}, {"type": "Feature", "geometry": {"type": "Point", "coordinates": [13.35757, 52.48888]}, "properties": {"id": "268915560", "name": "Kleine Ungeheuer", "street": "Vorbergstraße 2", "zip-code": 10823, "lat": 52.48888, "lon": 13.35757, "planning-area-id": 7200409}}, {"type": "Feature", "geometry": {"type": "Point", "coordinates": [13.34947, 52.52368]}, "properties": {"id": "268915566", "name": "Kleckerburg", "street": "Kirchstraße 22", "zip-code": 10557, "lat": 52.52368, "lon": 13.34947, "planning-area-id": 1200626}}, {"type": "Feature", "geometry": {"type": "Point", "coordinates": [13.38998, 52.49002]}, "properties": {"id": "268915567", "name": "Kinderladen Klara Kirschkern", "street": "Nostitzstraße 25", "zip-code": 10961, "lat": 52.49002, "lon": 13.38998, "planning-area-id": 2200211}}, {"type": "Feature", "geometry": {"type": "Point", "coordinates": [13.38428, 52.55941]}, "properties": {"id": "268915568", "name": "Kinderladen Klapperkiste", "street": "Soldiner Straße 33", "zip-code": 13359, "lat": 52.55941, "lon": 13.38428, "planning-area-id": 1300731}}, {"type": "Feature", "geometry": {"type": "Point", "coordinates": [13.41917, 52.39439]}, "properties": {"id": "268915574", "name": "EKT - Kita-Verein Lichtenrade Ost e.V.", "lat": 52.39439, "lon": 13.41917, "planning-area-id": 7601545}}, {"type": "Feature", "geometry": {"type": "Point", "coordinates": [13.42317, 52.47495]}, "properties": {"id": "268915575", "name": "EKT - Kita Karlsgartenstraße e.V.", "street": "Schillerpromenade 29", "zip-code": 12049, "lat": 52.47495, "lon": 13.42317, "planning-area-id": 8100103}}, {"type": "Feature", "geometry": {"type": "Point", "coordinates": [13.46936, 52.48345]}, "properties": {"id": "268915576", "name": "EKT - Kita am Karpfenteich /Clara Petudio e.V.", "lat": 52.48345, "lon": 13.46936, "planning-area-id": 9100202}}, {"type": "Feature", "geometry": {"type": "Point", "coordinates": [13.3818, 52.4491]}, "properties": {"id": "268915579", "name": "EKT - Kitaverein Mücke e.V.", "lat": 52.4491, "lon": 13.3818, "planning-area-id": 7501030}}, {"type": "Feature", "geometry": {"type": "Point", "coordinates": [13.40288, 52.4086]}, "properties": {"id": "268915582", "name": "Lichtenrader Dreckspatzen", "street": "Lintruper Straße 57", "zip-code": 12305, "lat": 52.4086, "lon": 13.40288, "planning-area-id": 7601442}}, {"type": "Feature", "geometry": {"type": "Point", "coordinates": [13.36043, 52.48289]}, "properties": {"id": "268915583", "name": "Kinderladen Lilo Leopard", "street": "Gotenstraße 71", "zip-code": 10829, "lat": 52.48289, "lon": 13.36043, "planning-area-id": 7200413}}, {"type": "Feature", "geometry": {"type": "Point", "coordinates": [13.43815, 52.48839]}, "properties": {"id": "268915584", "name": "EKT - Lima e.V.", "street": "Weichselstraße 38", "zip-code": 12045, "lat": 52.48839, "lon": 13.43815, "planning-area-id": 8100312}}, {"type": "Feature", "geometry": {"type": "Point", "coordinates": [13.43431, 52.49593]}, "properties": {"id": "268915585", "name": "EKT – Lindenblüte e.V.", "street": "Forster Straße 56", "zip-code": 10999, "lat": 52.49593, "lon": 13.43431, "planning-area-id": 2300418}}, {"type": "Feature", "geometry": {"type": "Point", "coordinates": [13.43869, 52.48612]}, "properties": {"id": "268915586", "name": "Loupiot e.V.", "street": "Fuldastraße 37", "zip-code": 12045, "lat": 52.48612, "lon": 13.43869, "planning-area-id": 8100312}}, {"type": "Feature", "geometry": {"type": "Point", "coordinates": [13.44456, 52.49736]}, "properties": {"id": "268915587", "name": "Kita Löwenhöhle", "lat": 52.49736, "lon": 13.44456, "planning-area-id": 2300419}}, {"type": "Feature", "geometry": {"type": "Point", "coordinates": [13.31834, 52.54632]}, "properties": {"id": "268915588", "name": "EKT - Luftikus", "lat": 52.54632, "lon": 13.31834, "planning-area-id": 4100101}}, {"type": "Feature", "geometry": {"type": "Point", "coordinates": [13.33253, 52.46001]}, "properties": {"id": "268915590", "name": "EKT - Kuschelburg e.V.", "street": "Kniephofstraße 7", "zip-code": 12157, "lat": 52.46001, "lon": 13.33253, "planning-area-id": 6100209}}, {"type": "Feature", "geometry": {"type": "Point", "coordinates": [13.34062, 52.49888]}, "properties": {"id": "268915591", "name": "LAngolino", "street": "Ansbacher Straße 41", "zip-code": 10777, "lat": 52.49888, "lon": 13.34062, "planning-area-id": 7100101}}, {"type": "Feature", "geometry": {"type": "Point", "coordinates": [13.34994, 52.43606]}, "properties": {"id": "268915595", "name": "EKT - Lankwitzer Spielkiste e.V.", "lat": 52.43606, "lon": 13.34994, "planning-area-id": 6200313}}, {"type": "Feature", "geometry": {"type": "Point", "coordinates": [13.42955, 52.50202]}, "properties": {"id": "268915596", "name": "Leierkasten", "street": "Muskauer Straße 43", "zip-code": 10997, "lat": 52.50202, "lon": 13.42955, "planning-area-id": 2300315}}, {"type": "Feature", "geometry": {"type": "Point", "coordinates": [13.37952, 52.49019]}, "properties": {"id": "268915598", "name": "EKT - Krümelmonster e.V.", "lat": 52.49019, "lon": 13.37952, "planning-area-id": 2200209}}, {"type": "Feature", "geometry": {"type": "Point", "coordinates": [13.34216, 52.45946]}, "properties": {"id": "268915626", "name": "Kinderladen Kulleberga", "street": "Altmarkstraße 26", "zip-code": 12169, "lat": 52.45946, "lon": 13.34216, "planning-area-id": 6100210}}, {"type": "Feature", "geometry": {"type": "Point", "coordinates": [13.39406, 52.48725]}, "properties": {"id": "268915649", "name": "EKT - Kulturschlüssel e.V.", "zip-code": 10965, "lat": 52.48725, "lon": 13.39406, "planning-area-id": 2200211}}, {"type": "Feature", "geometry": {"type": "Point", "coordinates": [13.43791, 52.46994]}, "properties": {"id": "268915663", "name": "EKT - Kurdistan Kultur- und Hilfeverein e.V.", "lat": 52.46994, "lon": 13.43791, "planning-area-id": 8100208}}, {"type": "Feature", "geometry": {"type": "Point", "coordinates": [13.41305, 52.53105]}, "properties": {"id": "268915680", "name": "Secret Garden", "street": "Saarbrücker Straße 15", "zip-code": 10405, "lat": 52.53105, "lon": 13.41305, "planning-area-id": 3701556}}, {"type": "Feature", "geometry": {"type": "Point", "coordinates": [13.41021, 52.5715]}, "properties": {"id": "268915691", "name": "EKT - Krikelkrakel e.V.", "lat": 52.5715, "lon": 13.41021, "planning-area-id": 3400724}}, {"type": "Feature", "geometry": {"type": "Point", "coordinates": [13.43453, 52.50161]}, "properties": {"id": "268915711", "name": "EKT - Kröwalda e.V.", "lat": 52.50161, "lon": 13.43453, "planning-area-id": 2300316}}, {"type": "Feature", "geometry": {"type": "Point", "coordinates": [13.39659, 52.48757]}, "properties": {"id": "268915723", "name": "EKT - Krötenpfuhl e.V.", "street": "Heimstraße 7", "zip-code": 10965, "lat": 52.48757, "lon": 13.39659, "planning-area-id": 2200211}}, {"type": "Feature", "geometry": {"type": "Point", "coordinates": [13.34794, 52.54657]}, "properties": {"id": "268915731", "name": "EKT - Krümelbande e.V.", "lat": 52.54657, "lon": 13.34794, "planning-area-id": 1400942}}, {"type": "Feature", "geometry": {"type": "Point", "coordinates": [13.19804, 52.52562]}, "properties": {"id": "268915740", "name": "Kinderladen Krowelstraße", "street": "Krowelstraße 33", "zip-code": 13581, "lat": 52.52562, "lon": 13.19804, "planning-area-id": 5200631}}, {"type": "Feature", "geometry": {"type": "Point", "coordinates": [13.36018, 52.54142]}, "properties": {"id": "268915771", "name": "Montessori Kinderhaus-Kolibris", "street": "Sparrstraße 26", "zip-code": 13353, "lat": 52.54142, "lon": 13.36018, "planning-area-id": 1401047}}, {"type": "Feature", "geometry": {"type": "Point", "coordinates": [13.27551, 52.45962]}, "properties": {"id": "268915805", "name": "Montessori Gemeinschaftshaus e.V.", "street": "Clayallee 92", "zip-code": 14195, "lat": 52.45962, "lon": 13.27551, "planning-area-id": 6400844}}, {"type": "Feature", "geometry": {"type": "Point", "coordinates": [13.40988, 52.53243]}, "properties": {"id": "268915809", "name": "EKT - Mittenmang e.V.", "street": "Christinenstraße 30", "zip-code": 10119, "lat": 52.53243, "lon": 13.40988, "planning-area-id": 3701554}}, {"type": "Feature", "geometry": {"type": "Point", "coordinates": [13.33389, 52.47905]}, "properties": {"id": "268915810", "name": "Kinderladen Felix", "street": "Wexstraße 20", "zip-code": 10715, "lat": 52.47905, "lon": 13.33389, "planning-area-id": 4501153}}, {"type": "Feature", "geometry": {"type": "Point", "coordinates": [13.45123, 52.47415]}, "properties": {"id": "268915811", "name": "EKT - Minihausen e.V.", "street": "Mareschstraße 18", "zip-code": 12055, "lat": 52.47415, "lon": 13.45123, "planning-area-id": 8100417}}, {"type": "Feature", "geometry": {"type": "Point", "coordinates": [13.39266, 52.48657]}, "properties": {"id": "268915813", "name": "Schülerladen Milli Vanilli", "street": "Fidicinstraße 19", "zip-code": 10965, "lat": 52.48657, "lon": 13.39266, "planning-area-id": 2200211}}, {"type": "Feature", "geometry": {"type": "Point", "coordinates": [13.46689, 52.42749]}, "properties": {"id": "268915829", "name": "Kinderhort Gropiusstadt", "street": "Lipschitzallee 38", "zip-code": 12353, "lat": 52.42749, "lon": 13.46689, "planning-area-id": 8300934}}, {"type": "Feature", "geometry": {"type": "Point", "coordinates": [13.28623, 52.6339]}, "properties": {"id": "268915830", "name": "EKT - Maxizwerge e.V.", "lat": 52.6339, "lon": 13.28623, "planning-area-id": 12400720}}, {"type": "Feature", "geometry": {"type": "Point", "coordinates": [13.38558, 52.4606]}, "properties": {"id": "268915833", "name": "Schülerladen Maulwurf e.V.", "street": "Albrechtstraße 123", "zip-code": 12099, "lat": 52.4606, "lon": 13.38558, "planning-area-id": 7400927}}, {"type": "Feature", "geometry": {"type": "Point", "coordinates": [13.34922, 52.40701]}, "properties": {"id": "268915835", "name": "EKT - Marienfelde e.V.", "lat": 52.40701, "lon": 13.34922, "planning-area-id": 7601339}}, {"type": "Feature", "geometry": {"type": "Point", "coordinates": [13.37446, 52.45796]}, "properties": {"id": "268915836", "name": "Kita Märchenwald", "street": "Burgemeisterstraße 30", "zip-code": 12103, "lat": 52.45796, "lon": 13.37446, "planning-area-id": 7400823}}, {"type": "Feature", "geometry": {"type": "Point", "coordinates": [13.28357, 52.50585]}, "properties": {"id": "268915837", "name": "EKT - Mappagei e.V.", "street": "Dernburgstraße 57", "zip-code": 14057, "lat": 52.50585, "lon": 13.28357, "planning-area-id": 4300415}}, {"type": "Feature", "geometry": {"type": "Point", "coordinates": [13.34972, 52.5343]}, "properties": {"id": "268915838", "name": "Kinderladen Maluch", "street": "Stephanstraße 17", "zip-code": 10559, "lat": 52.5343, "lon": 13.34972, "planning-area-id": 1200623}}, {"type": "Feature", "geometry": {"type": "Point", "coordinates": [13.31841, 52.51557]}, "properties": {"id": "268915840", "name": "Kindertagesstätte Maikäfer", "street": "Fraunhoferstraße 26", "zip-code": 10587, "lat": 52.51557, "lon": 13.31841, "planning-area-id": 4300622}}, {"type": "Feature", "geometry": {"type": "Point", "coordinates": [13.42597, 52.47495]}, "properties": {"id": "268915841", "name": "Mafalda e.V.", "lat": 52.47495, "lon": 13.42597, "planning-area-id": 8100103}}, {"type": "Feature", "geometry": {"type": "Point", "coordinates": [13.37476, 52.48884]}, "properties": {"id": "268915844", "name": "EKT - Macht nix e.V.", "lat": 52.48884, "lon": 13.37476, "planning-area-id": 2200209}}, {"type": "Feature", "geometry": {"type": "Point", "coordinates": [13.35167, 52.52771]}, "properties": {"id": "268915846", "name": "Kinderladen Perle", "street": "Wilsnacker Straße 14", "zip-code": 10559, "lat": 52.52771, "lon": 13.35167, "planning-area-id": 1200625}}, {"type": "Feature", "geometry": {"type": "Point", "coordinates": [13.41026, 52.39281]}, "properties": {"id": "268915849", "name": "Kinderladen Pillepoppen", "street": "Alt-Lichtenrade 100", "zip-code": 12309, "lat": 52.39281, "lon": 13.41026, "planning-area-id": 7601545}}, {"type": "Feature", "geometry": {"type": "Point", "coordinates": [13.30404, 52.50306]}, "properties": {"id": "268915850", "name": "EKT - Paretz e.V.", "lat": 52.50306, "lon": 13.30404, "planning-area-id": 4500936}}, {"type": "Feature", "geometry": {"type": "Point", "coordinates": [13.32223, 52.48005]}, "properties": {"id": "268915851", "name": "Paul und Klärchen", "street": "Mainzer Straße 26a", "zip-code": 10715, "lat": 52.48005, "lon": 13.32223, "planning-area-id": 4501151}}, {"type": "Feature", "geometry": {"type": "Point", "coordinates": [13.34002, 52.55115]}, "properties": {"id": "268915852", "name": "Kinderladen Berliner Stadtmäuse", "lat": 52.55115, "lon": 13.34002, "planning-area-id": 1400937}}, {"type": "Feature", "geometry": {"type": "Point", "coordinates": [13.36825, 52.50426]}, "properties": {"id": "268915854", "name": "Kita Pädagogisches Zentrum Bissingzeile", "street": "Bissingzeile 5", "zip-code": 10785, "lat": 52.50426, "lon": 13.36825, "planning-area-id": 1100104}}, {"type": "Feature", "geometry": {"type": "Point", "coordinates": [13.34553, 52.52857]}, "properties": {"id": "268915856", "name": "Kinderladen Panther, Tiger & Co.", "street": "Lübecker Straße 13", "zip-code": 10559, "lat": 52.52857, "lon": 13.34553, "planning-area-id": 1200625}}, {"type": "Feature", "geometry": {"type": "Point", "coordinates": [13.41426, 52.49457]}, "properties": {"id": "268915858", "name": "Kinderladen „Die Optimisten“", "street": "Grimmstraße 1A", "zip-code": 10967, "lat": 52.49457, "lon": 13.41426, "planning-area-id": 2200213}}, {"type": "Feature", "geometry": {"type": "Point", "coordinates": [13.44645, 52.48048]}, "properties": {"id": "268915859", "name": "EKT - Orgelpfeifen e.V.", "lat": 52.48048, "lon": 13.44645, "planning-area-id": 8100418}}, {"type": "Feature", "geometry": {"type": "Point", "coordinates": [13.42592, 52.53629]}, "properties": {"id": "268915863", "name": "Obst und Gemüse", "street": "Christburger Straße 41", "zip-code": 10405, "lat": 52.53629, "lon": 13.42592, "planning-area-id": 3701658}}, {"type": "Feature", "geometry": {"type": "Point", "coordinates": [13.34745, 52.47869]}, "properties": {"id": "268915864", "name": "Kinderladen Onnimanni", "street": "Kärntener Straße 11", "zip-code": 10827, "lat": 52.47869, "lon": 13.34745, "planning-area-id": 7200308}}, {"type": "Feature", "geometry": {"type": "Point", "coordinates": [13.32803, 52.49297]}, "properties": {"id": "268915866", "name": "Aventura Nikolsburg", "street": "Nikolsburger Straße 6-7", "zip-code": 10717, "lat": 52.49297, "lon": 13.32803, "planning-area-id": 4501149}}, {"type": "Feature", "geometry": {"type": "Point", "coordinates": [13.42285, 52.47874]}, "properties": {"id": "268915867", "name": "EKT - Neuzeitlich-christliche Initiative e.V.", "lat": 52.47874, "lon": 13.42285, "planning-area-id": 8100102}}, {"type": "Feature", "geometry": {"type": "Point", "coordinates": [13.3527, 52.48771]}, "properties": {"id": "268915868", "name": "Kinderladen Nusskasper", "street": "Merseburger Straße 4", "zip-code": 10823, "lat": 52.48771, "lon": 13.3527, "planning-area-id": 7200409}}, {"type": "Feature", "geometry": {"type": "Point", "coordinates": [13.35421, 52.49209]}, "properties": {"id": "268915869", "name": "EKT Nina", "lat": 52.49209, "lon": 13.35421, "planning-area-id": 7100204}}, {"type": "Feature", "geometry": {"type": "Point", "coordinates": [13.38608, 52.5003]}, "properties": {"id": "268915871", "name": "Kinderladen Nasreddin", "street": "Großbeerenstraße 94", "zip-code": 10963, "lat": 52.5003, "lon": 13.38608, "planning-area-id": 2100101}}, {"type": "Feature", "geometry": {"type": "Point", "coordinates": [13.37643, 52.48893]}, "properties": {"id": "268915873", "name": "EKT Nervensägen", "street": "Katzbachstraße 11", "zip-code": 10965, "lat": 52.48893, "lon": 13.37643, "planning-area-id": 2200209}}, {"type": "Feature", "geometry": {"type": "Point", "coordinates": [13.42593, 52.5032]}, "properties": {"id": "268915875", "name": "EKT Muskauer Straße 30", "lat": 52.5032, "lon": 13.42593, "planning-area-id": 2300315}}, {"type": "Feature", "geometry": {"type": "Point", "coordinates": [13.32618, 52.48987]}, "properties": {"id": "268915877", "name": "Kinderladen Narrenfreiheit", "lat": 52.48987, "lon": 13.32618, "planning-area-id": 4501149}}, {"type": "Feature", "geometry": {"type": "Point", "coordinates": [13.29817, 52.50423]}, "properties": {"id": "268915880", "name": "EKT - Roter Boller e.V.", "street": "Rönnestraße 3", "zip-code": 14057, "lat": 52.50423, "lon": 13.29817, "planning-area-id": 4300416}}, {"type": "Feature", "geometry": {"type": "Point", "coordinates": [13.34374, 52.46153]}, "properties": {"id": "268915881", "name": "Kinderladen Rotkappe", "street": "Horst-Kohl-Straße 12", "zip-code": 12157, "lat": 52.46153, "lon": 13.34374, "planning-area-id": 6100210}}, {"type": "Feature", "geometry": {"type": "Point", "coordinates": [13.33763, 52.52467]}, "properties": {"id": "268915882", "name": "Kinderladen Rosa Kirschkern", "street": "Bochumer Straße 2", "zip-code": 10555, "lat": 52.52467, "lon": 13.33763, "planning-area-id": 1200522}}, {"type": "Feature", "geometry": {"type": "Point", "coordinates": [13.37675, 52.45445]}, "properties": {"id": "268915885", "name": "Wolkenkinder", "street": "Konradinstraße 15/17", "zip-code": 12105, "lat": 52.45445, "lon": 13.37675, "planning-area-id": 7400825}}, {"type": "Feature", "geometry": {"type": "Point", "coordinates": [13.3487, 52.53482]}, "properties": {"id": "268915886", "name": "Kinderladen Sagaland", "street": "Quitzowstraße 125", "zip-code": 10559, "lat": 52.53482, "lon": 13.3487, "planning-area-id": 1200623}}, {"type": "Feature", "geometry": {"type": "Point", "coordinates": [13.4336, 52.50046]}, "properties": {"id": "268915887", "name": "EKT – Schippe und Eimer e.V.", "lat": 52.50046, "lon": 13.4336, "planning-area-id": 2300315}}, {"type": "Feature", "geometry": {"type": "Point", "coordinates": [13.26278, 52.54794]}, "properties": {"id": "268915888", "name": "EKT - Saatwinkler Küken e.V.", "lat": 52.54794, "lon": 13.26278, "planning-area-id": 5300839}}, {"type": "Feature", "geometry": {"type": "Point", "coordinates": [13.37581, 52.57118]}, "properties": {"id": "268915889", "name": "EKT - Saftladen e.V.", "lat": 52.57118, "lon": 13.37581, "planning-area-id": 12100102}}, {"type": "Feature", "geometry": {"type": "Point", "coordinates": [13.35447, 52.48346]}, "properties": {"id": "268915890", "name": "Kinderladen Rübezahl", "street": "Feurigstraße 53", "zip-code": 10827, "lat": 52.48346, "lon": 13.35447, "planning-area-id": 7200410}}, {"type": "Feature", "geometry": {"type": "Point", "coordinates": [13.3785, 52.56907]}, "properties": {"id": "268915891", "name": "Kinderladen - Rummel-Bummel e.V.", "lat": 52.56907, "lon": 13.3785, "planning-area-id": 12100102}}, {"type": "Feature", "geometry": {"type": "Point", "coordinates": [13.44078, 52.49718]}, "properties": {"id": "268915893", "name": "Kinderladen Rübezahl", "street": "Falckensteinstraße 20", "zip-code": 10997, "lat": 52.49718, "lon": 13.44078, "planning-area-id": 2300419}}, {"type": "Feature", "geometry": {"type": "Point", "coordinates": [13.38588, 52.45782]}, "properties": {"id": "268915894", "name": "Schmunzelmonster", "street": "Friedrich-Wilhelm-Straße 87", "zip-code": 12099, "lat": 52.45782, "lon": 13.38588, "planning-area-id": 7400927}}, {"type": "Feature", "geometry": {"type": "Point", "coordinates": [13.36135, 52.48764]}, "properties": {"id": "268915895", "name": "Schülerladen Schmuddelkinder", "lat": 52.48764, "lon": 13.36135, "planning-area-id": 7200411}}, {"type": "Feature", "geometry": {"type": "Point", "coordinates": [13.33286, 52.60027]}, "properties": {"id": "268915896", "name": "Kinderladen Schlumpfoase", "street": "Lübarser Straße 13", "zip-code": 13435, "lat": 52.60027, "lon": 13.33286, "planning-area-id": 12601031}}, {"type": "Feature", "geometry": {"type": "Point", "coordinates": [13.30848, 52.47735]}, "properties": {"id": "268915900", "name": "EKT - Schlange 99 e.V.", "lat": 52.47735, "lon": 13.30848, "planning-area-id": 4400834}}, {"type": "Feature", "geometry": {"type": "Point", "coordinates": [13.21606, 52.4288]}, "properties": {"id": "268915901", "name": "EKT Schlachtensee", "street": "Wasgenstraße 75", "zip-code": 14129, "lat": 52.4288, "lon": 13.21606, "planning-area-id": 6400737}}, {"type": "Feature", "geometry": {"type": "Point", "coordinates": [13.33455, 52.46643]}, "properties": {"id": "268915904", "name": "Kita Holsteinische Straße", "street": "Holsteinische Straße 30", "zip-code": 12161, "lat": 52.46643, "lon": 13.33455, "planning-area-id": 7300618}}, {"type": "Feature", "geometry": {"type": "Point", "coordinates": [13.32914, 52.47661]}, "properties": {"id": "268915906", "name": "Kinderladen Mäusebande", "street": "Sieglindestraße 4", "zip-code": 12159, "lat": 52.47661, "lon": 13.32914, "planning-area-id": 7300517}}, {"type": "Feature", "geometry": {"type": "Point", "coordinates": [13.4229, 52.50125]}, "properties": {"id": "268915908", "name": "Kinderladen Schokokids", "street": "Naunynstraße 72", "zip-code": 10997, "lat": 52.50125, "lon": 13.4229, "planning-area-id": 2300314}}, {"type": "Feature", "geometry": {"type": "Point", "coordinates": [13.41981, 52.49331]}, "properties": {"id": "268915911", "name": "EKT - Pittiplatsch e.V.", "lat": 52.49331, "lon": 13.41981, "planning-area-id": 2200213}}, {"type": "Feature", "geometry": {"type": "Point", "coordinates": [13.4449, 52.49529]}, "properties": {"id": "268915912", "name": "EKT Plutonia", "lat": 52.49529, "lon": 13.4449, "planning-area-id": 2300419}}, {"type": "Feature", "geometry": {"type": "Point", "coordinates": [13.33327, 52.49048]}, "properties": {"id": "268915913", "name": "Kinderladen Prinz-Güntzel", "lat": 52.49048, "lon": 13.33327, "planning-area-id": 4501152}}, {"type": "Feature", "geometry": {"type": "Point", "coordinates": [13.45052, 52.4729]}, "properties": {"id": "268915914", "name": "Kinderladen Puzzle", "street": "Niemetzstraße 11", "zip-code": 12055, "lat": 52.4729, "lon": 13.45052, "planning-area-id": 8100417}}, {"type": "Feature", "geometry": {"type": "Point", "coordinates": [13.35137, 52.54755]}, "properties": {"id": "268915918", "name": "EKT - Pinocchio e.V.", "lat": 52.54755, "lon": 13.35137, "planning-area-id": 1400942}}, {"type": "Feature", "geometry": {"type": "Point", "coordinates": [13.3964, 52.52496]}, "properties": {"id": "268915919", "name": "Kinderladen Pippi Langstrumpf", "street": "Krausnickstraße 3A", "zip-code": 10115, "lat": 52.52496, "lon": 13.3964, "planning-area-id": 1100309}}, {"type": "Feature", "geometry": {"type": "Point", "coordinates": [13.42477, 52.46963]}, "properties": {"id": "268915920", "name": "Kita Pumuckel", "street": "Warthestraße 56", "zip-code": 12051, "lat": 52.46963, "lon": 13.42477, "planning-area-id": 8100104}}, {"type": "Feature", "geometry": {"type": "Point", "coordinates": [13.30764, 52.51829]}, "properties": {"id": "268915921", "name": "Kinderladen Pünktchen", "street": "Alt-Lietzow 7", "zip-code": 10587, "lat": 52.51829, "lon": 13.30764, "planning-area-id": 4300619}}, {"type": "Feature", "geometry": {"type": "Point", "coordinates": [13.29838, 52.48709]}, "properties": {"id": "268915922", "name": "EKT - Pünktchen und Anton e.V.", "lat": 52.48709, "lon": 13.29838, "planning-area-id": 4400727}}, {"type": "Feature", "geometry": {"type": "Point", "coordinates": [13.41707, 52.49515]}, "properties": {"id": "268915931", "name": "Räuberhöhle", "street": "Planufer 92", "zip-code": 10967, "lat": 52.49515, "lon": 13.41707, "planning-area-id": 2200213}}, {"type": "Feature", "geometry": {"type": "Point", "coordinates": [13.33387, 52.45011]}, "properties": {"id": "268915933", "name": "Kinderladen Pusteblume", "street": "Sedanstraße 7", "zip-code": 12167, "lat": 52.45011, "lon": 13.33387, "planning-area-id": 6100206}}, {"type": "Feature", "geometry": {"type": "Point", "coordinates": [13.31633, 52.50877]}, "properties": {"id": "268915934", "name": "EKT - Randale e.V.", "lat": 52.50877, "lon": 13.31633, "planning-area-id": 4300624}}, {"type": "Feature", "geometry": {"type": "Point", "coordinates": [13.40853, 52.53871]}, "properties": {"id": "268915935", "name": "EKT - Quasselstrippe e.V.", "street": "Oderberger Straße 50", "zip-code": 10435, "lat": 52.53871, "lon": 13.40853, "planning-area-id": 3701554}}, {"type": "Feature", "geometry": {"type": "Point", "coordinates": [13.31292, 52.45806]}, "properties": {"id": "268915937", "name": "Ringelbande e.V.", "street": "Schmidt-Ott-Straße 4", "zip-code": 12165, "lat": 52.45806, "lon": 13.31292, "planning-area-id": 6100101}}, {"type": "Feature", "geometry": {"type": "Point", "coordinates": [13.29352, 52.50327]}, "properties": {"id": "268915938", "name": "Kinderladen Rönne 18", "street": "Rönnestraße 18", "zip-code": 14057, "lat": 52.50327, "lon": 13.29352, "planning-area-id": 4300416}}, {"type": "Feature", "geometry": {"type": "Point", "coordinates": [13.44045, 52.47847]}, "properties": {"id": "268915939", "name": "Kita Rixdorfer Rüpel", "street": "Berthelsdorfer Straße 11", "zip-code": 12043, "lat": 52.47847, "lon": 13.44045, "planning-area-id": 8100415}}, {"type": "Feature", "geometry": {"type": "Point", "coordinates": [13.35117, 52.52165]}, "properties": {"id": "268915940", "name": "Kinderladen Regenbogen", "street": "Calvinstraße 13", "zip-code": 10557, "lat": 52.52165, "lon": 13.35117, "planning-area-id": 1200626}}, {"type": "Feature", "geometry": {"type": "Point", "coordinates": [13.3205, 52.46569]}, "properties": {"id": "268915944", "name": "EKT - Steglitzer Eierpamper e.V.", "lat": 52.46569, "lon": 13.3205, "planning-area-id": 6100103}}, {"type": "Feature", "geometry": {"type": "Point", "coordinates": [13.19569, 52.52517]}, "properties": {"id": "268915951", "name": "EKT - Sternenkinder e.V.", "lat": 52.52517, "lon": 13.19569, "planning-area-id": 5200630}}, {"type": "Feature", "geometry": {"type": "Point", "coordinates": [13.35158, 52.53511]}, "properties": {"id": "268915955", "name": "Kinderladen Stoppelhopser", "lat": 52.53511, "lon": 13.35158, "planning-area-id": 1200623}}, {"type": "Feature", "geometry": {"type": "Point", "coordinates": [13.42956, 52.49451]}, "properties": {"id": "268915956", "name": "EKT - Tentakel e.V.", "lat": 52.49451, "lon": 13.42956, "planning-area-id": 2300418}}, {"type": "Feature", "geometry": {"type": "Point", "coordinates": [13.3573, 52.55135]}, "properties": {"id": "268915959", "name": "Eikita Tausendfüßler", "street": "Amsterdamer Straße 12", "zip-code": 13347, "lat": 52.55135, "lon": 13.3573, "planning-area-id": 1401048}}, {"type": "Feature", "geometry": {"type": "Point", "coordinates": [13.36821, 52.45029]}, "properties": {"id": "268915960", "name": "EKT - Tigerente/Förderkr.f.Musik-u.Bewegungserz.v.Kindern e.V.", "lat": 52.45029, "lon": 13.36821, "planning-area-id": 7400826}}, {"type": "Feature", "geometry": {"type": "Point", "coordinates": [13.39063, 52.48916]}, "properties": {"id": "268915961", "name": "Kinderladen Tigerente", "street": "Bergmannstraße 12", "zip-code": 10961, "lat": 52.48916, "lon": 13.39063, "planning-area-id": 2200211}}, {"type": "Feature", "geometry": {"type": "Point", "coordinates": [13.43432, 52.53104]}, "properties": {"id": "268915963", "name": "EKT - Theaterspiel-Kita Capriola e.V.", "lat": 52.53104, "lon": 13.43432, "planning-area-id": 3701660}}, {"type": "Feature", "geometry": {"type": "Point", "coordinates": [13.39794, 52.5816]}, "properties": {"id": "268915966", "name": "EKT - Timpetu e.V.", "street": "Treskowstraße 5", "zip-code": 13156, "lat": 52.5816, "lon": 13.39794, "planning-area-id": 3200206}}, {"type": "Feature", "geometry": {"type": "Point", "coordinates": [13.32812, 52.49407]}, "properties": {"id": "268915968", "name": "Kinderladen Trolle", "street": "Nikolsburger Straße 8", "zip-code": 10717, "lat": 52.49407, "lon": 13.32812, "planning-area-id": 4501149}}, {"type": "Feature", "geometry": {"type": "Point", "coordinates": [13.19356, 52.52472]}, "properties": {"id": "268915969", "name": "EKT - Traumzauberbaum e.V.", "lat": 52.52472, "lon": 13.19356, "planning-area-id": 5200630}}, {"type": "Feature", "geometry": {"type": "Point", "coordinates": [13.33872, 52.47155]}, "properties": {"id": "268915972", "name": "Kinderladen Trotzköpfchen", "street": "Hedwigstraße 12", "zip-code": 12159, "lat": 52.47155, "lon": 13.33872, "planning-area-id": 7300618}}, {"type": "Feature", "geometry": {"type": "Point", "coordinates": [13.39884, 52.44691]}, "properties": {"id": "268915978", "name": "EKT - Schülerladen Pimpanella e.V.", "street": "Didostraße 1", "zip-code": 12109, "lat": 52.44691, "lon": 13.39884, "planning-area-id": 7501031}}, {"type": "Feature", "geometry": {"type": "Point", "coordinates": [13.43342, 52.50294]}, "properties": {"id": "268915980", "name": "Schülerladen Trau Dich", "street": "Eisenbahnstraße 13", "lat": 52.50294, "lon": 13.43342, "planning-area-id": 2300316}}, {"type": "Feature", "geometry": {"type": "Point", "coordinates": [13.32962, 52.47655]}, "properties": {"id": "268915984", "name": "Kinderladen mima", "street": "Sieglindestraße 8", "zip-code": 12159, "lat": 52.47655, "lon": 13.32962, "planning-area-id": 7300517}}, {"type": "Feature", "geometry": {"type": "Point", "coordinates": [13.35038, 52.53979]}, "properties": {"id": "268915986", "name": "Kinderladen Sonnenblume", "street": "Fehmarner Straße 14", "lat": 52.53979, "lon": 13.35038, "planning-area-id": 1401046}}, {"type": "Feature", "geometry": {"type": "Point", "coordinates": [13.38649, 52.45772]}, "properties": {"id": "268915987", "name": "Sonnengarten", "street": "Friedrich-Wilhelm-Straße 89", "zip-code": 12099, "lat": 52.45772, "lon": 13.38649, "planning-area-id": 7400927}}, {"type": "Feature", "geometry": {"type": "Point", "coordinates": [13.30284, 52.51786]}, "properties": {"id": "268915990", "name": "EKT Sonnenkinder e.V.", "street": "Gierkezeile 42", "zip-code": 10585, "lat": 52.51786, "lon": 13.30284, "planning-area-id": 4300621}}, {"type": "Feature", "geometry": {"type": "Point", "coordinates": [13.14405, 52.54511]}, "properties": {"id": "268915992", "name": "EKT - Spandauer Schwalbennest e.V.", "lat": 52.54511, "lon": 13.14405, "planning-area-id": 5200419}}, {"type": "Feature", "geometry": {"type": "Point", "coordinates": [13.36098, 52.41367]}, "properties": {"id": "268915994", "name": "EKT - Spatzennest e.V.", "lat": 52.41367, "lon": 13.36098, "planning-area-id": 7601236}}, {"type": "Feature", "geometry": {"type": "Point", "coordinates": [13.35953, 52.54212]}, "properties": {"id": "268915995", "name": "EKT Sparrbande", "street": "Sparrstraße 21", "zip-code": 13353, "lat": 52.54212, "lon": 13.35953, "planning-area-id": 1401047}}, {"type": "Feature", "geometry": {"type": "Point", "coordinates": [13.29817, 52.5183]}, "properties": {"id": "268916001", "name": "EKT - Spielschloß e.V.", "lat": 52.5183, "lon": 13.29817, "planning-area-id": 4300414}}, {"type": "Feature", "geometry": {"type": "Point", "coordinates": [13.41757, 52.49218]}, "properties": {"id": "268916002", "name": "EKT - Spreepiraten e.V.", "lat": 52.49218, "lon": 13.41757, "planning-area-id": 2200213}}, {"type": "Feature", "geometry": {"type": "Point", "coordinates": [13.39718, 52.49232]}, "properties": {"id": "268916004", "name": "Springteufel Kinder- und Schülerladen", "street": "Mittenwalder Straße 47", "zip-code": 10961, "lat": 52.49232, "lon": 13.39718, "planning-area-id": 2200210}}, {"type": "Feature", "geometry": {"type": "Point", "coordinates": [13.38643, 52.55172]}, "properties": {"id": "268916006", "name": "Stadtkinder", "street": "Grüntaler Straße 8", "zip-code": 13357, "lat": 52.55172, "lon": 13.38643, "planning-area-id": 1300733}}, {"type": "Feature", "geometry": {"type": "Point", "coordinates": [13.38713, 52.55223]}, "properties": {"id": "268916007", "name": "EKT - Stadtkinder e.V.", "lat": 52.55223, "lon": 13.38713, "planning-area-id": 1300733}}, {"type": "Feature", "geometry": {"type": "Point", "coordinates": [13.32411, 52.48196]}, "properties": {"id": "268916008", "name": "Wilde Hilde", "street": "Hildegardstraße 13", "zip-code": 10715, "lat": 52.48196, "lon": 13.32411, "planning-area-id": 4501151}}, {"type": "Feature", "geometry": {"type": "Point", "coordinates": [13.3937, 52.48648]}, "properties": {"id": "268916010", "name": "Wild Poppies", "street": "Fidicinstraße 23", "zip-code": 10965, "lat": 52.48648, "lon": 13.3937, "planning-area-id": 2200211}}, {"type": "Feature", "geometry": {"type": "Point", "coordinates": [13.39706, 52.48731]}, "properties": {"id": "268916014", "name": "Wildblume I", "street": "Heimstraße 16", "zip-code": 10965, "lat": 52.48731, "lon": 13.39706, "planning-area-id": 2200211}}, {"type": "Feature", "geometry": {"type": "Point", "coordinates": [13.31527, 52.5038]}, "properties": {"id": "268916015", "name": "EKT - Wielandstraße 13 e.V.", "zip-code": 10629, "lat": 52.5038, "lon": 13.31527, "planning-area-id": 4501041}}, {"type": "Feature", "geometry": {"type": "Point", "coordinates": [13.44442, 52.49543]}, "properties": {"id": "268916017", "name": "EKT Whistcastle of Eternia", "lat": 52.49543, "lon": 13.44442, "planning-area-id": 2300419}}, {"type": "Feature", "geometry": {"type": "Point", "coordinates": [13.43276, 52.46952]}, "properties": {"id": "268916023", "name": "Waldorfkindergarten Lindenbaum", "lat": 52.46952, "lon": 13.43276, "planning-area-id": 8100208}}, {"type": "Feature", "geometry": {"type": "Point", "coordinates": [13.35581, 52.48308]}, "properties": {"id": "268916027", "name": "Kinderladen Zappzarapp", "street": "Ebersstraße 12", "zip-code": 10827, "lat": 52.48308, "lon": 13.35581, "planning-area-id": 7200410}}, {"type": "Feature", "geometry": {"type": "Point", "coordinates": [13.43435, 52.4695]}, "properties": {"id": "268916029", "name": "Kita Die Schlümpfe", "street": "Nogatstraße 40", "zip-code": 12051, "lat": 52.4695, "lon": 13.43435, "planning-area-id": 8100208}}, {"type": "Feature", "geometry": {"type": "Point", "coordinates": [13.37441, 52.44722]}, "properties": {"id": "268916032", "name": "Kinderladen Wolkenhopper", "street": "Schützenstraße 14", "zip-code": 12105, "lat": 52.44722, "lon": 13.37441, "planning-area-id": 7501029}}, {"type": "Feature", "geometry": {"type": "Point", "coordinates": [13.3954, 52.50446]}, "properties": {"id": "268916034", "name": "Kita Wohnhof", "street": "Markgrafenstraße 8", "zip-code": 10969, "lat": 52.50446, "lon": 13.3954, "planning-area-id": 2100102}}, {"type": "Feature", "geometry": {"type": "Point", "coordinates": [13.28889, 52.49804]}, "properties": {"id": "268916037", "name": "Wir um vier", "street": "Ringbahnstraße 13", "zip-code": 10711, "lat": 52.49804, "lon": 13.28889, "planning-area-id": 4500937}}, {"type": "Feature", "geometry": {"type": "Point", "coordinates": [13.32634, 52.48602]}, "properties": {"id": "268916040", "name": "Wilde Hummeln", "street": "Mehlitzstraße 8", "zip-code": 10715, "lat": 52.48602, "lon": 13.32634, "planning-area-id": 4501150}}, {"type": "Feature", "geometry": {"type": "Point", "coordinates": [13.4365, 52.49872]}, "properties": {"id": "268916041", "name": "Kinder einer Erde", "street": "Lübbener Straße 26", "zip-code": 10997, "lat": 52.49872, "lon": 13.4365, "planning-area-id": 2300419}}, {"type": "Feature", "geometry": {"type": "Point", "coordinates": [13.43605, 52.46925]}, "properties": {"id": "268916042", "name": "Kita Arielle", "street": "Emser Straße 20", "zip-code": 12051, "lat": 52.46925, "lon": 13.43605, "planning-area-id": 8100208}}, {"type": "Feature", "geometry": {"type": "Point", "coordinates": [13.35929, 52.54241]}, "properties": {"id": "268916045", "name": "EKT Pustebär", "street": "Sparrstraße 19", "zip-code": 13353, "lat": 52.54241, "lon": 13.35929, "planning-area-id": 1401047}}, {"type": "Feature", "geometry": {"type": "Point", "coordinates": [13.32355, 52.46892]}, "properties": {"id": "268916046", "name": "Friedenauer Kinder", "street": "Hertelstraße 1", "zip-code": 12161, "lat": 52.46892, "lon": 13.32355, "planning-area-id": 7300516}}, {"type": "Feature", "geometry": {"type": "Point", "coordinates": [13.14569, 52.39792]}, "properties": {"id": "268916047", "name": "Kita Bruja", "street": "Dorotheenstraße 3", "zip-code": 14109, "lat": 52.39792, "lon": 13.14569, "planning-area-id": 6400735}}, {"type": "Feature", "geometry": {"type": "Point", "coordinates": [13.31731, 52.48783]}, "properties": {"id": "268916048", "name": "Kinderladen Maikäfer", "street": "Brandenburgische Straße 75", "zip-code": 10713, "lat": 52.48783, "lon": 13.31731, "planning-area-id": 4501146}}, {"type": "Feature", "geometry": {"type": "Point", "coordinates": [13.38076, 52.55044]}, "properties": {"id": "268916050", "name": "EKT Kinderladen Spatzenkinder", "street": "Bastianstraße 18", "zip-code": 13357, "lat": 52.55044, "lon": 13.38076, "planning-area-id": 1300836}}, {"type": "Feature", "geometry": {"type": "Point", "coordinates": [13.39603, 52.48804]}, "properties": {"id": "268916052", "name": "Veda Lila Kindergarten e.V.", "street": "Arndtstraße 42", "zip-code": 10965, "lat": 52.48804, "lon": 13.39603, "planning-area-id": 2200211}}, {"type": "Feature", "geometry": {"type": "Point", "coordinates": [13.3471, 52.54927]}, "properties": {"id": "268916056", "name": "Kinderladen Tüte Mücken", "street": "Togostraße 78", "zip-code": 13351, "lat": 52.54927, "lon": 13.3471, "planning-area-id": 1400938}}, {"type": "Feature", "geometry": {"type": "Point", "coordinates": [13.39372, 52.54767]}, "properties": {"id": "268916059", "name": "Waldorfkindergarten Wedding", "street": "Swinemünder Straße 65", "zip-code": 13355, "lat": 52.54767, "lon": 13.39372, "planning-area-id": 1300834}}, {"type": "Feature", "geometry": {"type": "Point", "coordinates": [13.38198, 52.45858]}, "properties": {"id": "268916063", "name": "Kita Gulliver", "street": "Friedrich-Wilhelm-Straße 21", "zip-code": 12103, "lat": 52.45858, "lon": 13.38198, "planning-area-id": 7400825}}, {"type": "Feature", "geometry": {"type": "Point", "coordinates": [13.36254, 52.48663]}, "properties": {"id": "268916067", "name": "Kindergarten am Haselstrauch", "lat": 52.48663, "lon": 13.36254, "planning-area-id": 7200414}}, {"type": "Feature", "geometry": {"type": "Point", "coordinates": [13.42239, 52.54396]}, "properties": {"id": "268916069", "name": "Villa Kunterbunt", "street": "Dunckerstraße 21", "zip-code": 10437, "lat": 52.54396, "lon": 13.42239, "planning-area-id": 3601348}}, {"type": "Feature", "geometry": {"type": "Point", "coordinates": [13.39775, 52.51012]}, "properties": {"id": "268916074", "name": "Umka", "street": "Leipziger Straße 47", "zip-code": 10117, "lat": 52.51012, "lon": 13.39775, "planning-area-id": 1100207}}, {"type": "Feature", "geometry": {"type": "Point", "coordinates": [13.40708, 52.54662]}, "properties": {"id": "268916075", "name": "Pustekuchen", "street": "Sonnenburger Straße 57", "zip-code": 10437, "lat": 52.54662, "lon": 13.40708, "planning-area-id": 3601142}}, {"type": "Feature", "geometry": {"type": "Point", "coordinates": [13.29881, 52.4957]}, "properties": {"id": "268916076", "name": "Kita Beerenkinder", "street": "Johann-Georg-Straße 26", "zip-code": 10709, "lat": 52.4957, "lon": 13.29881, "planning-area-id": 4500938}}, {"type": "Feature", "geometry": {"type": "Point", "coordinates": [13.28721, 52.5393]}, "properties": {"id": "268916077", "name": "Sport-Club Charlottenburg Hort Halemweg", "street": "Halemweg 34", "zip-code": 13627, "lat": 52.5393, "lon": 13.28721, "planning-area-id": 4100101}}, {"type": "Feature", "geometry": {"type": "Point", "coordinates": [13.29759, 52.50409]}, "properties": {"id": "268916078", "name": "Kinder- und Schülerladen Halensee e.V.", "street": "Rönnestraße 5", "zip-code": 14057, "lat": 52.50409, "lon": 13.29759, "planning-area-id": 4300416}}, {"type": "Feature", "geometry": {"type": "Point", "coordinates": [13.38533, 52.50324]}, "properties": {"id": "268916079", "name": "Kath.Kita bei St.Clemens/Kita d.Kath.Kirchengem.St.Bonifatius", "lat": 52.50324, "lon": 13.38533, "planning-area-id": 2100101}}, {"type": "Feature", "geometry": {"type": "Point", "coordinates": [13.4139, 52.50043]}, "properties": {"id": "268916086", "name": "Hort der Freien Waldorfschule Kreuzberg e.V.", "street": "Ritterstraße 78", "zip-code": 10969, "lat": 52.50043, "lon": 13.4139, "planning-area-id": 2100104}}, {"type": "Feature", "geometry": {"type": "Point", "coordinates": [13.40622, 52.52288]}, "properties": {"id": "268916088", "name": "Hort der Evangelische Schule Berlin-Mitte", "lat": 52.52288, "lon": 13.40622, "planning-area-id": 1100310}}, {"type": "Feature", "geometry": {"type": "Point", "coordinates": [13.24886, 52.51758]}, "properties": {"id": "268916089", "name": "Kita Rominter Allee", "street": "Rominter Allee 2", "zip-code": 14052, "lat": 52.51758, "lon": 13.24886, "planning-area-id": 4200203}}, {"type": "Feature", "geometry": {"type": "Point", "coordinates": [13.4303, 52.48217]}, "properties": {"id": "268916091", "name": "Kinderladen Lach und Krach", "lat": 52.48217, "lon": 13.4303, "planning-area-id": 8100206}}, {"type": "Feature", "geometry": {"type": "Point", "coordinates": [13.3538, 52.48156]}, "properties": {"id": "268916094", "name": "Kinderladen Stadtmäuse", "street": "Ebersstraße 18", "zip-code": 10827, "lat": 52.48156, "lon": 13.3538, "planning-area-id": 7200410}}, {"type": "Feature", "geometry": {"type": "Point", "coordinates": [13.40624, 52.54034]}, "properties": {"id": "268916096", "name": "Tütata - Kinderladen Prenzlauer Berg e.V.", "lat": 52.54034, "lon": 13.40624, "planning-area-id": 3701554}}, {"type": "Feature", "geometry": {"type": "Point", "coordinates": [13.33108, 52.53055]}, "properties": {"id": "268916101", "name": "Kinder- und Schülerladen Olle Burg", "street": "Waldstraße 42", "zip-code": 10551, "lat": 52.53055, "lon": 13.33108, "planning-area-id": 1200519}}, {"type": "Feature", "geometry": {"type": "Point", "coordinates": [13.33693, 52.46984]}, "properties": {"id": "268916102", "name": "Kita Volltreffer", "street": "Fregestraße 13-14", "zip-code": 12159, "lat": 52.46984, "lon": 13.33693, "planning-area-id": 7300618}}, {"type": "Feature", "geometry": {"type": "Point", "coordinates": [13.22402, 52.42826]}, "properties": {"id": "268916108", "name": "EKT Zwölf Knirpse", "street": "Lissabonallee 6", "zip-code": 14129, "lat": 52.42826, "lon": 13.22402, "planning-area-id": 6400736}}, {"type": "Feature", "geometry": {"type": "Point", "coordinates": [13.31384, 52.46105]}, "properties": {"id": "268916109", "name": "Kinderladen Zwergstatt", "street": "Gritznerstraße 67", "zip-code": 12163, "lat": 52.46105, "lon": 13.31384, "planning-area-id": 6100101}}, {"type": "Feature", "geometry": {"type": "Point", "coordinates": [13.5149, 52.48291]}, "properties": {"id": "268916111", "name": "EKT - Die Kappe", "street": "Müritzstraße 20", "zip-code": 10318, "lat": 52.48291, "lon": 13.5149, "planning-area-id": 11501341}}, {"type": "Feature", "geometry": {"type": "Point", "coordinates": [13.44414, 52.4719]}, "properties": {"id": "268916114", "name": "Kleine Fische Kinderladen", "street": "Schöneweider Straße 20", "zip-code": 12055, "lat": 52.4719, "lon": 13.44414, "planning-area-id": 8100416}}, {"type": "Feature", "geometry": {"type": "Point", "coordinates": [13.38513, 52.49125]}, "properties": {"id": "268916115", "name": "EKT - Zinnober e.V.", "street": "Hagelberger Straße 52", "zip-code": 10965, "lat": 52.49125, "lon": 13.38513, "planning-area-id": 2200209}}, {"type": "Feature", "geometry": {"type": "Point", "coordinates": [13.41483, 52.49235]}, "properties": {"id": "268916116", "name": "EKT - Zehnfach und Simpel e.V.", "lat": 52.49235, "lon": 13.41483, "planning-area-id": 2200213}}, {"type": "Feature", "geometry": {"type": "Point", "coordinates": [13.43319, 52.48563]}, "properties": {"id": "268916117", "name": "EKT - Zottelbär e.V.", "lat": 52.48563, "lon": 13.43319, "planning-area-id": 8100312}}, {"type": "Feature", "geometry": {"type": "Point", "coordinates": [13.3969, 52.48714]}, "properties": {"id": "268916118", "name": "EKT - Zippel und Zappel e.V.", "street": "Heimstraße 15", "zip-code": 10965, "lat": 52.48714, "lon": 13.3969, "planning-area-id": 2200211}}, {"type": "Feature", "geometry": {"type": "Point", "coordinates": [13.38353, 52.45479]}, "properties": {"id": "268916121", "name": "Zwergenland e.V.", "street": "Viktoriastraße 1", "zip-code": 12105, "lat": 52.45479, "lon": 13.38353, "planning-area-id": 7400825}}, {"type": "Feature", "geometry": {"type": "Point", "coordinates": [13.38111, 52.45533]}, "properties": {"id": "268916122", "name": "Zwergenland", "street": "Werderstraße 17", "zip-code": 12105, "lat": 52.45533, "lon": 13.38111, "planning-area-id": 7400825}}, {"type": "Feature", "geometry": {"type": "Point", "coordinates": [13.34007, 52.4704]}, "properties": {"id": "268916130", "name": "Traumfänger", "street": "Sponholzstraße 26", "zip-code": 12159, "lat": 52.4704, "lon": 13.34007, "planning-area-id": 7300618}}, {"type": "Feature", "geometry": {"type": "Point", "coordinates": [13.40934, 52.48912]}, "properties": {"id": "268916132", "name": "EKT -Yildiz Kirschkern e.V.", "lat": 52.48912, "lon": 13.40934, "planning-area-id": 2200212}}, {"type": "Feature", "geometry": {"type": "Point", "coordinates": [13.32984, 52.477]}, "properties": {"id": "268916133", "name": "Waldorfkindergarten Friedenau", "street": "Sieglindestraße 1", "zip-code": 12159, "lat": 52.477, "lon": 13.32984, "planning-area-id": 7300517}}, {"type": "Feature", "geometry": {"type": "Point", "coordinates": [13.33554, 52.47377]}, "properties": {"id": "268916134", "name": "Waldorfkindergarten Elfenreigen", "street": "Lauterstraße 26", "zip-code": 12159, "lat": 52.47377, "lon": 13.33554, "planning-area-id": 7300517}}, {"type": "Feature", "geometry": {"type": "Point", "coordinates": [13.42498, 52.52761]}, "properties": {"id": "268916140", "name": "Kita der Ev. Kirchengem. Bartholomäus", "lat": 52.52761, "lon": 13.42498, "planning-area-id": 2400520}}, {"type": "Feature", "geometry": {"type": "Point", "coordinates": [13.37938, 52.44457]}, "properties": {"id": "268916142", "name": "Kita der Ev. Kirchengem. Berlin-Mariendorf", "street": "Rathausstraße 28", "zip-code": 12105, "lat": 52.44457, "lon": 13.37938, "planning-area-id": 7501029}}, {"type": "Feature", "geometry": {"type": "Point", "coordinates": [13.35093, 52.48924]}, "properties": {"id": "268916143", "name": "Evangelische Kita Apostel-Paulus", "street": "Klixstraße 2", "zip-code": 10823, "lat": 52.48924, "lon": 13.35093, "planning-area-id": 7200409}}, {"type": "Feature", "geometry": {"type": "Point", "coordinates": [13.28635, 52.45797]}, "properties": {"id": "268916147", "name": "Kita der Ev. Kirchengem. Dahlem", "lat": 52.45797, "lon": 13.28635, "planning-area-id": 6400844}}, {"type": "Feature", "geometry": {"type": "Point", "coordinates": [13.3, 52.53963]}, "properties": {"id": "268916154", "name": "Kita der Ev. Kirchengem. Charlottenburg-Nord", "lat": 52.53963, "lon": 13.3, "planning-area-id": 4100102}}, {"type": "Feature", "geometry": {"type": "Point", "coordinates": [13.40873, 52.57021]}, "properties": {"id": "268916155", "name": "Kita der Ev. Kirchengem. Alt-Pankow", "street": "Breite Straße 38", "zip-code": 13187, "lat": 52.57021, "lon": 13.40873, "planning-area-id": 3400723}}, {"type": "Feature", "geometry": {"type": "Point", "coordinates": [13.34802, 52.4828]}, "properties": {"id": "268916158", "name": "Evangelische Kita Alt-Schöneberg", "street": "Dominicusstraße 21a", "zip-code": 10823, "lat": 52.4828, "lon": 13.34802, "planning-area-id": 7200409}}, {"type": "Feature", "geometry": {"type": "Point", "coordinates": [13.33606, 52.58023]}, "properties": {"id": "268916163", "name": "Kita der Ev. Kirchengem. Alt-Wittenau", "lat": 52.58023, "lon": 13.33606, "planning-area-id": 12500930}}, {"type": "Feature", "geometry": {"type": "Point", "coordinates": [13.32579, 52.59146]}, "properties": {"id": "268916170", "name": "Kita der Ev. Kirchengem. Alt-Wittenau", "lat": 52.59146, "lon": 13.32579, "planning-area-id": 12500927}}, {"type": "Feature", "geometry": {"type": "Point", "coordinates": [13.5288, 52.58272]}, "properties": {"id": "268916177", "name": "Evangelische Kita Wartenberg", "lat": 52.58272, "lon": 13.5288, "planning-area-id": 11100101}}, {"type": "Feature", "geometry": {"type": "Point", "coordinates": [13.33598, 52.52598]}, "properties": {"id": "268916180", "name": "Evangelische Otto-Kita", "street": "Ottostraße 16", "zip-code": 10555, "lat": 52.52598, "lon": 13.33598, "planning-area-id": 1200521}}, {"type": "Feature", "geometry": {"type": "Point", "coordinates": [13.33585, 52.60866]}, "properties": {"id": "268916183", "name": "Kita der Ev. Felsen-Kirchengem.", "street": "Titiseestraße 7", "zip-code": 13469, "lat": 52.60866, "lon": 13.33585, "planning-area-id": 12601032}}, {"type": "Feature", "geometry": {"type": "Point", "coordinates": [13.21396, 52.60772]}, "properties": {"id": "268916185", "name": "Dorfkindergarten", "street": "Alt-Heiligensee 47", "zip-code": 13503, "lat": 52.60772, "lon": 13.21396, "planning-area-id": 12400617}}, {"type": "Feature", "geometry": {"type": "Point", "coordinates": [13.57232, 52.45418]}, "properties": {"id": "268916192", "name": "Kita / St. Josefsstift", "lat": 52.45418, "lon": 13.57232, "planning-area-id": 9501939}}, {"type": "Feature", "geometry": {"type": "Point", "coordinates": [13.34609, 52.53086]}, "properties": {"id": "268916198", "name": "Kita Birkelinchen", "street": "Birkenstraße 60", "zip-code": 10559, "lat": 52.53086, "lon": 13.34609, "planning-area-id": 1200625}}, {"type": "Feature", "geometry": {"type": "Point", "coordinates": [13.41385, 52.55274]}, "properties": {"id": "268916201", "name": "Evang. Kindertagesstätte Arche", "street": "Schönhauser Allee 104", "zip-code": 10439, "lat": 52.55274, "lon": 13.41385, "planning-area-id": 3601141}}, {"type": "Feature", "geometry": {"type": "Point", "coordinates": [13.4286, 52.47]}, "properties": {"id": "268916203", "name": "Kita Berliner Spatzen", "lat": 52.47, "lon": 13.4286, "planning-area-id": 8100104}}, {"type": "Feature", "geometry": {"type": "Point", "coordinates": [13.32766, 52.48613]}, "properties": {"id": "268916204", "name": "Asilo Italiano", "street": "Badensche Straße 29", "zip-code": 10715, "lat": 52.48613, "lon": 13.32766, "planning-area-id": 4501150}}, {"type": "Feature", "geometry": {"type": "Point", "coordinates": [13.31553, 52.43891]}, "properties": {"id": "268916218", "name": "Kita der Paulus-Gemeinde", "street": "Hindenburgdamm 101", "zip-code": 12203, "lat": 52.43891, "lon": 13.31553, "planning-area-id": 6300633}}, {"type": "Feature", "geometry": {"type": "Point", "coordinates": [13.33665, 52.47444]}, "properties": {"id": "268916219", "name": "Kita Philippus", "street": "Stierstraße 18", "zip-code": 12159, "lat": 52.47444, "lon": 13.33665, "planning-area-id": 7300517}}, {"type": "Feature", "geometry": {"type": "Point", "coordinates": [13.33006, 52.53126]}, "properties": {"id": "268916221", "name": "Reformations-Kita", "street": "Wiclefstraße 31", "zip-code": 10551, "lat": 52.53126, "lon": 13.33006, "planning-area-id": 1200519}}, {"type": "Feature", "geometry": {"type": "Point", "coordinates": [13.34268, 52.61567]}, "properties": {"id": "268916223", "name": "Kita der Ev. Kirchengem. Lübars", "lat": 52.61567, "lon": 13.34268, "planning-area-id": 12500929}}, {"type": "Feature", "geometry": {"type": "Point", "coordinates": [13.30305, 52.51671]}, "properties": {"id": "268916224", "name": "Luisenkindergarten", "street": "Gierkeplatz 2", "zip-code": 10585, "lat": 52.51671, "lon": 13.30305, "planning-area-id": 4300621}}, {"type": "Feature", "geometry": {"type": "Point", "coordinates": [13.34114, 52.44907]}, "properties": {"id": "268916231", "name": "Kita der Ev. Kirchengem. Markus", "lat": 52.44907, "lon": 13.34114, "planning-area-id": 6100205}}, {"type": "Feature", "geometry": {"type": "Point", "coordinates": [13.41364, 52.49476]}, "properties": {"id": "268916235", "name": "Evangelische Kita Melanchthon", "street": "Planufer 84", "zip-code": 10967, "lat": 52.49476, "lon": 13.41364, "planning-area-id": 2200213}}, {"type": "Feature", "geometry": {"type": "Point", "coordinates": [13.34505, 52.46664]}, "properties": {"id": "268916236", "name": "Evangelische Kindertagesstätte Nathanael", "street": "Grazer Platz 4", "zip-code": 12157, "lat": 52.46664, "lon": 13.34505, "planning-area-id": 7300619}}, {"type": "Feature", "geometry": {"type": "Point", "coordinates": [13.41588, 52.41826]}, "properties": {"id": "268916238", "name": "Evangelische Halbtagskita Neu-Buckow", "street": "Marienfelder Chaussee 66-72", "zip-code": 12349, "lat": 52.41826, "lon": 13.41588, "planning-area-id": 8200831}}, {"type": "Feature", "geometry": {"type": "Point", "coordinates": [13.30383, 52.49612]}, "properties": {"id": "268916240", "name": "Hochmeister-Kindertagesstätte", "street": "Paulsborner Straße 86", "zip-code": 10709, "lat": 52.49612, "lon": 13.30383, "planning-area-id": 4500939}}, {"type": "Feature", "geometry": {"type": "Point", "coordinates": [13.42188, 52.53274]}, "properties": {"id": "268916246", "name": "Kita Immanuel", "street": "Immanuelkirchstraße 1a", "zip-code": 10405, "lat": 52.53274, "lon": 13.42188, "planning-area-id": 3701659}}, {"type": "Feature", "geometry": {"type": "Point", "coordinates": [13.18208, 52.53922]}, "properties": {"id": "268916247", "name": "Kita der Ev. Kirchengem. Klosterfelde", "street": "Seegefelder Straße 116", "zip-code": 13583, "lat": 52.53922, "lon": 13.18208, "planning-area-id": 5100211}}, {"type": "Feature", "geometry": {"type": "Point", "coordinates": [13.34963, 52.54875]}, "properties": {"id": "268916249", "name": "Kinderhaus Kapernaum", "street": "Seestraße 35", "zip-code": 13353, "lat": 52.54875, "lon": 13.34963, "planning-area-id": 1400942}}, {"type": "Feature", "geometry": {"type": "Point", "coordinates": [13.33375, 52.49957]}, "properties": {"id": "268916250", "name": "Kita der Ev. Kirchengem. Kaiser-Wilhelm-Gedächtnis", "lat": 52.49957, "lon": 13.33375, "planning-area-id": 4501045}}, {"type": "Feature", "geometry": {"type": "Point", "coordinates": [13.34378, 52.55929]}, "properties": {"id": "268916252", "name": "Evangelische Kita Kornelius", "street": "Dubliner Straße 29", "zip-code": 13349, "lat": 52.55929, "lon": 13.34378, "planning-area-id": 1400941}}, {"type": "Feature", "geometry": {"type": "Point", "coordinates": [13.23153, 52.57098]}, "properties": {"id": "268916254", "name": "Kita der Ev. Kirchengem. Konradshöhe-Tegelort", "lat": 52.57098, "lon": 13.23153, "planning-area-id": 12400616}}, {"type": "Feature", "geometry": {"type": "Point", "coordinates": [13.42055, 52.5407]}, "properties": {"id": "268916255", "name": "Evangelische Kita Elias", "street": "Göhrener Straße 11", "zip-code": 10437, "lat": 52.5407, "lon": 13.42055, "planning-area-id": 3601348}}, {"type": "Feature", "geometry": {"type": "Point", "coordinates": [13.42695, 52.49493]}, "properties": {"id": "268916256", "name": "Evangelische Kita Emmaus-Ölberg", "street": "Lausitzer Straße 29-30", "zip-code": 10999, "lat": 52.49493, "lon": 13.42695, "planning-area-id": 2300417}}, {"type": "Feature", "geometry": {"type": "Point", "coordinates": [13.34552, 52.43545]}, "properties": {"id": "268916258", "name": "Kita der Ev. Kirchengem. Dreifaltigkeit", "lat": 52.43545, "lon": 13.34552, "planning-area-id": 6200313}}, {"type": "Feature", "geometry": {"type": "Point", "coordinates": [13.3759, 52.56983]}, "properties": {"id": "268916260", "name": "Evangeliums-Kita", "street": "Hausotterplatz 3", "zip-code": 13409, "lat": 52.56983, "lon": 13.3759, "planning-area-id": 12100102}}, {"type": "Feature", "geometry": {"type": "Point", "coordinates": [13.2841, 52.51325]}, "properties": {"id": "268916261", "name": "Kita der Evangelischen Kirchengemeinde Epiphanien", "street": "Knobelsdorffstraße 74", "zip-code": 14059, "lat": 52.51325, "lon": 13.2841, "planning-area-id": 4200311}}, {"type": "Feature", "geometry": {"type": "Point", "coordinates": [13.33036, 52.52208]}, "properties": {"id": "268916262", "name": "Evangelische Kita Erlöser", "street": "Wikingerufer 9", "zip-code": 10555, "lat": 52.52208, "lon": 13.33036, "planning-area-id": 1200522}}, {"type": "Feature", "geometry": {"type": "Point", "coordinates": [13.45615, 52.51782]}, "properties": {"id": "268916263", "name": "Evangelische Kita Galiläa", "street": "Rigaer Straße 9", "zip-code": 10247, "lat": 52.51782, "lon": 13.45615, "planning-area-id": 2500727}}, {"type": "Feature", "geometry": {"type": "Point", "coordinates": [13.29799, 52.49684]}, "properties": {"id": "268916279", "name": "Kita der Kath. Kirchengem. St. Albertus-Magnus", "street": "Johann-Georg-Straße 8", "zip-code": 10709, "lat": 52.49684, "lon": 13.29799, "planning-area-id": 4500938}}, {"type": "Feature", "geometry": {"type": "Point", "coordinates": [13.41006, 52.53046]}, "properties": {"id": "268916280", "name": "Kita Herz Jesu", "street": "Schönhauser Allee 182", "zip-code": 10119, "lat": 52.53046, "lon": 13.41006, "planning-area-id": 3701554}}, {"type": "Feature", "geometry": {"type": "Point", "coordinates": [13.38445, 52.44496]}, "properties": {"id": "268916283", "name": "Kita der Kath. Kirchengem. Maria Frieden", "street": "Kaiserstraße 29", "zip-code": 12105, "lat": 52.44496, "lon": 13.38445, "planning-area-id": 7501030}}, {"type": "Feature", "geometry": {"type": "Point", "coordinates": [13.44871, 52.5279]}, "properties": {"id": "268916289", "name": "Kita der Kath. Kirchengem. Corpus Christi", "lat": 52.5279, "lon": 13.44871, "planning-area-id": 3601452}}, {"type": "Feature", "geometry": {"type": "Point", "coordinates": [13.32441, 52.45869]}, "properties": {"id": "268916290", "name": "Rosenkranz-Kita", "street": "Kieler Straße 10", "zip-code": 12163, "lat": 52.45869, "lon": 13.32441, "planning-area-id": 6100102}}, {"type": "Feature", "geometry": {"type": "Point", "coordinates": [13.3019, 52.59192]}, "properties": {"id": "268916296", "name": "Schatzinsel", "street": "Gorkistraße 127", "zip-code": 13509, "lat": 52.59192, "lon": 13.3019, "planning-area-id": 12500824}}, {"type": "Feature", "geometry": {"type": "Point", "coordinates": [13.40507, 52.53543]}, "properties": {"id": "268916297", "name": "Evangelische Kita Zion", "street": "Griebenowstraße 16", "zip-code": 10435, "lat": 52.53543, "lon": 13.40507, "planning-area-id": 1100416}}, {"type": "Feature", "geometry": {"type": "Point", "coordinates": [13.49159, 52.51515]}, "properties": {"id": "268916304", "name": "Evangelische Kindertagesstätte", "lat": 52.51515, "lon": 13.49159, "planning-area-id": 11300724}}, {"type": "Feature", "geometry": {"type": "Point", "coordinates": [13.39619, 52.56466]}, "properties": {"id": "268916305", "name": "Evangelische Kita Martin Luther", "street": "Pradelstraße 11", "zip-code": 13187, "lat": 52.56466, "lon": 13.39619, "planning-area-id": 3400721}}, {"type": "Feature", "geometry": {"type": "Point", "coordinates": [13.36771, 52.58781]}, "properties": {"id": "268916311", "name": "Evangelische Kita Wilhelmsruh", "street": "Goethestraße 1", "zip-code": 13158, "lat": 52.58781, "lon": 13.36771, "planning-area-id": 3400619}}, {"type": "Feature", "geometry": {"type": "Point", "coordinates": [13.44966, 52.55243]}, "properties": {"id": "268916313", "name": "Kita der Evangelischen Kirchengemeinde Weißensee", "lat": 52.55243, "lon": 13.44966, "planning-area-id": 3500935}}, {"type": "Feature", "geometry": {"type": "Point", "coordinates": [13.23694, 52.54735]}, "properties": {"id": "268916318", "name": "Kita der Ev. Kirchengem. Weihnacht-Haselhorst", "street": "Haselhorster Damm 58", "zip-code": 13599, "lat": 52.54735, "lon": 13.23694, "planning-area-id": 5300737}}, {"type": "Feature", "geometry": {"type": "Point", "coordinates": [13.50357, 52.55371]}, "properties": {"id": "268916324", "name": "Evangelische Kita Arche Noah", "street": "Malchower Weg 44", "zip-code": 13053, "lat": 52.55371, "lon": 13.50357, "planning-area-id": 11200410}}, {"type": "Feature", "geometry": {"type": "Point", "coordinates": [13.27532, 52.43106]}, "properties": {"id": "268916325", "name": "Stephanus-Kita", "street": "Mühlenstraße 47", "zip-code": 14167, "lat": 52.43106, "lon": 13.27532, "planning-area-id": 6300528}}, {"type": "Feature", "geometry": {"type": "Point", "coordinates": [13.40712, 52.50032]}, "properties": {"id": "268916329", "name": "Kita der Ev. Kirchengem. St. Simeon", "lat": 52.50032, "lon": 13.40712, "planning-area-id": 2100105}}, {"type": "Feature", "geometry": {"type": "Point", "coordinates": [13.20509, 52.53089]}, "properties": {"id": "268916330", "name": "Kita und Hort Petrus", "street": "Grunewaldstraße 7", "zip-code": 13597, "lat": 52.53089, "lon": 13.20509, "planning-area-id": 5100317}}, {"type": "Feature", "geometry": {"type": "Point", "coordinates": [13.34928, 52.52527]}, "properties": {"id": "268916332", "name": "Kita der Ev. Kirchengem. St. Johannis", "lat": 52.52527, "lon": 13.34928, "planning-area-id": 1200626}}, {"type": "Feature", "geometry": {"type": "Point", "coordinates": [13.25995, 52.4132]}, "properties": {"id": "268916337", "name": "Kita der Ev. Kirchengem. Schönow-Buschgraben", "lat": 52.4132, "lon": 13.25995, "planning-area-id": 6300525}}, {"type": "Feature", "geometry": {"type": "Point", "coordinates": [13.64903, 52.37523]}, "properties": {"id": "268916338", "name": "Kita der Ev. Kirchengem. Schmöckwitz", "street": "Alt-Schmöckwitz 1", "zip-code": 12527, "lat": 52.37523, "lon": 13.64903, "planning-area-id": 9301228}}, {"type": "Feature", "geometry": {"type": "Point", "coordinates": [13.46597, 52.51861]}, "properties": {"id": "268916340", "name": "Evangelische Kita Samariter", "street": "Samariterstraße 27", "zip-code": 10247, "lat": 52.51861, "lon": 13.46597, "planning-area-id": 2500728}}, {"type": "Feature", "geometry": {"type": "Point", "coordinates": [13.41949, 52.47442]}, "properties": {"id": "268916345", "name": "Kita des Ev. Kirchenkreises Neukölln", "lat": 52.47442, "lon": 13.41949, "planning-area-id": 8100103}}, {"type": "Feature", "geometry": {"type": "Point", "coordinates": [13.45053, 52.42269]}, "properties": {"id": "268916346", "name": "Kita des Ev. Kirchenkreises Neukölln", "lat": 52.42269, "lon": 13.45053, "planning-area-id": 8200833}},