{"type": "FeatureCollection", "features": [{"type": "Feature", "geometry": {"type": "Point", "coordinates": [13.39609, 52.53885]}, "properties": {"id": "30012754", "name": "Eiscafe Eisberg", "street": "Brunnenstraße 55", "zip-code": 13355, "lat": 52.53885, "lon": 13.39609, "planning-area-id": 1300834}}, {"type": "Feature", "geometry": {"type": "Point", "coordinates": [13.35634, 52.54767]}, "properties": {"id": "35528080", "name": "Coffee Star", "street": "Müllerstraße 146", "zip-code": 13353, "lat": 52.54767, "lon": 13.35634, "planning-area-id": 1400942}}, {"type": "Feature", "geometry": {"type": "Point", "coordinates": [13.38873, 52.5194]}, "properties": {"id": "66917199", "name": "Starbucks", "lat": 52.5194, "lon": 13.38873, "planning-area-id": 1100206}}, {"type": "Feature", "geometry": {"type": "Point", "coordinates": [13.37977, 52.51672]}, "properties": {"id": "66917229", "name": "Starbucks", "street": "Pariser Platz 4A", "zip-code": 10117, "lat": 52.51672, "lon": 13.37977, "planning-area-id": 1100206}}, {"type": "Feature", "geometry": {"type": "Point", "coordinates": [13.37373, 52.50793]}, "properties": {"id": "69226202", "name": "Brammibals Donuts", "street": "Alte Potsdamer Straße 7", "zip-code": 10785, "lat": 52.50793, "lon": 13.37373, "planning-area-id": 1100102}}, {"type": "Feature", "geometry": {"type": "Point", "coordinates": [13.37642, 52.51058]}, "properties": {"id": "75645699", "name": "Espresso House", "street": "Potsdamer Platz 5", "zip-code": 10785, "lat": 52.51058, "lon": 13.37642, "planning-area-id": 1100102}}, {"type": "Feature", "geometry": {"type": "Point", "coordinates": [13.27085, 52.5089]}, "properties": {"id": "81362508", "name": "Café & Reisebüro - Eishandwerk", "street": "Heerstraße 1", "zip-code": 14052, "lat": 52.5089, "lon": 13.27085, "planning-area-id": 4200310}}, {"type": "Feature", "geometry": {"type": "Point", "coordinates": [13.377, 52.50826]}, "properties": {"id": "84644791", "name": "Espresso House", "street": "Potsdamer Platz 10", "zip-code": 10785, "lat": 52.50826, "lon": 13.377, "planning-area-id": 1100102}}, {"type": "Feature", "geometry": {"type": "Point", "coordinates": [13.38314, 52.53075]}, "properties": {"id": "87036259", "name": "Espresso House", "street": "Invalidenstraße 35", "zip-code": 10115, "lat": 52.53075, "lon": 13.38314, "planning-area-id": 1100415}}, {"type": "Feature", "geometry": {"type": "Point", "coordinates": [13.39001, 52.51107]}, "properties": {"id": "87040343", "name": "Starbucks", "street": "Friedrichstraße 61", "zip-code": 10117, "lat": 52.51107, "lon": 13.39001, "planning-area-id": 1100207}}, {"type": "Feature", "geometry": {"type": "Point", "coordinates": [13.38947, 52.51135]}, "properties": {"id": "87040348", "name": "Einstein Kaffee", "lat": 52.51135, "lon": 13.38947, "planning-area-id": 1100207}}, {"type": "Feature", "geometry": {"type": "Point", "coordinates": [13.41021, 52.51949]}, "properties": {"id": "89274938", "name": "Segafredo", "lat": 52.51949, "lon": 13.41021, "planning-area-id": 1100310}}, {"type": "Feature", "geometry": {"type": "Point", "coordinates": [13.53063, 52.42968]}, "properties": {"id": "115544715", "name": "Caffè Kamee", "street": "Rudower Chaussee 25", "zip-code": 12489, "lat": 52.42968, "lon": 13.53063, "planning-area-id": 9200715}}, {"type": "Feature", "geometry": {"type": "Point", "coordinates": [13.36449, 52.56407]}, "properties": {"id": "208510718", "name": "The Leaf", "street": "Residenzstraße 109", "zip-code": 13409, "lat": 52.56407, "lon": 13.36449, "planning-area-id": 12100101}}, {"type": "Feature", "geometry": {"type": "Point", "coordinates": [13.42049, 52.53822]}, "properties": {"id": "249299067", "name": "SowohlAlsAuch", "street": "Kollwitzstraße 88", "zip-code": 10435, "lat": 52.53822, "lon": 13.42049, "planning-area-id": 3701555}}, {"type": "Feature", "geometry": {"type": "Point", "coordinates": [13.35404, 52.48799]}, "properties": {"id": "253999353", "name": "DoubleEye", "street": "Akazienstraße 22", "zip-code": 10823, "lat": 52.48799, "lon": 13.35404, "planning-area-id": 7200409}}, {"type": "Feature", "geometry": {"type": "Point", "coordinates": [13.4061, 52.54583]}, "properties": {"id": "268760098", "name": "Café Meta", "street": "Am Falkplatz 1", "zip-code": 10437, "lat": 52.54583, "lon": 13.4061, "planning-area-id": 3601142}}, {"type": "Feature", "geometry": {"type": "Point", "coordinates": [13.29098, 52.50389]}, "properties": {"id": "268915525", "name": "Kuno 15", "street": "Kuno-Fischer-Straße 15", "zip-code": 14057, "lat": 52.50389, "lon": 13.29098, "planning-area-id": 4300415}}, {"type": "Feature", "geometry": {"type": "Point", "coordinates": [13.34641, 52.51839]}, "properties": {"id": "269713585", "name": "Bistro in der Akademie der Künste", "street": "Hanseatenweg 10", "zip-code": 10557, "lat": 52.51839, "lon": 13.34641, "planning-area-id": 1200629}}, {"type": "Feature", "geometry": {"type": "Point", "coordinates": [13.21725, 52.42721]}, "properties": {"id": "270814693", "name": "Totto Land", "street": "Potsdamer Chaussee 80", "zip-code": 14129, "lat": 52.42721, "lon": 13.21725, "planning-area-id": 6400736}}, {"type": "Feature", "geometry": {"type": "Point", "coordinates": [13.36094, 52.4882]}, "properties": {"id": "271668412", "name": "mokka & juice house", "lat": 52.4882, "lon": 13.36094, "planning-area-id": 7200411}}, {"type": "Feature", "geometry": {"type": "Point", "coordinates": [13.29254, 52.45634]}, "properties": {"id": "272593724", "name": "eßkultur", "street": "Lansstraße 8", "zip-code": 14195, "lat": 52.45634, "lon": 13.29254, "planning-area-id": 6400843}}, {"type": "Feature", "geometry": {"type": "Point", "coordinates": [13.4435, 52.49805]}, "properties": {"id": "272811519", "name": "Bizim Kiez", "lat": 52.49805, "lon": 13.4435, "planning-area-id": 2300419}}, {"type": "Feature", "geometry": {"type": "Point", "coordinates": [13.38699, 52.52591]}, "properties": {"id": "275564580", "name": "Espresso House", "street": "Friedrichstraße 125", "zip-code": 10117, "lat": 52.52591, "lon": 13.38699, "planning-area-id": 1100308}}, {"type": "Feature", "geometry": {"type": "Point", "coordinates": [13.46773, 52.46865]}, "properties": {"id": "277836777", "name": "Kiez-Bäckerei", "street": "Sonnenallee 293", "zip-code": 12057, "lat": 52.46865, "lon": 13.46773, "planning-area-id": 8100521}}, {"type": "Feature", "geometry": {"type": "Point", "coordinates": [13.46639, 52.50543]}, "properties": {"id": "278125487", "name": "Uebereck", "street": "Sonntagstraße 31", "zip-code": 10245, "lat": 52.50543, "lon": 13.46639, "planning-area-id": 2500834}}, {"type": "Feature", "geometry": {"type": "Point", "coordinates": [13.3935, 52.48901]}, "properties": {"id": "278295436", "name": "Barcomis Café & Kaffeerösterei", "street": "Bergmannstraße 21", "zip-code": 10961, "lat": 52.48901, "lon": 13.3935, "planning-area-id": 2200211}}, {"type": "Feature", "geometry": {"type": "Point", "coordinates": [13.46305, 52.51465]}, "properties": {"id": "278874829", "name": "Milchgesicht", "street": "Mainzer Straße 1", "zip-code": 10247, "lat": 52.51465, "lon": 13.46305, "planning-area-id": 2500830}}, {"type": "Feature", "geometry": {"type": "Point", "coordinates": [13.55671, 52.54676]}, "properties": {"id": "281334742", "name": "Konditorei & Eiscafé Engel", "street": "Marzahner Promenade 55", "zip-code": 12679, "lat": 52.54676, "lon": 13.55671, "planning-area-id": 10100210}}, {"type": "Feature", "geometry": {"type": "Point", "coordinates": [13.36751, 52.49104]}, "properties": {"id": "281513616", "name": "Cafe Finovo", "street": "Großgörschenstraße 12-14", "zip-code": 10829, "lat": 52.49104, "lon": 13.36751, "planning-area-id": 7100206}}, {"type": "Feature", "geometry": {"type": "Point", "coordinates": [13.45718, 52.50977]}, "properties": {"id": "282420126", "name": "Caramello", "street": "Wühlischstraße 31", "zip-code": 10245, "lat": 52.50977, "lon": 13.45718, "planning-area-id": 2500833}}, {"type": "Feature", "geometry": {"type": "Point", "coordinates": [13.45823, 52.51283]}, "properties": {"id": "282421717", "name": "Intimes", "street": "Boxhagener Straße 107", "zip-code": 10245, "lat": 52.51283, "lon": 13.45823, "planning-area-id": 2500830}}, {"type": "Feature", "geometry": {"type": "Point", "coordinates": [13.45702, 52.51602]}, "properties": {"id": "282430727", "name": "Café Tasso", "lat": 52.51602, "lon": 13.45702, "planning-area-id": 2500727}}, {"type": "Feature", "geometry": {"type": "Point", "coordinates": [13.46317, 52.51661]}, "properties": {"id": "282739852", "name": "Brunchella", "lat": 52.51661, "lon": 13.46317, "planning-area-id": 2500728}}, {"type": "Feature", "geometry": {"type": "Point", "coordinates": [13.20199, 52.53708]}, "properties": {"id": "286428319", "name": "Café Lutetia", "street": "Jüdenstraße 10", "zip-code": 13597, "lat": 52.53708, "lon": 13.20199, "planning-area-id": 5100316}}, {"type": "Feature", "geometry": {"type": "Point", "coordinates": [13.60155, 52.482]}, "properties": {"id": "289414441", "name": "Das kleine Eiswerk", "street": "Hultschiner Damm 76", "zip-code": 12623, "lat": 52.482, "lon": 13.60155, "planning-area-id": 10400941}}, {"type": "Feature", "geometry": {"type": "Point", "coordinates": [13.32139, 52.50745]}, "properties": {"id": "291535997", "name": "Pars", "street": "Grolmanstraße 53", "zip-code": 10623, "lat": 52.50745, "lon": 13.32139, "planning-area-id": 4300624}}, {"type": "Feature", "geometry": {"type": "Point", "coordinates": [13.32304, 52.49789]}, "properties": {"id": "292203637", "name": "Zoena", "lat": 52.49789, "lon": 13.32304, "planning-area-id": 4501044}}, {"type": "Feature", "geometry": {"type": "Point", "coordinates": [13.32286, 52.49795]}, "properties": {"id": "292203638", "name": "Sweet2go", "street": "Pfalzburger Straße 79", "zip-code": 10719, "lat": 52.49795, "lon": 13.32286, "planning-area-id": 4501044}}, {"type": "Feature", "geometry": {"type": "Point", "coordinates": [13.13067, 52.44457]}, "properties": {"id": "300658414", "name": "Sommercafé Kladow", "street": "Lüdickeweg 1", "zip-code": 14089, "lat": 52.44457, "lon": 13.13067, "planning-area-id": 5400944}}, {"type": "Feature", "geometry": {"type": "Point", "coordinates": [13.39831, 52.51525]}, "properties": {"id": "305259644", "name": "The Coffee Shop", "street": "Werderscher Markt 1", "zip-code": 10117, "lat": 52.51525, "lon": 13.39831, "planning-area-id": 1100207}}, {"type": "Feature", "geometry": {"type": "Point", "coordinates": [13.39852, 52.51911]}, "properties": {"id": "305260598", "name": "Café im Alten Museum", "lat": 52.51911, "lon": 13.39852, "planning-area-id": 1100206}}, {"type": "Feature", "geometry": {"type": "Point", "coordinates": [13.44799, 52.51234]}, "properties": {"id": "307717829", "name": "Tales Untold", "street": "Am Comeniusplatz 1", "zip-code": 10243, "lat": 52.51234, "lon": 13.44799, "planning-area-id": 2400624}}, {"type": "Feature", "geometry": {"type": "Point", "coordinates": [13.40966, 52.52137]}, "properties": {"id": "308410291", "name": "Tudo", "lat": 52.52137, "lon": 13.40966, "planning-area-id": 1100310}}, {"type": "Feature", "geometry": {"type": "Point", "coordinates": [13.40407, 52.55118]}, "properties": {"id": "308523030", "name": "Kiez Kaffee Kraft", "street": "Schivelbeiner Straße 23", "zip-code": 10439, "lat": 52.55118, "lon": 13.40407, "planning-area-id": 3601140}}, {"type": "Feature", "geometry": {"type": "Point", "coordinates": [13.28259, 52.45133]}, "properties": {"id": "309627391", "name": "Overcomer Bubble Tea", "lat": 52.45133, "lon": 13.28259, "planning-area-id": 6400844}}, {"type": "Feature", "geometry": {"type": "Point", "coordinates": [13.41806, 52.49236]}, "properties": {"id": "310267637", "name": "Schönes Café", "street": "Dieffenbachstraße 54", "zip-code": 10967, "lat": 52.49236, "lon": 13.41806, "planning-area-id": 2200213}}, {"type": "Feature", "geometry": {"type": "Point", "coordinates": [13.42039, 52.49315]}, "properties": {"id": "310269864", "name": "Narr-Bar", "street": "Böckhstraße 24", "zip-code": 10967, "lat": 52.49315, "lon": 13.42039, "planning-area-id": 2200213}}, {"type": "Feature", "geometry": {"type": "Point", "coordinates": [13.35516, 52.48665]}, "properties": {"id": "312697036", "name": "Café Bilderbuch", "street": "Akazienstraße 28", "zip-code": 10823, "lat": 52.48665, "lon": 13.35516, "planning-area-id": 7200409}}, {"type": "Feature", "geometry": {"type": "Point", "coordinates": [13.44555, 52.52543]}, "properties": {"id": "313144186", "name": "Metropol", "lat": 52.52543, "lon": 13.44555, "planning-area-id": 2400522}}, {"type": "Feature", "geometry": {"type": "Point", "coordinates": [13.45092, 52.5223]}, "properties": {"id": "314401620", "name": "Ja Dilo", "street": "Petersburger Straße 45", "zip-code": 10249, "lat": 52.5223, "lon": 13.45092, "planning-area-id": 2500726}}, {"type": "Feature", "geometry": {"type": "Point", "coordinates": [13.39865, 52.53516]}, "properties": {"id": "314752483", "name": "caffe e cioccolata", "street": "Anklamer Straße 41", "zip-code": 10115, "lat": 52.53516, "lon": 13.39865, "planning-area-id": 1100416}}, {"type": "Feature", "geometry": {"type": "Point", "coordinates": [13.40293, 52.53681]}, "properties": {"id": "315549929", "name": "La Lúcuma", "street": "Granseer Straße 8", "zip-code": 10435, "lat": 52.53681, "lon": 13.40293, "planning-area-id": 1100416}}, {"type": "Feature", "geometry": {"type": "Point", "coordinates": [13.40071, 52.53735]}, "properties": {"id": "315738178", "name": "Cup Arkona", "street": "Arkonaplatz 10", "zip-code": 10435, "lat": 52.53735, "lon": 13.40071, "planning-area-id": 1100416}}, {"type": "Feature", "geometry": {"type": "Point", "coordinates": [13.40402, 52.53737]}, "properties": {"id": "316883775", "name": "Cafe Fräulein Dietrich", "street": "Fürstenberger Straße 14", "zip-code": 10435, "lat": 52.53737, "lon": 13.40402, "planning-area-id": 1100416}}, {"type": "Feature", "geometry": {"type": "Point", "coordinates": [13.35807, 52.54724]}, "properties": {"id": "317179404", "name": "Fedora", "street": "Müllerstraße 28", "zip-code": 13353, "lat": 52.54724, "lon": 13.35807, "planning-area-id": 1401048}}, {"type": "Feature", "geometry": {"type": "Point", "coordinates": [13.53198, 52.431]}, "properties": {"id": "317550357", "name": "Gerdans Café", "street": "Rudower Chaussee 26", "zip-code": 12489, "lat": 52.431, "lon": 13.53198, "planning-area-id": 9200715}}, {"type": "Feature", "geometry": {"type": "Point", "coordinates": [13.41328, 52.54985]}, "properties": {"id": "319181468", "name": "Espresso House", "street": "Schönhauser Allee 116", "zip-code": 10439, "lat": 52.54985, "lon": 13.41328, "planning-area-id": 3601141}}, {"type": "Feature", "geometry": {"type": "Point", "coordinates": [13.30711, 52.4562]}, "properties": {"id": "323226411", "name": "Café Viktoria", "lat": 52.4562, "lon": 13.30711, "planning-area-id": 6300629}}, {"type": "Feature", "geometry": {"type": "Point", "coordinates": [13.36296, 52.41334]}, "properties": {"id": "324792576", "name": "Eiscafe Europa", "street": "Marienfelder Allee 146", "zip-code": 12279, "lat": 52.41334, "lon": 13.36296, "planning-area-id": 7601236}}, {"type": "Feature", "geometry": {"type": "Point", "coordinates": [13.42389, 52.51756]}, "properties": {"id": "329969468", "name": "Lotus Cafe", "lat": 52.51756, "lon": 13.42389, "planning-area-id": 1100311}}, {"type": "Feature", "geometry": {"type": "Point", "coordinates": [13.40178, 52.52953]}, "properties": {"id": "330264334", "name": "St. Oberholz", "street": "Rosenthaler Straße 72", "zip-code": 10119, "lat": 52.52953, "lon": 13.40178, "planning-area-id": 1100309}}, {"type": "Feature", "geometry": {"type": "Point", "coordinates": [13.38428, 52.52061]}, "properties": {"id": "332625327", "name": "Zimt & Zucker", "street": "Schiffbauerdamm 12", "zip-code": 10117, "lat": 52.52061, "lon": 13.38428, "planning-area-id": 1100308}}, {"type": "Feature", "geometry": {"type": "Point", "coordinates": [13.38375, 52.52309]}, "properties": {"id": "333136478", "name": "Café Albrecht", "street": "Reinhardtstraße 23", "zip-code": 10117, "lat": 52.52309, "lon": 13.38375, "planning-area-id": 1100308}}, {"type": "Feature", "geometry": {"type": "Point", "coordinates": [13.38801, 52.52601]}, "properties": {"id": "333136721", "name": "Espresso Ambulanz", "street": "Oranienburger Straße 51", "zip-code": 10117, "lat": 52.52601, "lon": 13.38801, "planning-area-id": 1100309}}, {"type": "Feature", "geometry": {"type": "Point", "coordinates": [13.34416, 52.46501]}, "properties": {"id": "333192881", "name": "Wolke", "street": "Rubensstraße 108", "zip-code": 12157, "lat": 52.46501, "lon": 13.34416, "planning-area-id": 7300619}}, {"type": "Feature", "geometry": {"type": "Point", "coordinates": [13.42256, 52.4838]}, "properties": {"id": "333336881", "street": "Lucy-Lameck-Straße 32", "zip-code": 12049, "lat": 52.4838, "lon": 13.42256, "planning-area-id": 8100101}}, {"type": "Feature", "geometry": {"type": "Point", "coordinates": [13.38446, 52.52238]}, "properties": {"id": "334638166", "name": "Monsieur Toche", "street": "Albrechtstraße 19", "zip-code": 10117, "lat": 52.52238, "lon": 13.38446, "planning-area-id": 1100308}}, {"type": "Feature", "geometry": {"type": "Point", "coordinates": [13.27601, 52.44832]}, "properties": {"id": "335172577", "name": "Aux Delices Normands", "lat": 52.44832, "lon": 13.27601, "planning-area-id": 6400843}}, {"type": "Feature", "geometry": {"type": "Point", "coordinates": [13.40088, 52.53319]}, "properties": {"id": "335594170", "name": "Feuerstein", "street": "Veteranenstraße 22", "zip-code": 10119, "lat": 52.53319, "lon": 13.40088, "planning-area-id": 1100416}}, {"type": "Feature", "geometry": {"type": "Point", "coordinates": [13.40224, 52.53121]}, "properties": {"id": "336139006", "name": "Café Fleury", "street": "Weinbergsweg 20", "zip-code": 10119, "lat": 52.53121, "lon": 13.40224, "planning-area-id": 1100416}}, {"type": "Feature", "geometry": {"type": "Point", "coordinates": [13.5634, 52.54234]}, "properties": {"id": "339305531", "name": "Cafe & Konditorei", "street": "Alt-Marzahn 71", "zip-code": 12685, "lat": 52.54234, "lon": 13.5634, "planning-area-id": 10100313}}, {"type": "Feature", "geometry": {"type": "Point", "coordinates": [13.40572, 52.53492]}, "properties": {"id": "339819416", "name": "Napoljonska", "street": "Kastanienallee 43", "zip-code": 10119, "lat": 52.53492, "lon": 13.40572, "planning-area-id": 1100416}}, {"type": "Feature", "geometry": {"type": "Point", "coordinates": [13.57055, 52.5412]}, "properties": {"id": "346196517", "name": "Ice Angels", "street": "Blumberger Damm 90", "zip-code": 12685, "lat": 52.5412, "lon": 13.57055, "planning-area-id": 10100316}}, {"type": "Feature", "geometry": {"type": "Point", "coordinates": [13.4018, 52.53314]}, "properties": {"id": "347278881", "name": "bei Maria", "street": "Veteranenstraße 11", "zip-code": 10119, "lat": 52.53314, "lon": 13.4018, "planning-area-id": 1100416}}, {"type": "Feature", "geometry": {"type": "Point", "coordinates": [13.32348, 52.429]}, "properties": {"id": "347294453", "name": "Genç", "street": "Königsberger Straße 4a", "zip-code": 12207, "lat": 52.429, "lon": 13.32348, "planning-area-id": 6200421}}, {"type": "Feature", "geometry": {"type": "Point", "coordinates": [13.31137, 52.44287]}, "properties": {"id": "347422929", "name": "Caffé Maura", "lat": 52.44287, "lon": 13.31137, "planning-area-id": 6300633}}, {"type": "Feature", "geometry": {"type": "Point", "coordinates": [13.23271, 52.43831]}, "properties": {"id": "348053171", "name": "Tillmanns Café Krone", "street": "Argentinische Allee 2", "zip-code": 14163, "lat": 52.43831, "lon": 13.23271, "planning-area-id": 6400838}}, {"type": "Feature", "geometry": {"type": "Point", "coordinates": [13.36723, 52.49307]}, "properties": {"id": "352936932", "name": "Café Monaco", "street": "Mansteinstraße 17", "zip-code": 10783, "lat": 52.49307, "lon": 13.36723, "planning-area-id": 7100206}}, {"type": "Feature", "geometry": {"type": "Point", "coordinates": [13.3365, 52.4802]}, "properties": {"id": "359754354", "name": "Parkcafé Pusteblume", "street": "Durlacher Straße 2", "zip-code": 10715, "lat": 52.4802, "lon": 13.3365, "planning-area-id": 4501153}}, {"type": "Feature", "geometry": {"type": "Point", "coordinates": [13.42333, 52.4788]}, "properties": {"id": "361569575", "name": "Felicia", "street": "Weisestraße 8", "zip-code": 12049, "lat": 52.4788, "lon": 13.42333, "planning-area-id": 8100102}}, {"type": "Feature", "geometry": {"type": "Point", "coordinates": [13.45731, 52.51278]}, "properties": {"id": "365099975", "name": "λ", "street": "Simon-Dach-Straße 1", "zip-code": 10245, "lat": 52.51278, "lon": 13.45731, "planning-area-id": 2500833}}, {"type": "Feature", "geometry": {"type": "Point", "coordinates": [13.52698, 52.48573]}, "properties": {"id": "366943233", "name": "TreBo", "street": "Treskowallee 75", "zip-code": 10318, "lat": 52.48573, "lon": 13.52698, "planning-area-id": 11501340}}, {"type": "Feature", "geometry": {"type": "Point", "coordinates": [13.31336, 52.5065]}, "properties": {"id": "366986850", "name": "Ulteamate", "street": "Kantstraße 40", "zip-code": 10625, "lat": 52.5065, "lon": 13.31336, "planning-area-id": 4300623}}, {"type": "Feature", "geometry": {"type": "Point", "coordinates": [13.30779, 52.50902]}, "properties": {"id": "370455026", "name": "Cafe Lisboa", "street": "Goethestraße 34", "zip-code": 10625, "lat": 52.50902, "lon": 13.30779, "planning-area-id": 4300623}}, {"type": "Feature", "geometry": {"type": "Point", "coordinates": [13.30548, 52.50802]}, "properties": {"id": "370455636", "name": "Homera", "street": "Pestalozzistraße 33", "zip-code": 10627, "lat": 52.50802, "lon": 13.30548, "planning-area-id": 4300623}}, {"type": "Feature", "geometry": {"type": "Point", "coordinates": [13.41535, 52.54709]}, "properties": {"id": "370852065", "name": "Le midi", "street": "Greifenhagener Straße 17", "zip-code": 10437, "lat": 52.54709, "lon": 13.41535, "planning-area-id": 3601346}}, {"type": "Feature", "geometry": {"type": "Point", "coordinates": [13.30758, 52.51024]}, "properties": {"id": "371832454", "name": "Café Kali", "street": "Schillerstraße 35", "zip-code": 10627, "lat": 52.51024, "lon": 13.30758, "planning-area-id": 4300623}}, {"type": "Feature", "geometry": {"type": "Point", "coordinates": [13.37978, 52.50955]}, "properties": {"id": "387487628", "name": "eleven", "street": "Leipziger Platz 11", "zip-code": 10117, "lat": 52.50955, "lon": 13.37978, "planning-area-id": 1100205}}, {"type": "Feature", "geometry": {"type": "Point", "coordinates": [13.379, 52.60043]}, "properties": {"id": "388291809", "name": "Zur alten Backstube", "street": "Hauptstraße 155", "zip-code": 13158, "lat": 52.60043, "lon": 13.379, "planning-area-id": 3400618}}, {"type": "Feature", "geometry": {"type": "Point", "coordinates": [13.467, 52.50552]}, "properties": {"id": "388939733", "name": "Binnbonn Café", "street": "Lenbachstraße 13b", "zip-code": 10245, "lat": 52.50552, "lon": 13.467, "planning-area-id": 2500834}}, {"type": "Feature", "geometry": {"type": "Point", "coordinates": [13.30369, 52.49991]}, "properties": {"id": "389896794", "name": "Roberta", "zip-code": 10629, "lat": 52.49991, "lon": 13.30369, "planning-area-id": 4500936}}, {"type": "Feature", "geometry": {"type": "Point", "coordinates": [13.29596, 52.51579]}, "properties": {"id": "394829831", "name": "Café Morgenlicht", "street": "Schloßstraße 13", "zip-code": 14059, "lat": 52.51579, "lon": 13.29596, "planning-area-id": 4300413}}, {"type": "Feature", "geometry": {"type": "Point", "coordinates": [13.72166, 52.41926]}, "properties": {"id": "412722274", "name": "Klein Schwalbenberg", "lat": 52.41926, "lon": 13.72166, "planning-area-id": 9501838}}, {"type": "Feature", "geometry": {"type": "Point", "coordinates": [13.4225, 52.54127]}, "properties": {"id": "415309920", "name": "Café Bolacha", "street": "Senefelderstraße 29", "zip-code": 10437, "lat": 52.54127, "lon": 13.4225, "planning-area-id": 3601348}}, {"type": "Feature", "geometry": {"type": "Point", "coordinates": [13.28087, 52.45062]}, "properties": {"id": "416405905", "name": "Coffee Station", "lat": 52.45062, "lon": 13.28087, "planning-area-id": 6400844}}, {"type": "Feature", "geometry": {"type": "Point", "coordinates": [13.30712, 52.44667]}, "properties": {"id": "419873047", "name": "Bohnenranke", "street": "Moltkestraße 50", "zip-code": 12203, "lat": 52.44667, "lon": 13.30712, "planning-area-id": 6300633}}, {"type": "Feature", "geometry": {"type": "Point", "coordinates": [13.32453, 52.51147]}, "properties": {"id": "427932030", "name": "Café Planwirtschaft", "street": "Hardenbergstraße 40A", "zip-code": 10623, "lat": 52.51147, "lon": 13.32453, "planning-area-id": 4300622}}, {"type": "Feature", "geometry": {"type": "Point", "coordinates": [13.31556, 52.44735]}, "properties": {"id": "428114285", "name": "Eiscafé Falsone", "street": "Hindenburgdamm 58", "zip-code": 12203, "lat": 52.44735, "lon": 13.31556, "planning-area-id": 6300630}}, {"type": "Feature", "geometry": {"type": "Point", "coordinates": [13.3969, 52.52718]}, "properties": {"id": "429735606", "name": "Spoonful", "street": "Auguststraße 63", "lat": 52.52718, "lon": 13.3969, "planning-area-id": 1100309}}, {"type": "Feature", "geometry": {"type": "Point", "coordinates": [13.48975, 52.61746]}, "properties": {"id": "431258771", "name": "Siebert’s Back & Café", "street": "Achillesstraße 65", "zip-code": 13125, "lat": 52.61746, "lon": 13.48975, "planning-area-id": 3300411}}, {"type": "Feature", "geometry": {"type": "Point", "coordinates": [13.32708, 52.52209]}, "properties": {"id": "432486560", "name": "Endlich Mittag", "street": "Helmholtzstraße 23", "zip-code": 10587, "lat": 52.52209, "lon": 13.32708, "planning-area-id": 4300620}}, {"type": "Feature", "geometry": {"type": "Point", "coordinates": [13.45702, 52.59301]}, "properties": {"id": "434481239", "name": "Kaffeehaus Blankenburg", "street": "Alt-Blankenburg 44", "zip-code": 13129, "lat": 52.59301, "lon": 13.45702, "planning-area-id": 3300514}}, {"type": "Feature", "geometry": {"type": "Point", "coordinates": [13.41025, 52.51905]}, "properties": {"id": "437194563", "name": "Blixen", "lat": 52.51905, "lon": 13.41025, "planning-area-id": 1100310}}, {"type": "Feature", "geometry": {"type": "Point", "coordinates": [13.3869, 52.51717]}, "properties": {"id": "437320468", "name": "Espresso Eleganza", "street": "Unter den Linden 36-38", "zip-code": 10117, "lat": 52.51717, "lon": 13.3869, "planning-area-id": 1100206}}, {"type": "Feature", "geometry": {"type": "Point", "coordinates": [13.3258, 52.51451]}, "properties": {"id": "438156127", "name": "Café Shila", "street": "Leonida-Zamfirescu-Weg 1", "zip-code": 10623, "lat": 52.51451, "lon": 13.3258, "planning-area-id": 4300622}}, {"type": "Feature", "geometry": {"type": "Point", "coordinates": [13.42951, 52.50064]}, "properties": {"id": "440012483", "name": "Eve&cat", "street": "Lausitzer Platz 1", "zip-code": 10997, "lat": 52.50064, "lon": 13.42951, "planning-area-id": 2300315}}, {"type": "Feature", "geometry": {"type": "Point", "coordinates": [13.30949, 52.50052]}, "properties": {"id": "440078137", "name": "Gia", "street": "Kurfürstendamm 66", "zip-code": 10707, "lat": 52.50052, "lon": 13.30949, "planning-area-id": 4501040}}, {"type": "Feature", "geometry": {"type": "Point", "coordinates": [13.39367, 52.51248]}, "properties": {"id": "440923198", "name": "Einstein Kaffee", "lat": 52.51248, "lon": 13.39367, "planning-area-id": 1100206}}, {"type": "Feature", "geometry": {"type": "Point", "coordinates": [13.42495, 52.48039]}, "properties": {"id": "441514952", "name": "Café Qlis", "street": "Hermannstraße 36", "zip-code": 12049, "lat": 52.48039, "lon": 13.42495, "planning-area-id": 8100102}}, {"type": "Feature", "geometry": {"type": "Point", "coordinates": [13.44295, 52.47065]}, "properties": {"id": "441878995", "name": "Café Kent", "lat": 52.47065, "lon": 13.44295, "planning-area-id": 8100417}}, {"type": "Feature", "geometry": {"type": "Point", "coordinates": [13.38491, 52.44844]}, "properties": {"id": "442392124", "name": "Makara", "street": "Mariendorfer Damm 48", "zip-code": 12109, "lat": 52.44844, "lon": 13.38491, "planning-area-id": 7501030}}, {"type": "Feature", "geometry": {"type": "Point", "coordinates": [13.27833, 52.44883]}, "properties": {"id": "442534063", "name": "Rotes Café", "street": "Harnackstraße 1 A", "zip-code": 14195, "lat": 52.44883, "lon": 13.27833, "planning-area-id": 6400843}}, {"type": "Feature", "geometry": {"type": "Point", "coordinates": [13.43175, 52.46625]}, "properties": {"id": "443129170", "name": "Silber Cafe Bar", "street": "Hermannstraße 117", "zip-code": 12051, "lat": 52.46625, "lon": 13.43175, "planning-area-id": 8100105}}, {"type": "Feature", "geometry": {"type": "Point", "coordinates": [13.21468, 52.43906]}, "properties": {"id": "443674211", "name": "Café Schlacht", "street": "Breisgauer Straße 2", "zip-code": 14129, "lat": 52.43906, "lon": 13.21468, "planning-area-id": 6400737}}, {"type": "Feature", "geometry": {"type": "Point", "coordinates": [13.20682, 52.53804]}, "properties": {"id": "443728425", "name": "Eiscafé Millefiori", "street": "Breite Straße 35", "zip-code": 13597, "lat": 52.53804, "lon": 13.20682, "planning-area-id": 5100316}}, {"type": "Feature", "geometry": {"type": "Point", "coordinates": [13.32344, 52.52329]}, "properties": {"id": "447436526", "name": "Cafeteria im PTZ", "street": "Pascalstraße 13-14", "zip-code": 10587, "lat": 52.52329, "lon": 13.32344, "planning-area-id": 4300620}}, {"type": "Feature", "geometry": {"type": "Point", "coordinates": [13.2137, 52.43989]}, "properties": {"id": "447904739", "name": "Seestern", "street": "Am Schlachtensee 70", "zip-code": 14129, "lat": 52.43989, "lon": 13.2137, "planning-area-id": 6400737}}, {"type": "Feature", "geometry": {"type": "Point", "coordinates": [13.19325, 52.52417]}, "properties": {"id": "448081472", "name": "Café Barfly", "street": "Brüderstraße 47", "zip-code": 13595, "lat": 52.52417, "lon": 13.19325, "planning-area-id": 5200630}}, {"type": "Feature", "geometry": {"type": "Point", "coordinates": [13.43961, 52.48414]}, "properties": {"id": "454257347", "name": "Venue", "street": "Weserstraße 172", "zip-code": 12045, "lat": 52.48414, "lon": 13.43961, "planning-area-id": 8100312}}, {"type": "Feature", "geometry": {"type": "Point", "coordinates": [13.40902, 52.57139]}, "properties": {"id": "459668815", "name": "Café Rosenrot", "lat": 52.57139, "lon": 13.40902, "planning-area-id": 3400724}}, {"type": "Feature", "geometry": {"type": "Point", "coordinates": [13.40435, 52.58191]}, "properties": {"id": "459672233", "name": "Eis-Cafe Kubitza", "street": "Dietzgenstraße 22", "zip-code": 13156, "lat": 52.58191, "lon": 13.40435, "planning-area-id": 3200207}}, {"type": "Feature", "geometry": {"type": "Point", "coordinates": [13.40345, 52.58348]}, "properties": {"id": "459673806", "name": "Johns", "lat": 52.58348, "lon": 13.40345, "planning-area-id": 3200207}}, {"type": "Feature", "geometry": {"type": "Point", "coordinates": [13.32197, 52.45712]}, "properties": {"id": "462667753", "name": "Espresso House", "street": "Albrechtstraße 131", "zip-code": 12165, "lat": 52.45712, "lon": 13.32197, "planning-area-id": 6100102}}, {"type": "Feature", "geometry": {"type": "Point", "coordinates": [13.41472, 52.57175]}, "properties": {"id": "469201752", "name": "Café Impuls", "street": "Breite Straße 49", "zip-code": 13187, "lat": 52.57175, "lon": 13.41472, "planning-area-id": 3400723}}, {"type": "Feature", "geometry": {"type": "Point", "coordinates": [13.28552, 52.58857]}, "properties": {"id": "470319897", "name": "Dopamine Café", "street": "Grußdorfstraße 12-13", "zip-code": 13507, "lat": 52.58857, "lon": 13.28552, "planning-area-id": 12200515}}, {"type": "Feature", "geometry": {"type": "Point", "coordinates": [13.2462, 52.56197]}, "properties": {"id": "470319909", "name": "Seeblick", "lat": 52.56197, "lon": 13.2462, "planning-area-id": 12200412}}, {"type": "Feature", "geometry": {"type": "Point", "coordinates": [13.30536, 52.41758]}, "properties": {"id": "473066926", "name": "Dolce Vita", "street": "Lindenstraße 1", "zip-code": 12207, "lat": 52.41758, "lon": 13.30536, "planning-area-id": 6200420}}, {"type": "Feature", "geometry": {"type": "Point", "coordinates": [13.43968, 52.47705]}, "properties": {"id": "474799087", "name": "Café Rix", "street": "Karl-Marx-Straße 141", "zip-code": 12043, "lat": 52.47705, "lon": 13.43968, "planning-area-id": 8100416}}, {"type": "Feature", "geometry": {"type": "Point", "coordinates": [13.44553, 52.47922]}, "properties": {"id": "476258826", "name": "Cafe Tribune", "zip-code": 12059, "lat": 52.47922, "lon": 13.44553, "planning-area-id": 8100418}}, {"type": "Feature", "geometry": {"type": "Point", "coordinates": [13.41047, 52.55041]}, "properties": {"id": "476810292", "name": "Cafe Sgaminegg", "street": "Seelower Straße 2", "zip-code": 10439, "lat": 52.55041, "lon": 13.41047, "planning-area-id": 3601141}}, {"type": "Feature", "geometry": {"type": "Point", "coordinates": [13.30385, 52.42659]}, "properties": {"id": "477430712", "name": "Enjoy", "lat": 52.42659, "lon": 13.30385, "planning-area-id": 6300632}}, {"type": "Feature", "geometry": {"type": "Point", "coordinates": [13.52468, 52.45531]}, "properties": {"id": "486517824", "name": "Coffeebar", "lat": 52.45531, "lon": 13.52468, "planning-area-id": 9200511}}, {"type": "Feature", "geometry": {"type": "Point", "coordinates": [13.37372, 52.5176]}, "properties": {"id": "489761194", "name": "Berlin Pavillon am Reichstag", "street": "Scheidemannstraße 1", "zip-code": 10557, "lat": 52.5176, "lon": 13.37372, "planning-area-id": 1100102}}, {"type": "Feature", "geometry": {"type": "Point", "coordinates": [13.28509, 52.50632]}, "properties": {"id": "491566232", "name": "Pianocafé am Lietzensee", "street": "Neue Kantstraße 20", "zip-code": 14057, "lat": 52.50632, "lon": 13.28509, "planning-area-id": 4300415}}, {"type": "Feature", "geometry": {"type": "Point", "coordinates": [13.40885, 52.53753]}, "properties": {"id": "493655311", "name": "Café Morgenrot", "street": "Kastanienallee 85", "zip-code": 10435, "lat": 52.53753, "lon": 13.40885, "planning-area-id": 3701554}}, {"type": "Feature", "geometry": {"type": "Point", "coordinates": [13.46487, 52.51632]}, "properties": {"id": "499274751", "name": "Tapiocaria", "street": "Samariterstraße 34a", "zip-code": 10247, "lat": 52.51632, "lon": 13.46487, "planning-area-id": 2500728}}, {"type": "Feature", "geometry": {"type": "Point", "coordinates": [13.38201, 52.49353]}, "properties": {"id": "505944632", "name": "Mr. Minsch", "street": "Yorckstraße 15", "zip-code": 10965, "lat": 52.49353, "lon": 13.38201, "planning-area-id": 2200208}}, {"type": "Feature", "geometry": {"type": "Point", "coordinates": [13.50844, 52.52697]}, "properties": {"id": "507655174", "lat": 52.52697, "lon": 13.50844, "planning-area-id": 11300721}}, {"type": "Feature", "geometry": {"type": "Point", "coordinates": [13.28494, 52.58805]}, "properties": {"id": "508657352", "name": "Waffle Brothers", "lat": 52.58805, "lon": 13.28494, "planning-area-id": 12200515}}, {"type": "Feature", "geometry": {"type": "Point", "coordinates": [13.49528, 52.51391]}, "properties": {"id": "509405055", "name": "Cafeteria", "lat": 52.51391, "lon": 13.49528, "planning-area-id": 11300725}}, {"type": "Feature", "geometry": {"type": "Point", "coordinates": [13.42333, 52.47996]}, "properties": {"id": "515879722", "name": "Café Kent 3", "street": "Weisestraße 64", "zip-code": 12049, "lat": 52.47996, "lon": 13.42333, "planning-area-id": 8100102}}, {"type": "Feature", "geometry": {"type": "Point", "coordinates": [13.42065, 52.5421]}, "properties": {"id": "520048684", "name": "Café Liebling", "street": "Raumerstraße 36a", "zip-code": 10437, "lat": 52.5421, "lon": 13.42065, "planning-area-id": 3601348}}, {"type": "Feature", "geometry": {"type": "Point", "coordinates": [13.2604, 52.50151]}, "properties": {"id": "530557759", "name": "Bistro Waldschulallee", "lat": 52.50151, "lon": 13.2604, "planning-area-id": 4200207}}, {"type": "Feature", "geometry": {"type": "Point", "coordinates": [13.35742, 52.54196]}, "properties": {"id": "530715885", "name": "Göttlich essen & trinken", "street": "Tegeler Straße 23", "zip-code": 13353, "lat": 52.54196, "lon": 13.35742, "planning-area-id": 1401047}}, {"type": "Feature", "geometry": {"type": "Point", "coordinates": [13.38223, 52.51628]}, "properties": {"id": "531305449", "name": "Café Lebensart", "street": "Unter den Linden 69", "zip-code": 10117, "lat": 52.51628, "lon": 13.38223, "planning-area-id": 1100206}}, {"type": "Feature", "geometry": {"type": "Point", "coordinates": [13.39375, 52.52617]}, "properties": {"id": "531795198", "name": "Cafe Buchhandlung", "street": "Tucholskystraße 32", "zip-code": 10117, "lat": 52.52617, "lon": 13.39375, "planning-area-id": 1100309}}, {"type": "Feature", "geometry": {"type": "Point", "coordinates": [13.29714, 52.50147]}, "properties": {"id": "533621382", "name": "Magnifique", "street": "Damaschkestraße 38", "zip-code": 10711, "lat": 52.50147, "lon": 13.29714, "planning-area-id": 4500936}}, {"type": "Feature", "geometry": {"type": "Point", "coordinates": [13.29856, 52.4856]}, "properties": {"id": "534572922", "name": "Maries Cuisine", "street": "Hohenzollerndamm 151", "zip-code": 14199, "lat": 52.4856, "lon": 13.29856, "planning-area-id": 4400830}}, {"type": "Feature", "geometry": {"type": "Point", "coordinates": [13.52637, 52.45622]}, "properties": {"id": "536668241", "name": "WaschBar mit Stephanus-Shop", "street": "Johannes-Kraaz-Straße 9", "zip-code": 12459, "lat": 52.45622, "lon": 13.52637, "planning-area-id": 9200511}}, {"type": "Feature", "geometry": {"type": "Point", "coordinates": [13.22424, 52.57503]}, "properties": {"id": "539466865", "name": "Zur Sonne", "lat": 52.57503, "lon": 13.22424, "planning-area-id": 12400616}}, {"type": "Feature", "geometry": {"type": "Point", "coordinates": [13.41722, 52.54051]}, "properties": {"id": "541077710", "name": "Lorch & Söhne", "street": "Danziger Straße 25", "zip-code": 10435, "lat": 52.54051, "lon": 13.41722, "planning-area-id": 3601347}}, {"type": "Feature", "geometry": {"type": "Point", "coordinates": [13.48238, 52.50326]}, "properties": {"id": "544752150", "name": "Nadia + Kosta", "street": "Türrschmidtstraße 31", "zip-code": 10317, "lat": 52.50326, "lon": 13.48238, "planning-area-id": 11400927}}, {"type": "Feature", "geometry": {"type": "Point", "coordinates": [13.50013, 52.54825]}, "properties": {"id": "549227499", "name": "Café Zwerg", "street": "Konrad-Wolf-Straße 7", "zip-code": 13055, "lat": 52.54825, "lon": 13.50013, "planning-area-id": 11200411}}, {"type": "Feature", "geometry": {"type": "Point", "coordinates": [13.50098, 52.54872]}, "properties": {"id": "549227520", "name": "K3 Lounge", "street": "Konrad-Wolf-Straße 3", "zip-code": 13055, "lat": 52.54872, "lon": 13.50098, "planning-area-id": 11200411}}, {"type": "Feature", "geometry": {"type": "Point", "coordinates": [13.36337, 52.54344]}, "properties": {"id": "550408206", "name": "Raz", "street": "Müllerstraße 163", "zip-code": 13353, "lat": 52.54344, "lon": 13.36337, "planning-area-id": 1401047}}, {"type": "Feature", "geometry": {"type": "Point", "coordinates": [13.29919, 52.50483]}, "properties": {"id": "559983461", "name": "Cafe Dollinger", "street": "Stuttgarter Platz 21", "zip-code": 10627, "lat": 52.50483, "lon": 13.29919, "planning-area-id": 4300416}}, {"type": "Feature", "geometry": {"type": "Point", "coordinates": [13.41547, 52.54795]}, "properties": {"id": "560526925", "name": "Caffè Monelli", "street": "Greifenhagener Straße 53", "zip-code": 10437, "lat": 52.54795, "lon": 13.41547, "planning-area-id": 3601346}}, {"type": "Feature", "geometry": {"type": "Point", "coordinates": [13.28669, 52.58591]}, "properties": {"id": "564686130", "name": "507", "street": "Veitstraße 40a", "zip-code": 13507, "lat": 52.58591, "lon": 13.28669, "planning-area-id": 12200515}}, {"type": "Feature", "geometry": {"type": "Point", "coordinates": [13.40413, 52.52316]}, "properties": {"id": "565649878", "name": "Bio Company", "street": "Dircksenstraße 145-147", "zip-code": 10178, "lat": 52.52316, "lon": 13.40413, "planning-area-id": 1100309}}, {"type": "Feature", "geometry": {"type": "Point", "coordinates": [13.30792, 52.50166]}, "properties": {"id": "568525725", "name": "Frau Behrens Torten", "street": "Wilmersdorfer Straße 96-97", "zip-code": 10629, "lat": 52.50166, "lon": 13.30792, "planning-area-id": 4501040}}, {"type": "Feature", "geometry": {"type": "Point", "coordinates": [13.26743, 52.48372]}, "properties": {"id": "569992089", "name": "Wiener Conditorei am Hagenplatz", "street": "Hagenplatz 3", "zip-code": 14193, "lat": 52.48372, "lon": 13.26743, "planning-area-id": 4400728}}, {"type": "Feature", "geometry": {"type": "Point", "coordinates": [13.33047, 52.45181]}, "properties": {"id": "570034727", "name": "Konditorei Rabien", "street": "Klingsorstraße 13", "zip-code": 12167, "lat": 52.45181, "lon": 13.33047, "planning-area-id": 6100206}}, {"type": "Feature", "geometry": {"type": "Point", "coordinates": [13.46885, 52.51139]}, "properties": {"id": "573381064", "name": "Peggy Bee", "lat": 52.51139, "lon": 13.46885, "planning-area-id": 2500831}}, {"type": "Feature", "geometry": {"type": "Point", "coordinates": [13.19359, 52.43062]}, "properties": {"id": "581887067", "name": "Pizzeria N1", "lat": 52.43062, "lon": 13.19359, "planning-area-id": 6400737}}, {"type": "Feature", "geometry": {"type": "Point", "coordinates": [13.4128, 52.53131]}, "properties": {"id": "582747040", "name": "Café Bar Chagall", "street": "Kollwitzstraße 2", "zip-code": 10405, "lat": 52.53131, "lon": 13.4128, "planning-area-id": 3701556}}, {"type": "Feature", "geometry": {"type": "Point", "coordinates": [13.29398, 52.51052]}, "properties": {"id": "583297051", "name": "Flamingo Cafe", "street": "Kaiserdamm 114", "zip-code": 14057, "lat": 52.51052, "lon": 13.29398, "planning-area-id": 4300416}}, {"type": "Feature", "geometry": {"type": "Point", "coordinates": [13.40612, 52.53615]}, "properties": {"id": "597413602", "name": "Friendly Society Berlin (Kulturkaufhaus)", "street": "Griebenowstraße 23", "zip-code": 10435, "lat": 52.53615, "lon": 13.40612, "planning-area-id": 1100416}}, {"type": "Feature", "geometry": {"type": "Point", "coordinates": [13.20455, 52.53687]}, "properties": {"id": "603798038", "name": "Konditorei Fester", "street": "Markt 4", "zip-code": 13597, "lat": 52.53687, "lon": 13.20455, "planning-area-id": 5100316}}, {"type": "Feature", "geometry": {"type": "Point", "coordinates": [13.37536, 52.54015]}, "properties": {"id": "607756448", "name": "Cafe Desd", "street": "Schulzendorfer Straße 13", "zip-code": 13347, "lat": 52.54015, "lon": 13.37536, "planning-area-id": 1300836}}, {"type": "Feature", "geometry": {"type": "Point", "coordinates": [13.23234, 52.43746]}, "properties": {"id": "609005537", "name": "Bahnhofsklause", "lat": 52.43746, "lon": 13.23234, "planning-area-id": 6400839}}, {"type": "Feature", "geometry": {"type": "Point", "coordinates": [13.40267, 52.5311]}, "properties": {"id": "611031859", "name": "Galão A Pastelaria", "street": "Weinbergsweg 8", "zip-code": 10119, "lat": 52.5311, "lon": 13.40267, "planning-area-id": 1100416}}, {"type": "Feature", "geometry": {"type": "Point", "coordinates": [13.32176, 52.52089]}, "properties": {"id": "613536371", "name": "Backhaus Helmholtz", "street": "Helmholtzstraße 1", "zip-code": 10587, "lat": 52.52089, "lon": 13.32176, "planning-area-id": 4300620}}, {"type": "Feature", "geometry": {"type": "Point", "coordinates": [13.32234, 52.52344]}, "properties": {"id": "614502665", "name": "lunch+more", "street": "Pascalstraße 10", "zip-code": 10587, "lat": 52.52344, "lon": 13.32234, "planning-area-id": 4300620}}, {"type": "Feature", "geometry": {"type": "Point", "coordinates": [13.40221, 52.52419]}, "properties": {"id": "615147093", "name": "Röststätte", "street": "Rosenthaler Straße 40-41", "zip-code": 10178, "lat": 52.52419, "lon": 13.40221, "planning-area-id": 1100309}}, {"type": "Feature", "geometry": {"type": "Point", "coordinates": [13.30562, 52.50942]}, "properties": {"id": "616297349", "name": "Cafe Extrablatt", "street": "Wilmersdorfer Straße 46", "zip-code": 10627, "lat": 52.50942, "lon": 13.30562, "planning-area-id": 4300623}}, {"type": "Feature", "geometry": {"type": "Point", "coordinates": [13.39369, 52.61926]}, "properties": {"id": "616526854", "name": "Steckenpferd", "street": "Hauptstraße 35", "zip-code": 13159, "lat": 52.61926, "lon": 13.39369, "planning-area-id": 3200204}}, {"type": "Feature", "geometry": {"type": "Point", "coordinates": [13.30981, 52.50773]}, "properties": {"id": "617262898", "name": "Eis Michel", "street": "Pestalozzistraße 85", "zip-code": 10625, "lat": 52.50773, "lon": 13.30981, "planning-area-id": 4300623}}, {"type": "Feature", "geometry": {"type": "Point", "coordinates": [13.29684, 52.50065]}, "properties": {"id": "617342493", "name": "Was Gesundes", "street": "Joachim-Friedrich-Straße 27", "zip-code": 10711, "lat": 52.50065, "lon": 13.29684, "planning-area-id": 4500937}}, {"type": "Feature", "geometry": {"type": "Point", "coordinates": [13.46728, 52.46826]}, "properties": {"id": "618021341", "name": "Kösk Frühstück & Café", "lat": 52.46826, "lon": 13.46728, "planning-area-id": 8100521}}, {"type": "Feature", "geometry": {"type": "Point", "coordinates": [13.28063, 52.4471]}, "properties": {"id": "618571207", "name": "Coffeebar FU Wirtschaftswissenschaften", "street": "Garystraße 21", "zip-code": 14195, "lat": 52.4471, "lon": 13.28063, "planning-area-id": 6400843}}, {"type": "Feature", "geometry": {"type": "Point", "coordinates": [13.32286, 52.51085]}, "properties": {"id": "618993715", "name": "brot&butter", "lat": 52.51085, "lon": 13.32286, "planning-area-id": 4300624}}, {"type": "Feature", "geometry": {"type": "Point", "coordinates": [13.38178, 52.45412]}, "properties": {"id": "621274121", "name": "Rudi & Rosa", "street": "Viktoriastraße 10-18", "zip-code": 12105, "lat": 52.45412, "lon": 13.38178, "planning-area-id": 7400825}}, {"type": "Feature", "geometry": {"type": "Point", "coordinates": [13.45603, 52.49021]}, "properties": {"id": "622136256", "name": "Twins Catering", "street": "Beermannstraße 2", "zip-code": 12435, "lat": 52.49021, "lon": 13.45603, "planning-area-id": 9100101}}, {"type": "Feature", "geometry": {"type": "Point", "coordinates": [13.41806, 52.54228]}, "properties": {"id": "622481673", "name": "Das Spielzimmer", "street": "Schliemannstraße 37", "zip-code": 10437, "lat": 52.54228, "lon": 13.41806, "planning-area-id": 3601347}}, {"type": "Feature", "geometry": {"type": "Point", "coordinates": [13.39742, 52.53589]}, "properties": {"id": "623299186", "name": "la Caffèteria", "street": "Brunnenstraße 153", "zip-code": 10115, "lat": 52.53589, "lon": 13.39742, "planning-area-id": 1100415}}, {"type": "Feature", "geometry": {"type": "Point", "coordinates": [13.39905, 52.50775]}, "properties": {"id": "626328553", "name": "Cafe brennBar", "lat": 52.50775, "lon": 13.39905, "planning-area-id": 2100103}}, {"type": "Feature", "geometry": {"type": "Point", "coordinates": [13.38632, 52.54991]}, "properties": {"id": "626374681", "name": "BAK Breakfast House", "street": "Badstraße 8A", "lat": 52.54991, "lon": 13.38632, "planning-area-id": 1300733}}, {"type": "Feature", "geometry": {"type": "Point", "coordinates": [13.38571, 52.55276]}, "properties": {"id": "627105786", "name": "Cafe Star", "street": "Stettiner Straße 11", "lat": 52.55276, "lon": 13.38571, "planning-area-id": 1300733}}, {"type": "Feature", "geometry": {"type": "Point", "coordinates": [13.30702, 52.50481]}, "properties": {"id": "629369805", "name": "Impala Coffee", "street": "Wilmersdorfer Straße 67", "zip-code": 10629, "lat": 52.50481, "lon": 13.30702, "planning-area-id": 4501040}}, {"type": "Feature", "geometry": {"type": "Point", "coordinates": [13.30734, 52.50374]}, "properties": {"id": "629369820", "name": "L’Berg", "lat": 52.50374, "lon": 13.30734, "planning-area-id": 4501040}}, {"type": "Feature", "geometry": {"type": "Point", "coordinates": [13.32559, 52.46167]}, "properties": {"id": "635820523", "name": "Sandwich Art", "street": "Schloßstraße 112", "zip-code": 12163, "lat": 52.46167, "lon": 13.32559, "planning-area-id": 6100103}}, {"type": "Feature", "geometry": {"type": "Point", "coordinates": [13.4783, 52.51549]}, "properties": {"id": "635871464", "name": "Cooquin Cafe", "lat": 52.51549, "lon": 13.4783, "planning-area-id": 11300722}}, {"type": "Feature", "geometry": {"type": "Point", "coordinates": [13.4214, 52.53562]}, "properties": {"id": "638214074", "name": "Coffee Star", "street": "Wörther Straße 23", "zip-code": 10405, "lat": 52.53562, "lon": 13.4214, "planning-area-id": 3701556}}, {"type": "Feature", "geometry": {"type": "Point", "coordinates": [13.52961, 52.43229]}, "properties": {"id": "639281322", "name": "Studentisches Begegnungszentrum Motorenprüfstand", "street": "Newtonstraße 16", "zip-code": 12489, "lat": 52.43229, "lon": 13.52961, "planning-area-id": 9200715}}, {"type": "Feature", "geometry": {"type": "Point", "coordinates": [13.53827, 52.52815]}, "properties": {"id": "643056998", "name": "Lara Beach", "street": "Helene-Weigel-Platz 4", "zip-code": 12681, "lat": 52.52815, "lon": 13.53827, "planning-area-id": 10100312}}, {"type": "Feature", "geometry": {"type": "Point", "coordinates": [13.39148, 52.55401]}, "properties": {"id": "643494404", "name": "Dilekerei", "street": "Eulerstraße 11b", "zip-code": 13357, "lat": 52.55401, "lon": 13.39148, "planning-area-id": 1300733}}, {"type": "Feature", "geometry": {"type": "Point", "coordinates": [13.53824, 52.52828]}, "properties": {"id": "644618647", "name": "Bica Billard & Café", "street": "Helene-Weigel-Platz 4", "zip-code": 12681, "lat": 52.52828, "lon": 13.53824, "planning-area-id": 10100312}}, {"type": "Feature", "geometry": {"type": "Point", "coordinates": [13.33021, 52.50437]}, "properties": {"id": "645413268", "name": "Black Bottle", "lat": 52.50437, "lon": 13.33021, "planning-area-id": 4501042}}, {"type": "Feature", "geometry": {"type": "Point", "coordinates": [13.49442, 52.50294]}, "properties": {"id": "647907957", "name": "Kleines Cafe", "lat": 52.50294, "lon": 13.49442, "planning-area-id": 11400929}}, {"type": "Feature", "geometry": {"type": "Point", "coordinates": [13.20879, 52.50951]}, "properties": {"id": "648259071", "lat": 52.50951, "lon": 13.20879, "planning-area-id": 5200634}}, {"type": "Feature", "geometry": {"type": "Point", "coordinates": [13.21143, 52.50954]}, "properties": {"id": "648259073", "name": "Captains Inn am Stößensee", "lat": 52.50954, "lon": 13.21143, "planning-area-id": 5200634}}, {"type": "Feature", "geometry": {"type": "Point", "coordinates": [13.32618, 52.51196]}, "properties": {"id": "651452392", "name": "Coffeebar Wetterleuchten", "street": "Straße des 17. Juni 135", "zip-code": 10623, "lat": 52.51196, "lon": 13.32618, "planning-area-id": 4300622}}, {"type": "Feature", "geometry": {"type": "Point", "coordinates": [13.42446, 52.5469]}, "properties": {"id": "652440986", "name": "Easy Peasy", "street": "Wichertstraße 33a", "zip-code": 10439, "lat": 52.5469, "lon": 13.42446, "planning-area-id": 3601244}}, {"type": "Feature", "geometry": {"type": "Point", "coordinates": [13.4541, 52.51044]}, "properties": {"id": "654401099", "name": "Spielwiese", "street": "Kopernikusstraße 24", "zip-code": 10245, "lat": 52.51044, "lon": 13.4541, "planning-area-id": 2500833}}, {"type": "Feature", "geometry": {"type": "Point", "coordinates": [13.48523, 52.51225]}, "properties": {"id": "655146770", "name": "Becks Bäckerei & Bistro", "street": "Frankfurter Allee 172", "zip-code": 10365, "lat": 52.51225, "lon": 13.48523, "planning-area-id": 11300826}}, {"type": "Feature", "geometry": {"type": "Point", "coordinates": [13.43344, 52.47233]}, "properties": {"id": "658617876", "name": "Pee Pees Katzencafé", "street": "Thomasstraße 53", "zip-code": 12053, "lat": 52.47233, "lon": 13.43344, "planning-area-id": 8100208}}, {"type": "Feature", "geometry": {"type": "Point", "coordinates": [13.30538, 52.5135]}, "properties": {"id": "661126955", "name": "Exclusive Coffee", "street": "Zillestraße 74", "zip-code": 10585, "lat": 52.5135, "lon": 13.30538, "planning-area-id": 4300621}}, {"type": "Feature", "geometry": {"type": "Point", "coordinates": [13.30052, 52.51564]}, "properties": {"id": "661126957", "name": "Kira‘s", "street": "Kaiser-Friedrich-Straße 11", "zip-code": 10585, "lat": 52.51564, "lon": 13.30052, "planning-area-id": 4300414}}, {"type": "Feature", "geometry": {"type": "Point", "coordinates": [13.30457, 52.5153]}, "properties": {"id": "661126968", "name": "Schlesische Backstube Hutzelmann", "street": "Wilmersdorfer Straße 19", "zip-code": 10585, "lat": 52.5153, "lon": 13.30457, "planning-area-id": 4300621}}, {"type": "Feature", "geometry": {"type": "Point", "coordinates": [13.28184, 52.47776]}, "properties": {"id": "662869978", "name": "Wiener Conditorei Caffeehaus", "street": "Hohenzollerndamm 92", "zip-code": 14199, "lat": 52.47776, "lon": 13.28184, "planning-area-id": 4400727}}, {"type": "Feature", "geometry": {"type": "Point", "coordinates": [13.29227, 52.47452]}, "properties": {"id": "664244050", "name": "Oase", "lat": 52.47452, "lon": 13.29227, "planning-area-id": 4400832}}, {"type": "Feature", "geometry": {"type": "Point", "coordinates": [13.30147, 52.48864]}, "properties": {"id": "666388873", "name": "Tillmann", "street": "Hohenzollerndamm 47a", "zip-code": 10713, "lat": 52.48864, "lon": 13.30147, "planning-area-id": 4500939}}, {"type": "Feature", "geometry": {"type": "Point", "coordinates": [13.26861, 52.5113]}, "properties": {"id": "667211344", "name": "Café Thiel", "lat": 52.5113, "lon": 13.26861, "planning-area-id": 4200310}}, {"type": "Feature", "geometry": {"type": "Point", "coordinates": [13.26041, 52.51595]}, "properties": {"id": "667211368", "name": "Wiener Caffeehaus", "lat": 52.51595, "lon": 13.26041, "planning-area-id": 4200310}}, {"type": "Feature", "geometry": {"type": "Point", "coordinates": [13.26222, 52.51579]}, "properties": {"id": "667211390", "name": "Café Kuhn", "lat": 52.51579, "lon": 13.26222, "planning-area-id": 4200308}}, {"type": "Feature", "geometry": {"type": "Point", "coordinates": [13.46237, 52.51475]}, "properties": {"id": "667890052", "name": "Die Garbe", "street": "Frankfurter Allee 40", "zip-code": 10247, "lat": 52.51475, "lon": 13.46237, "planning-area-id": 2500830}}, {"type": "Feature", "geometry": {"type": "Point", "coordinates": [13.40846, 52.53764]}, "properties": {"id": "667893376", "name": "The Kafé", "street": "Kastanienallee 24", "zip-code": 10435, "lat": 52.53764, "lon": 13.40846, "planning-area-id": 3701554}}, {"type": "Feature", "geometry": {"type": "Point", "coordinates": [13.25235, 52.44979]}, "properties": {"id": "668246088", "name": "Toms Kaffeerösterei", "street": "Ladenstraße 50-52", "zip-code": 14169, "lat": 52.44979, "lon": 13.25235, "planning-area-id": 6400840}}, {"type": "Feature", "geometry": {"type": "Point", "coordinates": [13.39325, 52.48934]}, "properties": {"id": "668953779", "name": "Coffee Cult", "street": "Bergmannstraße 89", "zip-code": 10961, "lat": 52.48934, "lon": 13.39325, "planning-area-id": 2200211}}, {"type": "Feature", "geometry": {"type": "Point", "coordinates": [13.39262, 52.48941]}, "properties": {"id": "668954190", "name": "Jederzeit", "street": "Bergmannstraße 92", "zip-code": 10961, "lat": 52.48941, "lon": 13.39262, "planning-area-id": 2200211}}, {"type": "Feature", "geometry": {"type": "Point", "coordinates": [13.352, 52.48045]}, "properties": {"id": "670658006", "name": "Gümüs", "street": "Dominicusstraße 43", "zip-code": 10827, "lat": 52.48045, "lon": 13.352, "planning-area-id": 7200410}}, {"type": "Feature", "geometry": {"type": "Point", "coordinates": [13.30252, 52.60002]}, "properties": {"id": "675503721", "name": "Eiscafé Angelina", "lat": 52.60002, "lon": 13.30252, "planning-area-id": 12500824}}, {"type": "Feature", "geometry": {"type": "Point", "coordinates": [13.40734, 52.53924]}, "properties": {"id": "676633343", "name": "Kauf dich glücklich", "street": "Oderberger Straße 44", "zip-code": 10435, "lat": 52.53924, "lon": 13.40734, "planning-area-id": 3701554}}, {"type": "Feature", "geometry": {"type": "Point", "coordinates": [13.26146, 52.43623]}, "properties": {"id": "676897955", "name": "Café Lebensart", "lat": 52.43623, "lon": 13.26146, "planning-area-id": 6400841}}, {"type": "Feature", "geometry": {"type": "Point", "coordinates": [13.41365, 52.559]}, "properties": {"id": "677826168", "name": "Café La Vineta", "street": "Berliner Straße 92", "zip-code": 13189, "lat": 52.559, "lon": 13.41365, "planning-area-id": 3400827}}, {"type": "Feature", "geometry": {"type": "Point", "coordinates": [13.29274, 52.45788]}, "properties": {"id": "678901089", "name": "Olivchen", "street": "Königin-Luise-Straße 38", "zip-code": 14195, "lat": 52.45788, "lon": 13.29274, "planning-area-id": 6400843}}, {"type": "Feature", "geometry": {"type": "Point", "coordinates": [13.41927, 52.54543]}, "properties": {"id": "679118943", "name": "Cinnamon & Sugar", "street": "Lychener Straße 63", "zip-code": 10437, "lat": 52.54543, "lon": 13.41927, "planning-area-id": 3601347}}, {"type": "Feature", "geometry": {"type": "Point", "coordinates": [13.23063, 52.60825]}, "properties": {"id": "679671722", "name": "Café Feldblick", "lat": 52.60825, "lon": 13.23063, "planning-area-id": 12400619}}, {"type": "Feature", "geometry": {"type": "Point", "coordinates": [13.48924, 52.51246]}, "properties": {"id": "687075341", "name": "U-Back", "lat": 52.51246, "lon": 13.48924, "planning-area-id": 11300724}}, {"type": "Feature", "geometry": {"type": "Point", "coordinates": [13.41443, 52.5427]}, "properties": {"id": "687399427", "name": "Cafe Amelie Coffee and Breakfast", "street": "Pappelallee 11", "zip-code": 10437, "lat": 52.5427, "lon": 13.41443, "planning-area-id": 3601347}}, {"type": "Feature", "geometry": {"type": "Point", "coordinates": [13.42388, 52.49059]}, "properties": {"id": "691297105", "name": "Demlik Cafe & Restaurant", "zip-code": 10967, "lat": 52.49059, "lon": 13.42388, "planning-area-id": 8100311}}, {"type": "Feature", "geometry": {"type": "Point", "coordinates": [13.32512, 52.45548]}, "properties": {"id": "691484585", "name": "9 to 5", "street": "Albrechtstraße 11", "zip-code": 12165, "lat": 52.45548, "lon": 13.32512, "planning-area-id": 6100102}}, {"type": "Feature", "geometry": {"type": "Point", "coordinates": [13.34207, 52.50467]}, "properties": {"id": "693830507", "name": "Cafe Bäckerei", "street": "Kurfürstenstraße 101", "zip-code": 10787, "lat": 52.50467, "lon": 13.34207, "planning-area-id": 7100101}}, {"type": "Feature", "geometry": {"type": "Point", "coordinates": [13.30723, 52.50407]}, "properties": {"id": "693892027", "name": "Schneewittchen", "zip-code": 10629, "lat": 52.50407, "lon": 13.30723, "planning-area-id": 4501040}}, {"type": "Feature", "geometry": {"type": "Point", "coordinates": [13.32087, 52.50299]}, "properties": {"id": "693892088", "name": "einhorn", "zip-code": 10629, "lat": 52.50299, "lon": 13.32087, "planning-area-id": 4501041}}, {"type": "Feature", "geometry": {"type": "Point", "coordinates": [13.2959, 52.49745]}, "properties": {"id": "695831701", "name": "Tre Terre", "street": "Joachim-Friedrich-Straße 45", "zip-code": 10711, "lat": 52.49745, "lon": 13.2959, "planning-area-id": 4500938}}, {"type": "Feature", "geometry": {"type": "Point", "coordinates": [13.32467, 52.49149]}, "properties": {"id": "699851948", "name": "Café Steinecke", "lat": 52.49149, "lon": 13.32467, "planning-area-id": 4501149}}, {"type": "Feature", "geometry": {"type": "Point", "coordinates": [13.32529, 52.49142]}, "properties": {"id": "699851950", "name": "Glückscafé", "street": "Güntzelstraße 22", "zip-code": 10717, "lat": 52.49142, "lon": 13.32529, "planning-area-id": 4501149}}, {"type": "Feature", "geometry": {"type": "Point", "coordinates": [13.41159, 52.5401]}, "properties": {"id": "700761160", "name": "An einem Sonntag im August", "street": "Kastanienallee 103", "zip-code": 10435, "lat": 52.5401, "lon": 13.41159, "planning-area-id": 3701554}}, {"type": "Feature", "geometry": {"type": "Point", "coordinates": [13.41267, 52.54302]}, "properties": {"id": "703501026", "name": "Jute Bäckerei", "street": "Schönhauser Allee 52A", "zip-code": 10437, "lat": 52.54302, "lon": 13.41267, "planning-area-id": 3601346}}, {"type": "Feature", "geometry": {"type": "Point", "coordinates": [13.37495, 52.54802]}, "properties": {"id": "703607113", "name": "Cafe Adam", "street": "Pankstraße 27", "lat": 52.54802, "lon": 13.37495, "planning-area-id": 1300836}}, {"type": "Feature", "geometry": {"type": "Point", "coordinates": [13.34092, 52.48841]}, "properties": {"id": "704913843", "name": "Bella Italia", "lat": 52.48841, "lon": 13.34092, "planning-area-id": 7200307}}, {"type": "Feature", "geometry": {"type": "Point", "coordinates": [13.36913, 52.54502]}, "properties": {"id": "707417295", "name": "Œuf", "street": "Reinickendorfer Straße 110", "zip-code": 13347, "lat": 52.54502, "lon": 13.36913, "planning-area-id": 1401043}}, {"type": "Feature", "geometry": {"type": "Point", "coordinates": [13.38218, 52.5522]}, "properties": {"id": "707490376", "name": "Eis Boutique", "lat": 52.5522, "lon": 13.38218, "planning-area-id": 1300733}}, {"type": "Feature", "geometry": {"type": "Point", "coordinates": [13.2939, 52.50513]}, "properties": {"id": "715911570", "name": "Café Phoenix", "street": "Witzlebenstraße 21", "zip-code": 14057, "lat": 52.50513, "lon": 13.2939, "planning-area-id": 4300416}}, {"type": "Feature", "geometry": {"type": "Point", "coordinates": [13.29778, 52.50996]}, "properties": {"id": "715911667", "name": "Caffé e Panini", "lat": 52.50996, "lon": 13.29778, "planning-area-id": 4300416}}, {"type": "Feature", "geometry": {"type": "Point", "coordinates": [13.29439, 52.50662]}, "properties": {"id": "718143769", "name": "Café Beatz", "street": "Neue Kantstraße 32", "zip-code": 14057, "lat": 52.50662, "lon": 13.29439, "planning-area-id": 4300416}}, {"type": "Feature", "geometry": {"type": "Point", "coordinates": [13.25822, 52.50784]}, "properties": {"id": "718143866", "name": "Adiks Stehcafé", "street": "Soldauer Allee 22A", "zip-code": 14055, "lat": 52.50784, "lon": 13.25822, "planning-area-id": 4200207}}, {"type": "Feature", "geometry": {"type": "Point", "coordinates": [13.29419, 52.50614]}, "properties": {"id": "718143873", "name": "Suarez Café", "zip-code": 14057, "lat": 52.50614, "lon": 13.29419, "planning-area-id": 4300416}}, {"type": "Feature", "geometry": {"type": "Point", "coordinates": [13.30272, 52.49964]}, "properties": {"id": "718143894", "name": "Kids Planet", "street": "Damaschkestraße 4", "zip-code": 10711, "lat": 52.49964, "lon": 13.30272, "planning-area-id": 4500936}}, {"type": "Feature", "geometry": {"type": "Point", "coordinates": [13.41992, 52.53538]}, "properties": {"id": "721522044", "name": "Manufacture Delicate", "street": "Rykestraße 7", "zip-code": 10405, "lat": 52.53538, "lon": 13.41992, "planning-area-id": 3701556}}, {"type": "Feature", "geometry": {"type": "Point", "coordinates": [13.36615, 52.58434]}, "properties": {"id": "721907907", "name": "Sindbad", "lat": 52.58434, "lon": 13.36615, "planning-area-id": 3400619}}, {"type": "Feature", "geometry": {"type": "Point", "coordinates": [13.29276, 52.51812]}, "properties": {"id": "725941837", "name": "Café Reet", "street": "Klausenerplatz 5", "zip-code": 14059, "lat": 52.51812, "lon": 13.29276, "planning-area-id": 4300413}}, {"type": "Feature", "geometry": {"type": "Point", "coordinates": [13.31477, 52.47405]}, "properties": {"id": "726126783", "name": "R3 Coffee Lounge", "street": "Rüdesheimer Straße 1", "zip-code": 14197, "lat": 52.47405, "lon": 13.31477, "planning-area-id": 4400835}}, {"type": "Feature", "geometry": {"type": "Point", "coordinates": [13.36067, 52.48656]}, "properties": {"id": "727851984", "name": "ess eins", "lat": 52.48656, "lon": 13.36067, "planning-area-id": 7200411}}, {"type": "Feature", "geometry": {"type": "Point", "coordinates": [13.34939, 52.49056]}, "properties": {"id": "727852032", "name": "Coffee House", "street": "Eisenacher Straße 87-88", "zip-code": 10781, "lat": 52.49056, "lon": 13.34939, "planning-area-id": 7100204}}, {"type": "Feature", "geometry": {"type": "Point", "coordinates": [13.35416, 52.49458]}, "properties": {"id": "727852043", "name": "Winterfeldt Schokoladen", "street": "Goltzstraße 23", "zip-code": 10781, "lat": 52.49458, "lon": 13.35416, "planning-area-id": 7100204}}, {"type": "Feature", "geometry": {"type": "Point", "coordinates": [13.33777, 52.52381]}, "properties": {"id": "728708454", "name": "Fiaker", "street": "Bochumer Straße 5", "zip-code": 10555, "lat": 52.52381, "lon": 13.33777, "planning-area-id": 1200522}}, {"type": "Feature", "geometry": {"type": "Point", "coordinates": [13.38216, 52.55176]}, "properties": {"id": "729587083", "name": "Lezziz", "lat": 52.55176, "lon": 13.38216, "planning-area-id": 1300836}}, {"type": "Feature", "geometry": {"type": "Point", "coordinates": [13.36405, 52.49711]}, "properties": {"id": "730172932", "name": "Stehcafé 72", "lat": 52.49711, "lon": 13.36405, "planning-area-id": 7100205}}, {"type": "Feature", "geometry": {"type": "Point", "coordinates": [13.39591, 52.53919]}, "properties": {"id": "734960871", "name": "Burak Künefe", "street": "Brunnenstraße 56", "lat": 52.53919, "lon": 13.39591, "planning-area-id": 1300834}}, {"type": "Feature", "geometry": {"type": "Point", "coordinates": [13.56297, 52.44684]}, "properties": {"id": "735944524", "name": "Romy Café & Bistro", "street": "Ottomar-Geschke-Straße 44", "zip-code": 12555, "lat": 52.44684, "lon": 13.56297, "planning-area-id": 9200818}}, {"type": "Feature", "geometry": {"type": "Point", "coordinates": [13.4783, 52.52683]}, "properties": {"id": "737197006", "name": "Kaffee-Haus Madlen", "lat": 52.52683, "lon": 13.4783, "planning-area-id": 11300617}}, {"type": "Feature", "geometry": {"type": "Point", "coordinates": [13.64535, 52.34824]}, "properties": {"id": "738604733", "name": "Café Heideklause", "lat": 52.34824, "lon": 13.64535, "planning-area-id": 9301228}}, {"type": "Feature", "geometry": {"type": "Point", "coordinates": [13.34653, 52.43633]}, "properties": {"id": "739939511", "name": "Alpen-Eis", "street": "Schulstraße 1", "zip-code": 12247, "lat": 52.43633, "lon": 13.34653, "planning-area-id": 6200313}}, {"type": "Feature", "geometry": {"type": "Point", "coordinates": [13.46326, 52.425]}, "properties": {"id": "742015772", "name": "Café Happiness", "lat": 52.425, "lon": 13.46326, "planning-area-id": 8300935}}, {"type": "Feature", "geometry": {"type": "Point", "coordinates": [13.43864, 52.48878]}, "properties": {"id": "745680952", "name": "RUDIMARIE + missismiller", "street": "Weichselstraße 35", "zip-code": 12045, "lat": 52.48878, "lon": 13.43864, "planning-area-id": 8100312}}, {"type": "Feature", "geometry": {"type": "Point", "coordinates": [13.4311, 52.48772]}, "properties": {"id": "745732665", "name": "Ketori Coffee", "street": "Weserstraße 202", "zip-code": 12047, "lat": 52.48772, "lon": 13.4311, "planning-area-id": 8100311}}, {"type": "Feature", "geometry": {"type": "Point", "coordinates": [13.32638, 52.4867]}, "properties": {"id": "747493591", "name": "Les Baguettes", "street": "Berliner Straße 22", "zip-code": 10715, "lat": 52.4867, "lon": 13.32638, "planning-area-id": 4501149}}, {"type": "Feature", "geometry": {"type": "Point", "coordinates": [13.33385, 52.49053]}, "properties": {"id": "747493608", "name": "Merenda Snacks & Spezialitäten aus Italien", "street": "Güntzelstraße 63", "zip-code": 10717, "lat": 52.49053, "lon": 13.33385, "planning-area-id": 4501152}}, {"type": "Feature", "geometry": {"type": "Point", "coordinates": [13.40202, 52.58707]}, "properties": {"id": "747528357", "name": "Café maximal", "street": "Dietzgenstraße 68", "zip-code": 13156, "lat": 52.58707, "lon": 13.40202, "planning-area-id": 3200207}}, {"type": "Feature", "geometry": {"type": "Point", "coordinates": [13.40155, 52.58036]}, "properties": {"id": "750621200", "name": "Blauer Stern", "street": "Hermann-Hesse-Straße 11", "zip-code": 13156, "lat": 52.58036, "lon": 13.40155, "planning-area-id": 3200206}}, {"type": "Feature", "geometry": {"type": "Point", "coordinates": [13.45458, 52.47272]}, "properties": {"id": "752878303", "name": "That Pink Café", "street": "Schwarzastraße 9", "zip-code": 12055, "lat": 52.47272, "lon": 13.45458, "planning-area-id": 8100417}}, {"type": "Feature", "geometry": {"type": "Point", "coordinates": [13.45106, 52.47195]}, "properties": {"id": "752903324", "name": "Café Dejavu", "street": "Niemetzstraße 22", "zip-code": 12055, "lat": 52.47195, "lon": 13.45106, "planning-area-id": 8100417}}, {"type": "Feature", "geometry": {"type": "Point", "coordinates": [13.44479, 52.47375]}, "properties": {"id": "752995885", "name": "Gülays Kitchen", "street": "Richardplatz 15", "zip-code": 12055, "lat": 52.47375, "lon": 13.44479, "planning-area-id": 8100416}}, {"type": "Feature", "geometry": {"type": "Point", "coordinates": [13.30841, 52.497]}, "properties": {"id": "760035387", "name": "Kindercafé Wunderland", "street": "Düsseldorfer Straße 40", "zip-code": 10707, "lat": 52.497, "lon": 13.30841, "planning-area-id": 4501043}}, {"type": "Feature", "geometry": {"type": "Point", "coordinates": [13.3748, 52.50844]}, "properties": {"id": "766467492", "name": "The Barn", "street": "Alte Potsdamer Straße 5", "lat": 52.50844, "lon": 13.3748, "planning-area-id": 1100102}}, {"type": "Feature", "geometry": {"type": "Point", "coordinates": [13.3747, 52.50835]}, "properties": {"id": "766467493", "name": "the coffee shop", "lat": 52.50835, "lon": 13.3747, "planning-area-id": 1100102}}, {"type": "Feature", "geometry": {"type": "Point", "coordinates": [13.4095, 52.49047]}, "properties": {"id": "766742164", "name": "Kiez Vegan", "street": "Körtestraße 22", "zip-code": 10967, "lat": 52.49047, "lon": 13.4095, "planning-area-id": 2200212}}, {"type": "Feature", "geometry": {"type": "Point", "coordinates": [13.54603, 52.438]}, "properties": {"id": "766875154", "name": "Eiscafé Venezia", "street": "Florian-Geyer-Straße 109a", "zip-code": 12489, "lat": 52.438, "lon": 13.54603, "planning-area-id": 9200716}}, {"type": "Feature", "geometry": {"type": "Point", "coordinates": [13.33365, 52.51529]}, "properties": {"id": "768569344", "name": "Einstein Kaffee", "street": "Wegelystraße 1", "zip-code": 10623, "lat": 52.51529, "lon": 13.33365, "planning-area-id": 4300620}}, {"type": "Feature", "geometry": {"type": "Point", "coordinates": [13.36326, 52.56645]}, "properties": {"id": "769850000", "name": "Cafe Irmak", "street": "Residenzstraße 122", "zip-code": 13409, "lat": 52.56645, "lon": 13.36326, "planning-area-id": 12100102}}, {"type": "Feature", "geometry": {"type": "Point", "coordinates": [13.34386, 52.5042]}, "properties": {"id": "771332593", "name": "Cafe Belmont", "lat": 52.5042, "lon": 13.34386, "planning-area-id": 7100101}}, {"type": "Feature", "geometry": {"type": "Point", "coordinates": [13.41929, 52.54059]}, "properties": {"id": "773342385", "name": "Häppies", "street": "Dunckerstraße 2", "zip-code": 10437, "lat": 52.54059, "lon": 13.41929, "planning-area-id": 3601348}}, {"type": "Feature", "geometry": {"type": "Point", "coordinates": [13.37508, 52.50904]}, "properties": {"id": "773640803", "name": "Panorama Punkt", "lat": 52.50904, "lon": 13.37508, "planning-area-id": 1100102}}, {"type": "Feature", "geometry": {"type": "Point", "coordinates": [13.41599, 52.5407]}, "properties": {"id": "774485383", "name": "Asmen Feinkost", "street": "Danziger Straße 19", "zip-code": 10435, "lat": 52.5407, "lon": 13.41599, "planning-area-id": 3601347}}, {"type": "Feature", "geometry": {"type": "Point", "coordinates": [13.32158, 52.45851]}, "properties": {"id": "775342935", "name": "Fendricks", "street": "Muthesiusstraße 1", "zip-code": 12163, "lat": 52.45851, "lon": 13.32158, "planning-area-id": 6100102}}, {"type": "Feature", "geometry": {"type": "Point", "coordinates": [13.3227, 52.45864]}, "properties": {"id": "775342945", "name": "Confiserie Reichert", "street": "Schloßstraße 96", "zip-code": 12163, "lat": 52.45864, "lon": 13.3227, "planning-area-id": 6100102}}, {"type": "Feature", "geometry": {"type": "Point", "coordinates": [13.31374, 52.5017]}, "properties": {"id": "775862458", "name": "Kant Café", "street": "Walter-Benjamin-Platz 8", "zip-code": 10629, "lat": 52.5017, "lon": 13.31374, "planning-area-id": 4501041}}, {"type": "Feature", "geometry": {"type": "Point", "coordinates": [13.31691, 52.50388]}, "properties": {"id": "775862467", "name": "Cali Bocca", "zip-code": 10629, "lat": 52.50388, "lon": 13.31691, "planning-area-id": 4501041}}, {"type": "Feature", "geometry": {"type": "Point", "coordinates": [13.31372, 52.50382]}, "properties": {"id": "775862481", "name": "Kame", "street": "Leibnizstraße 45", "zip-code": 10629, "lat": 52.50382, "lon": 13.31372, "planning-area-id": 4501041}}, {"type": "Feature", "geometry": {"type": "Point", "coordinates": [13.3224, 52.50399]}, "properties": {"id": "775862484", "name": "1900", "zip-code": 10623, "lat": 52.50399, "lon": 13.3224, "planning-area-id": 4501041}}, {"type": "Feature", "geometry": {"type": "Point", "coordinates": [13.30719, 52.5175]}, "properties": {"id": "776125571", "name": "KaraMels", "lat": 52.5175, "lon": 13.30719, "planning-area-id": 4300619}}, {"type": "Feature", "geometry": {"type": "Point", "coordinates": [13.41142, 52.53994]}, "properties": {"id": "778710960", "name": "Kaffee Marlene", "street": "Kastanienallee 103", "zip-code": 10435, "lat": 52.53994, "lon": 13.41142, "planning-area-id": 3701554}}, {"type": "Feature", "geometry": {"type": "Point", "coordinates": [13.41031, 52.53938]}, "properties": {"id": "778710965", "name": "Eis Bar", "lat": 52.53938, "lon": 13.41031, "planning-area-id": 3701554}}, {"type": "Feature", "geometry": {"type": "Point", "coordinates": [13.42016, 52.5341]}, "properties": {"id": "790502622", "name": "Bettyn Caty", "street": "Knaackstraße 8", "zip-code": 10405, "lat": 52.5341, "lon": 13.42016, "planning-area-id": 3701556}}, {"type": "Feature", "geometry": {"type": "Point", "coordinates": [13.60952, 52.53609]}, "properties": {"id": "792057080", "name": "Die Kiste", "street": "Heidenauer Straße 10", "zip-code": 12627, "lat": 52.53609, "lon": 13.60952, "planning-area-id": 10200524}}, {"type": "Feature", "geometry": {"type": "Point", "coordinates": [13.38953, 52.53552]}, "properties": {"id": "793020082", "name": "Bistro Grenzfall", "lat": 52.53552, "lon": 13.38953, "planning-area-id": 1300835}}, {"type": "Feature", "geometry": {"type": "Point", "coordinates": [13.41758, 52.50184]}, "properties": {"id": "794213642", "name": "Milch & Zucker", "street": "Oranienstraße 37", "zip-code": 10999, "lat": 52.50184, "lon": 13.41758, "planning-area-id": 2300314}}, {"type": "Feature", "geometry": {"type": "Point", "coordinates": [13.33865, 52.4629]}, "properties": {"id": "800128344", "name": "JamJam Eis", "lat": 52.4629, "lon": 13.33865, "planning-area-id": 6100209}}, {"type": "Feature", "geometry": {"type": "Point", "coordinates": [13.46885, 52.51264]}, "properties": {"id": "800786280", "name": "Herman Schulz", "street": "Finowstraße 33", "zip-code": 10247, "lat": 52.51264, "lon": 13.46885, "planning-area-id": 2500831}}, {"type": "Feature", "geometry": {"type": "Point", "coordinates": [13.40538, 52.53999]}, "properties": {"id": "802550080", "name": "Bonanza Coffee Heroes", "street": "Oderberger Straße 35", "zip-code": 10435, "lat": 52.53999, "lon": 13.40538, "planning-area-id": 3701554}}, {"type": "Feature", "geometry": {"type": "Point", "coordinates": [13.43359, 52.49843]}, "properties": {"id": "809726248", "name": "Cafe Isa Mitz", "street": "Görlitzer Straße 1", "zip-code": 10997, "lat": 52.49843, "lon": 13.43359, "planning-area-id": 2300418}}, {"type": "Feature", "geometry": {"type": "Point", "coordinates": [13.39981, 52.52302]}, "properties": {"id": "809927484", "name": "Café Neundrei", "street": "Monbijouplatz 2", "zip-code": 10178, "lat": 52.52302, "lon": 13.39981, "planning-area-id": 1100309}}, {"type": "Feature", "geometry": {"type": "Point", "coordinates": [13.35016, 52.53412]}, "properties": {"id": "811188490", "name": "Café Mantika", "street": "Rathenower Straße 34", "zip-code": 10559, "lat": 52.53412, "lon": 13.35016, "planning-area-id": 1200623}}, {"type": "Feature", "geometry": {"type": "Point", "coordinates": [13.29499, 52.44254]}, "properties": {"id": "813354337", "name": "Berliner Genussmanufaktur", "street": "Curtiusstraße 8", "zip-code": 12205, "lat": 52.44254, "lon": 13.29499, "planning-area-id": 6300634}}, {"type": "Feature", "geometry": {"type": "Point", "coordinates": [13.5676, 52.51876]}, "properties": {"id": "814185643", "name": "Caféteria", "street": "Warener Straße 7", "zip-code": 12683, "lat": 52.51876, "lon": 13.5676, "planning-area-id": 10300732}}, {"type": "Feature", "geometry": {"type": "Point", "coordinates": [13.39006, 52.50824]}, "properties": {"id": "821271943", "name": "Coffee Fellows", "street": "Friedrichstraße 204", "zip-code": 10117, "lat": 52.50824, "lon": 13.39006, "planning-area-id": 1100207}}, {"type": "Feature", "geometry": {"type": "Point", "coordinates": [13.41627, 52.54385]}, "properties": {"id": "823779622", "name": "Pakolat", "street": "Raumerstraße 40", "zip-code": 10437, "lat": 52.54385, "lon": 13.41627, "planning-area-id": 3601347}}, {"type": "Feature", "geometry": {"type": "Point", "coordinates": [13.28653, 52.45331]}, "properties": {"id": "823788770", "name": "CoffeeCross", "street": "Thielallee 34", "zip-code": 14195, "lat": 52.45331, "lon": 13.28653, "planning-area-id": 6400843}}, {"type": "Feature", "geometry": {"type": "Point", "coordinates": [13.35339, 52.49028]}, "properties": {"id": "831416217", "name": "Tee Tea Thé", "street": "Goltzstraße 2", "zip-code": 10781, "lat": 52.49028, "lon": 13.35339, "planning-area-id": 7100204}}, {"type": "Feature", "geometry": {"type": "Point", "coordinates": [13.36613, 52.55316]}, "properties": {"id": "832835292", "name": "Golden Bäcker & Eis Café", "lat": 52.55316, "lon": 13.36613, "planning-area-id": 1401049}}, {"type": "Feature", "geometry": {"type": "Point", "coordinates": [13.40255, 52.52506]}, "properties": {"id": "833111849", "street": "Sophienstraße 10", "zip-code": 10178, "lat": 52.52506, "lon": 13.40255, "planning-area-id": 1100309}}, {"type": "Feature", "geometry": {"type": "Point", "coordinates": [13.32821, 52.46426]}, "properties": {"id": "833164275", "name": "WonderWaffel", "street": "Schloßstraße 128", "zip-code": 12163, "lat": 52.46426, "lon": 13.32821, "planning-area-id": 6100103}}, {"type": "Feature", "geometry": {"type": "Point", "coordinates": [13.53556, 52.43311]}, "properties": {"id": "837695966", "name": "Bäckerei Wahl", "lat": 52.43311, "lon": 13.53556, "planning-area-id": 9200715}}, {"type": "Feature", "geometry": {"type": "Point", "coordinates": [13.40766, 52.53049]}, "properties": {"id": "839543566", "name": "L21", "street": "Lottumstraße 21", "zip-code": 10119, "lat": 52.53049, "lon": 13.40766, "planning-area-id": 3701554}}, {"type": "Feature", "geometry": {"type": "Point", "coordinates": [13.45713, 52.51144]}, "properties": {"id": "849634209", "name": "Fatoush", "street": "Simon-Dach-Straße 41a", "zip-code": 10245, "lat": 52.51144, "lon": 13.45713, "planning-area-id": 2500833}}, {"type": "Feature", "geometry": {"type": "Point", "coordinates": [13.48783, 52.55177]}, "properties": {"id": "849791887", "name": "Aquarium Café", "street": "Suermondtstraße 3", "zip-code": 13053, "lat": 52.55177, "lon": 13.48783, "planning-area-id": 11200512}}, {"type": "Feature", "geometry": {"type": "Point", "coordinates": [13.36228, 52.55211]}, "properties": {"id": "855341809", "name": "Karadeniz Lokali", "lat": 52.55211, "lon": 13.36228, "planning-area-id": 1401049}}, {"type": "Feature", "geometry": {"type": "Point", "coordinates": [13.41332, 52.53281]}, "properties": {"id": "858993575", "name": "LPG Bio-Bistro", "lat": 52.53281, "lon": 13.41332, "planning-area-id": 3701556}}, {"type": "Feature", "geometry": {"type": "Point", "coordinates": [13.3001, 52.52112]}, "properties": {"id": "861329092", "name": "Kudika", "street": "Charlottenburger Ufer 1", "zip-code": 10587, "lat": 52.52112, "lon": 13.3001, "planning-area-id": 4300619}}, {"type": "Feature", "geometry": {"type": "Point", "coordinates": [13.31471, 52.51432]}, "properties": {"id": "862030918", "name": "Café Mediterrane", "lat": 52.51432, "lon": 13.31471, "planning-area-id": 4300621}}, {"type": "Feature", "geometry": {"type": "Point", "coordinates": [13.42735, 52.4957]}, "properties": {"id": "862992897", "name": "Fourty Years", "street": "Lausitzer Straße 34", "zip-code": 10999, "lat": 52.4957, "lon": 13.42735, "planning-area-id": 2300417}}, {"type": "Feature", "geometry": {"type": "Point", "coordinates": [13.4101, 52.52083]}, "properties": {"id": "863057757", "name": "Espresso House", "street": "Panoramastraße 1A", "zip-code": 10178, "lat": 52.52083, "lon": 13.4101, "planning-area-id": 1100310}}, {"type": "Feature", "geometry": {"type": "Point", "coordinates": [13.41801, 52.4999]}, "properties": {"id": "865931269", "name": "Simitdchi", "street": "Adalbertstraße 97", "zip-code": 10999, "lat": 52.4999, "lon": 13.41801, "planning-area-id": 2300314}}, {"type": "Feature", "geometry": {"type": "Point", "coordinates": [13.41827, 52.50167]}, "properties": {"id": "866049060", "name": "luzia", "street": "Oranienstraße 34", "zip-code": 10999, "lat": 52.50167, "lon": 13.41827, "planning-area-id": 2300314}}, {"type": "Feature", "geometry": {"type": "Point", "coordinates": [13.41695, 52.5018]}, "properties": {"id": "867234044", "name": "Levent Börek", "street": "Oranienstraße 166", "zip-code": 10999, "lat": 52.5018, "lon": 13.41695, "planning-area-id": 2300314}}, {"type": "Feature", "geometry": {"type": "Point", "coordinates": [13.41896, 52.50108]}, "properties": {"id": "867271475", "name": "Café Três", "street": "Adalbertstraße 91", "zip-code": 10999, "lat": 52.50108, "lon": 13.41896, "planning-area-id": 2300314}}, {"type": "Feature", "geometry": {"type": "Point", "coordinates": [13.33086, 52.52734]}, "properties": {"id": "867497526", "name": "Pfau", "street": "Turmstraße 55", "zip-code": 10551, "lat": 52.52734, "lon": 13.33086, "planning-area-id": 1200519}}, {"type": "Feature", "geometry": {"type": "Point", "coordinates": [13.3299, 52.52544]}, "properties": {"id": "867497537", "name": "Eis Rialto", "lat": 52.52544, "lon": 13.3299, "planning-area-id": 1200521}}, {"type": "Feature", "geometry": {"type": "Point", "coordinates": [13.41696, 52.50236]}, "properties": {"id": "867734682", "name": "ART en chocolat", "street": "Oranienplatz 15", "zip-code": 10999, "lat": 52.50236, "lon": 13.41696, "planning-area-id": 2300314}}, {"type": "Feature", "geometry": {"type": "Point", "coordinates": [13.42005, 52.50117]}, "properties": {"id": "867751944", "name": "Smyrna Kuruyemis", "street": "Oranienstraße 27", "zip-code": 10999, "lat": 52.50117, "lon": 13.42005, "planning-area-id": 2300314}}, {"type": "Feature", "geometry": {"type": "Point", "coordinates": [13.41728, 52.49962]}, "properties": {"id": "871641850", "name": "Ağrı Efsanesi", "lat": 52.49962, "lon": 13.41728, "planning-area-id": 2300314}}, {"type": "Feature", "geometry": {"type": "Point", "coordinates": [13.42001, 52.50205]}, "properties": {"id": "872538359", "name": "By Leo", "lat": 52.50205, "lon": 13.42001, "planning-area-id": 2300314}}, {"type": "Feature", "geometry": {"type": "Point", "coordinates": [13.41815, 52.50014]}, "properties": {"id": "874274557", "name": "Cafe Kotti", "lat": 52.50014, "lon": 13.41815, "planning-area-id": 2300314}}, {"type": "Feature", "geometry": {"type": "Point", "coordinates": [13.41458, 52.50268]}, "properties": {"id": "874353331", "name": "ichorya", "street": "Oranienstraße 42", "zip-code": 10969, "lat": 52.50268, "lon": 13.41458, "planning-area-id": 2100104}}, {"type": "Feature", "geometry": {"type": "Point", "coordinates": [13.39297, 52.51635]}, "properties": {"id": "876181984", "name": "TIM’s Bakery & Deli", "street": "Bebelplatz 1", "zip-code": 10117, "lat": 52.51635, "lon": 13.39297, "planning-area-id": 1100206}}, {"type": "Feature", "geometry": {"type": "Point", "coordinates": [13.42849, 52.49836]}, "properties": {"id": "886097100", "name": "Café Mori", "street": "Wiener Straße 13", "zip-code": 10999, "lat": 52.49836, "lon": 13.42849, "planning-area-id": 2300417}}, {"type": "Feature", "geometry": {"type": "Point", "coordinates": [13.40539, 52.49589]}, "properties": {"id": "886309568", "name": "A.Horn", "street": "Carl-Herz-Ufer 9", "zip-code": 10961, "lat": 52.49589, "lon": 13.40539, "planning-area-id": 2200210}}, {"type": "Feature", "geometry": {"type": "Point", "coordinates": [13.33933, 52.52683]}, "properties": {"id": "895721094", "name": "Bistro Jonas Café", "street": "Jonasstraße 1", "zip-code": 10551, "lat": 52.52683, "lon": 13.33933, "planning-area-id": 1200520}}, {"type": "Feature", "geometry": {"type": "Point", "coordinates": [13.20111, 52.50592]}, "properties": {"id": "900404996", "name": "Seasidebar", "street": "Siemenswerderweg 50", "zip-code": 13595, "lat": 52.50592, "lon": 13.20111, "planning-area-id": 5200634}}, {"type": "Feature", "geometry": {"type": "Point", "coordinates": [13.37688, 52.53576]}, "properties": {"id": "910426655", "name": "Bistro DönerWerk", "street": "Chausseestraße 54", "zip-code": 10115, "lat": 52.53576, "lon": 13.37688, "planning-area-id": 1100414}}, {"type": "Feature", "geometry": {"type": "Point", "coordinates": [13.44168, 52.47945]}, "properties": {"id": "923413825", "name": "Pêle Mêle", "street": "Innstraße 26", "zip-code": 12043, "lat": 52.47945, "lon": 13.44168, "planning-area-id": 8100415}}, {"type": "Feature", "geometry": {"type": "Point", "coordinates": [13.14313, 52.41299]}, "properties": {"id": "925237927", "name": "Aux Delices Normands", "street": "Chausseestraße 2a", "zip-code": 14109, "lat": 52.41299, "lon": 13.14313, "planning-area-id": 6400735}}, {"type": "Feature", "geometry": {"type": "Point", "coordinates": [13.33789, 52.50448]}, "properties": {"id": "925524894", "name": "leo coffee", "lat": 52.50448, "lon": 13.33789, "planning-area-id": 4501042}}, {"type": "Feature", "geometry": {"type": "Point", "coordinates": [13.32951, 52.52712]}, "properties": {"id": "926945733", "name": "Baklava", "street": "Turmstraße 62", "zip-code": 10551, "lat": 52.52712, "lon": 13.32951, "planning-area-id": 1200521}}, {"type": "Feature", "geometry": {"type": "Point", "coordinates": [13.39627, 52.44037]}, "properties": {"id": "930288682", "name": "Park-Café", "lat": 52.44037, "lon": 13.39627, "planning-area-id": 7501032}}, {"type": "Feature", "geometry": {"type": "Point", "coordinates": [13.44391, 52.48474]}, "properties": {"id": "931622739", "name": "Zimt & Mehl", "street": "Weigandufer 16", "zip-code": 12045, "lat": 52.48474, "lon": 13.44391, "planning-area-id": 8100312}}, {"type": "Feature", "geometry": {"type": "Point", "coordinates": [13.32276, 52.51006]}, "properties": {"id": "932342550", "name": "Giro Coffee Bar", "street": "Knesebeckstraße 5", "zip-code": 10623, "lat": 52.51006, "lon": 13.32276, "planning-area-id": 4300624}}, {"type": "Feature", "geometry": {"type": "Point", "coordinates": [13.39435, 52.49057]}, "properties": {"id": "935637567", "name": "cuccuma", "lat": 52.49057, "lon": 13.39435, "planning-area-id": 2200211}}, {"type": "Feature", "geometry": {"type": "Point", "coordinates": [13.39466, 52.52707]}, "properties": {"id": "937913621", "name": "Bravo", "street": "Auguststraße 69", "zip-code": 10117, "lat": 52.52707, "lon": 13.39466, "planning-area-id": 1100309}}, {"type": "Feature", "geometry": {"type": "Point", "coordinates": [13.29639, 52.46439]}, "properties": {"id": "940815668", "name": "La Vie", "lat": 52.46439, "lon": 13.29639, "planning-area-id": 6400844}}, {"type": "Feature", "geometry": {"type": "Point", "coordinates": [13.41121, 52.4913]}, "properties": {"id": "941375461", "name": "monsieur ibrahim", "street": "Körtestraße 8", "zip-code": 10967, "lat": 52.4913, "lon": 13.41121, "planning-area-id": 2200212}}, {"type": "Feature", "geometry": {"type": "Point", "coordinates": [13.3673, 52.50905]}, "properties": {"id": "944470505", "name": "Café Estrade", "lat": 52.50905, "lon": 13.3673, "planning-area-id": 1100102}}, {"type": "Feature", "geometry": {"type": "Point", "coordinates": [13.41749, 52.53493]}, "properties": {"id": "945649942", "name": "Guth", "street": "Knaackstraße 33", "lat": 52.53493, "lon": 13.41749, "planning-area-id": 3701556}}, {"type": "Feature", "geometry": {"type": "Point", "coordinates": [13.40827, 52.48872]}, "properties": {"id": "959238592", "name": "Kouskous Café Bar", "lat": 52.48872, "lon": 13.40827, "planning-area-id": 8100101}}, {"type": "Feature", "geometry": {"type": "Point", "coordinates": [13.3925, 52.52746]}, "properties": {"id": "961626565", "name": "Kame", "street": "Linienstraße 113", "zip-code": 10115, "lat": 52.52746, "lon": 13.3925, "planning-area-id": 1100309}}, {"type": "Feature", "geometry": {"type": "Point", "coordinates": [13.39462, 52.48791]}, "properties": {"id": "970422265", "name": "Golightly", "street": "Friesenstraße 22", "zip-code": 10965, "lat": 52.48791, "lon": 13.39462, "planning-area-id": 2200211}}, {"type": "Feature", "geometry": {"type": "Point", "coordinates": [13.47251, 52.5164]}, "properties": {"id": "971891546", "name": "QG - Café Français", "street": "Pettenkoferstraße 6", "zip-code": 10247, "lat": 52.5164, "lon": 13.47251, "planning-area-id": 2500729}}, {"type": "Feature", "geometry": {"type": "Point", "coordinates": [13.43152, 52.53184]}, "properties": {"id": "974389011", "name": "Camino", "street": "Hufelandstraße 16", "zip-code": 10407, "lat": 52.53184, "lon": 13.43152, "planning-area-id": 3701660}}, {"type": "Feature", "geometry": {"type": "Point", "coordinates": [13.27724, 52.50595]}, "properties": {"id": "974393040", "name": "Messesnack Kleiner Stern", "lat": 52.50595, "lon": 13.27724, "planning-area-id": 4200311}}, {"type": "Feature", "geometry": {"type": "Point", "coordinates": [13.39621, 52.51694]}, "properties": {"id": "975136815", "name": "LePopulaire", "street": "Unter den Linden 5", "zip-code": 10117, "lat": 52.51694, "lon": 13.39621, "planning-area-id": 1100206}}, {"type": "Feature", "geometry": {"type": "Point", "coordinates": [13.40038, 52.52259]}, "properties": {"id": "975312178", "name": "Viadukt Bistro", "lat": 52.52259, "lon": 13.40038, "planning-area-id": 1100309}}, {"type": "Feature", "geometry": {"type": "Point", "coordinates": [13.40208, 52.52319]}, "properties": {"id": "975312193", "name": "Starbucks", "street": "Neue Promenade 3", "zip-code": 10178, "lat": 52.52319, "lon": 13.40208, "planning-area-id": 1100309}}, {"type": "Feature", "geometry": {"type": "Point", "coordinates": [13.45404, 52.50687]}, "properties": {"id": "975693680", "name": "Skatehalle Berlin", "lat": 52.50687, "lon": 13.45404, "planning-area-id": 2500834}}, {"type": "Feature", "geometry": {"type": "Point", "coordinates": [13.39621, 52.53158]}, "properties": {"id": "978979323", "name": "soopoollim", "street": "Ackerstraße 149", "zip-code": 10115, "lat": 52.53158, "lon": 13.39621, "planning-area-id": 1100415}}, {"type": "Feature", "geometry": {"type": "Point", "coordinates": [13.44257, 52.47216]}, "properties": {"id": "980767608", "name": "Café Vux", "street": "Wipperstraße 14", "zip-code": 12055, "lat": 52.47216, "lon": 13.44257, "planning-area-id": 8100417}}, {"type": "Feature", "geometry": {"type": "Point", "coordinates": [13.39765, 52.54614]}, "properties": {"id": "988995654", "name": "Tortenwerkstatt", "street": "Gleimstraße 6", "zip-code": 13355, "lat": 52.54614, "lon": 13.39765, "planning-area-id": 1300834}}, {"type": "Feature", "geometry": {"type": "Point", "coordinates": [13.39111, 52.52009]}, "properties": {"id": "989022916", "name": "Pure Origins", "street": "Georgenstraße 193", "zip-code": 10117, "lat": 52.52009, "lon": 13.39111, "planning-area-id": 1100206}}, {"type": "Feature", "geometry": {"type": "Point", "coordinates": [13.34413, 52.43882]}, "properties": {"id": "992805974", "name": "Malibu", "street": "Leonorenstraße 71a", "zip-code": 12247, "lat": 52.43882, "lon": 13.34413, "planning-area-id": 6200313}}, {"type": "Feature", "geometry": {"type": "Point", "coordinates": [13.32732, 52.42975]}, "properties": {"id": "992806068", "name": "Cafe Rosenduft", "street": "Jungfernstieg 4b", "zip-code": 12207, "lat": 52.42975, "lon": 13.32732, "planning-area-id": 6200421}}, {"type": "Feature", "geometry": {"type": "Point", "coordinates": [13.40986, 52.5383]}, "properties": {"id": "993801825", "name": "Barista", "street": "Oderberger Straße 54", "zip-code": 10435, "lat": 52.5383, "lon": 13.40986, "planning-area-id": 3701554}}, {"type": "Feature", "geometry": {"type": "Point", "coordinates": [13.38653, 52.50998]}, "properties": {"id": "994711625", "name": "Das Kaffeehaus", "street": "Leipziger Straße 16", "zip-code": 10117, "lat": 52.50998, "lon": 13.38653, "planning-area-id": 1100205}}, {"type": "Feature", "geometry": {"type": "Point", "coordinates": [13.42364, 52.49097]}, "properties": {"id": "997194050", "name": "La Femme", "lat": 52.49097, "lon": 13.42364, "planning-area-id": 8100311}}, {"type": "Feature", "geometry": {"type": "Point", "coordinates": [13.29514, 52.43798]}, "properties": {"id": "1006711174", "name": "Frau Lüske", "street": "Baseler Straße 46", "zip-code": 12205, "lat": 52.43798, "lon": 13.29514, "planning-area-id": 6300634}}, {"type": "Feature", "geometry": {"type": "Point", "coordinates": [13.30205, 52.50657]}, "properties": {"id": "1011764416", "name": "Limone", "lat": 52.50657, "lon": 13.30205, "planning-area-id": 4300416}}, {"type": "Feature", "geometry": {"type": "Point", "coordinates": [13.43555, 52.53296]}, "properties": {"id": "1029298838", "name": "cafézinho espresso-bar", "street": "Bötzowstraße 41", "zip-code": 10407, "lat": 52.53296, "lon": 13.43555, "planning-area-id": 3701660}}, {"type": "Feature", "geometry": {"type": "Point", "coordinates": [13.33053, 52.50394]}, "properties": {"id": "1041847871", "name": "Cinnamood", "street": "Kurfürstendamm 20", "zip-code": 10719, "lat": 52.50394, "lon": 13.33053, "planning-area-id": 4501042}}, {"type": "Feature", "geometry": {"type": "Point", "coordinates": [13.40717, 52.53526]}, "properties": {"id": "1057589896", "name": "Haliflor", "street": "Schwedter Straße 26", "zip-code": 10119, "lat": 52.53526, "lon": 13.40717, "planning-area-id": 3701554}}, {"type": "Feature", "geometry": {"type": "Point", "coordinates": [13.46555, 52.55373]}, "properties": {"id": "1059237503", "name": "Strandbad Weissensee", "lat": 52.55373, "lon": 13.46555, "planning-area-id": 3500933}}, {"type": "Feature", "geometry": {"type": "Point", "coordinates": [13.377, 52.52192]}, "properties": {"id": "1074960875", "name": "Bistro im Haus der Bundespressekonferenz", "street": "Schiffbauerdamm 40", "zip-code": 10117, "lat": 52.52192, "lon": 13.377, "planning-area-id": 1100308}}, {"type": "Feature", "geometry": {"type": "Point", "coordinates": [13.38456, 52.52185]}, "properties": {"id": "1075397105", "name": "Sag mir wo die Blumen sind", "street": "Albrechtstraße 9", "zip-code": 10117, "lat": 52.52185, "lon": 13.38456, "planning-area-id": 1100308}}, {"type": "Feature", "geometry": {"type": "Point", "coordinates": [13.44304, 52.50024]}, "properties": {"id": "1077639186", "name": "Casero", "street": "Schlesische Straße 6", "zip-code": 10997, "lat": 52.50024, "lon": 13.44304, "planning-area-id": 2300419}}, {"type": "Feature", "geometry": {"type": "Point", "coordinates": [13.44282, 52.50034]}, "properties": {"id": "1077639222", "name": "Cafe an Schlesi", "lat": 52.50034, "lon": 13.44282, "planning-area-id": 2300419}}, {"type": "Feature", "geometry": {"type": "Point", "coordinates": [13.25916, 52.43064]}, "properties": {"id": "1078531630", "name": "Backiyem", "lat": 52.43064, "lon": 13.25916, "planning-area-id": 6300526}}, {"type": "Feature", "geometry": {"type": "Point", "coordinates": [13.34908, 52.52279]}, "properties": {"id": "1078763320", "name": "zwölf.uhr.mittags", "street": "Kirchstraße 17", "zip-code": 10557, "lat": 52.52279, "lon": 13.34908, "planning-area-id": 1200626}}, {"type": "Feature", "geometry": {"type": "Point", "coordinates": [13.34917, 52.52413]}, "properties": {"id": "1078763398", "name": "coffeemamas", "street": "Kirchstraße 2", "zip-code": 10557, "lat": 52.52413, "lon": 13.34917, "planning-area-id": 1200626}}, {"type": "Feature", "geometry": {"type": "Point", "coordinates": [13.34919, 52.52419]}, "properties": {"id": "1078763413", "name": "Maxway Coffee", "street": "Kirchstraße 2", "zip-code": 10557, "lat": 52.52419, "lon": 13.34919, "planning-area-id": 1200626}}, {"type": "Feature", "geometry": {"type": "Point", "coordinates": [13.34929, 52.52443]}, "properties": {"id": "1078763421", "name": "moa", "street": "Kirchstraße 1", "zip-code": 10557, "lat": 52.52443, "lon": 13.34929, "planning-area-id": 1200626}}, {"type": "Feature", "geometry": {"type": "Point", "coordinates": [13.34921, 52.52313]}, "properties": {"id": "1078763424", "name": "cafépaci", "street": "Kirchstraße 19", "zip-code": 10557, "lat": 52.52313, "lon": 13.34921, "planning-area-id": 1200626}}, {"type": "Feature", "geometry": {"type": "Point", "coordinates": [13.256, 52.42891]}, "properties": {"id": "1082694815", "name": "CoffEy", "street": "Machnower Straße 6", "zip-code": 14165, "lat": 52.42891, "lon": 13.256, "planning-area-id": 6300524}}, {"type": "Feature", "geometry": {"type": "Point", "coordinates": [13.45515, 52.51021]}, "properties": {"id": "1092682874", "name": "The Spot", "street": "Kopernikusstraße 19", "zip-code": 10245, "lat": 52.51021, "lon": 13.45515, "planning-area-id": 2500833}}, {"type": "Feature", "geometry": {"type": "Point", "coordinates": [13.30979, 52.5023]}, "properties": {"id": "1108199052", "name": "Maître Münch", "street": "Giesebrechtstraße 16", "zip-code": 10629, "lat": 52.5023, "lon": 13.30979, "planning-area-id": 4501040}}, {"type": "Feature", "geometry": {"type": "Point", "coordinates": [13.43006, 52.47843]}, "properties": {"id": "1112868723", "name": "Amasya", "lat": 52.47843, "lon": 13.43006, "planning-area-id": 8100206}}, {"type": "Feature", "geometry": {"type": "Point", "coordinates": [13.27944, 52.47978]}, "properties": {"id": "1121340468", "name": "3gold", "lat": 52.47978, "lon": 13.27944, "planning-area-id": 4400728}}, {"type": "Feature", "geometry": {"type": "Point", "coordinates": [13.57563, 52.44492]}, "properties": {"id": "1126457748", "name": "Mokkafee", "street": "Grünstraße 21", "zip-code": 12555, "lat": 52.44492, "lon": 13.57563, "planning-area-id": 9401534}}, {"type": "Feature", "geometry": {"type": "Point", "coordinates": [13.40018, 52.56555]}, "properties": {"id": "1127766779", "name": "Café Paula", "lat": 52.56555, "lon": 13.40018, "planning-area-id": 3400721}}, {"type": "Feature", "geometry": {"type": "Point", "coordinates": [13.40379, 52.56538]}, "properties": {"id": "1127766843", "name": "Trivitys", "street": "Florastraße 27", "zip-code": 13187, "lat": 52.56538, "lon": 13.40379, "planning-area-id": 3400721}}, {"type": "Feature", "geometry": {"type": "Point", "coordinates": [13.52692, 52.50921]}, "properties": {"id": "1131533968", "name": "Coffeebar", "street": "Alt-Friedrichsfelde 60", "zip-code": 10315, "lat": 52.50921, "lon": 13.52692, "planning-area-id": 11401034}}, {"type": "Feature", "geometry": {"type": "Point", "coordinates": [13.19741, 52.52373]}, "properties": {"id": "1133787154", "name": "Rücker", "street": "Pichelsdorfer Straße 99", "zip-code": 13595, "lat": 52.52373, "lon": 13.19741, "planning-area-id": 5200630}}, {"type": "Feature", "geometry": {"type": "Point", "coordinates": [13.37088, 52.5645]},