{"type": "FeatureCollection", "features": [{"type": "Feature", "geometry": {"type": "Point", "coordinates": [13.29611, 52.49932]}, "properties": {"id": "63253672", "name": "Späti Joe", "street": "Joachim-Friedrich-Straße 39", "zip-code": 10711, "lat": 52.49932, "lon": 13.29611, "planning-area-id": 4500937}}, {"type": "Feature", "geometry": {"type": "Point", "coordinates": [13.14747, 52.54084]}, "properties": {"id": "141469102", "lat": 52.54084, "lon": 13.14747, "planning-area-id": 5200419}}, {"type": "Feature", "geometry": {"type": "Point", "coordinates": [13.46269, 52.51104]}, "properties": {"id": "253616592", "name": "Mein Markt Pham", "lat": 52.51104, "lon": 13.46269, "planning-area-id": 2500833}}, {"type": "Feature", "geometry": {"type": "Point", "coordinates": [13.58749, 52.5092]}, "properties": {"id": "266629404", "name": "...nah und gut", "street": "Mädewalder Weg 45", "zip-code": 12621, "lat": 52.5092, "lon": 13.58749, "planning-area-id": 10400836}}, {"type": "Feature", "geometry": {"type": "Point", "coordinates": [13.41653, 52.50178]}, "properties": {"id": "269475044", "name": "Milchladen", "street": "Dresdener Straße 20", "zip-code": 10999, "lat": 52.50178, "lon": 13.41653, "planning-area-id": 2300314}}, {"type": "Feature", "geometry": {"type": "Point", "coordinates": [13.39318, 52.49909]}, "properties": {"id": "277681454", "name": "Bagdad Lebensmittel", "lat": 52.49909, "lon": 13.39318, "planning-area-id": 2100102}}, {"type": "Feature", "geometry": {"type": "Point", "coordinates": [13.453, 52.50836]}, "properties": {"id": "278124916", "name": "Drinks & more", "street": "Revaler Straße 9", "zip-code": 10245, "lat": 52.50836, "lon": 13.453, "planning-area-id": 2500834}}, {"type": "Feature", "geometry": {"type": "Point", "coordinates": [13.46116, 52.51089]}, "properties": {"id": "282406641", "name": "Drink Oase", "street": "Gärtnerstraße 14", "zip-code": 10245, "lat": 52.51089, "lon": 13.46116, "planning-area-id": 2500833}}, {"type": "Feature", "geometry": {"type": "Point", "coordinates": [13.46021, 52.5125]}, "properties": {"id": "285079008", "name": "Drinkbox", "street": "Boxhagener Straße 102", "zip-code": 10245, "lat": 52.5125, "lon": 13.46021, "planning-area-id": 2500830}}, {"type": "Feature", "geometry": {"type": "Point", "coordinates": [13.46356, 52.4992]}, "properties": {"id": "286210165", "name": "Spätverkauf", "lat": 52.4992, "lon": 13.46356, "planning-area-id": 2500835}}, {"type": "Feature", "geometry": {"type": "Point", "coordinates": [13.40949, 52.52911]}, "properties": {"id": "287297820", "name": "Midnight Shop", "street": "Schönhauser Allee 188", "zip-code": 10119, "lat": 52.52911, "lon": 13.40949, "planning-area-id": 3701554}}, {"type": "Feature", "geometry": {"type": "Point", "coordinates": [13.57261, 52.39345]}, "properties": {"id": "304897065", "name": "Nhat Long", "street": "Waltersdorfer Straße 47", "zip-code": 12526, "lat": 52.39345, "lon": 13.57261, "planning-area-id": 9301025}}, {"type": "Feature", "geometry": {"type": "Point", "coordinates": [13.4177, 52.49246]}, "properties": {"id": "310267641", "name": "E-Kiezmarkt", "street": "Dieffenbachstraße 55", "zip-code": 10967, "lat": 52.49246, "lon": 13.4177, "planning-area-id": 2200213}}, {"type": "Feature", "geometry": {"type": "Point", "coordinates": [13.34309, 52.48089]}, "properties": {"id": "310377176", "name": "Mein Markt", "street": "Innsbrucker Straße 37", "zip-code": 10825, "lat": 52.48089, "lon": 13.34309, "planning-area-id": 7200308}}, {"type": "Feature", "geometry": {"type": "Point", "coordinates": [13.37647, 52.54291]}, "properties": {"id": "312820851", "name": "Spätkauf", "street": "Gerichtstraße 78", "zip-code": 13347, "lat": 52.54291, "lon": 13.37647, "planning-area-id": 1300836}}, {"type": "Feature", "geometry": {"type": "Point", "coordinates": [13.45196, 52.52575]}, "properties": {"id": "313874489", "name": "Asia Supermarket", "lat": 52.52575, "lon": 13.45196, "planning-area-id": 2500726}}, {"type": "Feature", "geometry": {"type": "Point", "coordinates": [13.45165, 52.52628]}, "properties": {"id": "313874493", "name": "Eren", "street": "Ebertystraße 52", "zip-code": 10249, "lat": 52.52628, "lon": 13.45165, "planning-area-id": 2500726}}, {"type": "Feature", "geometry": {"type": "Point", "coordinates": [13.45317, 52.52317]}, "properties": {"id": "314401614", "name": "Asia Lebensmittel", "street": "Straßmannstraße 41", "zip-code": 10249, "lat": 52.52317, "lon": 13.45317, "planning-area-id": 2500726}}, {"type": "Feature", "geometry": {"type": "Point", "coordinates": [13.4513, 52.5227]}, "properties": {"id": "314401618", "name": "Mini Markt 25", "lat": 52.5227, "lon": 13.4513, "planning-area-id": 2500726}}, {"type": "Feature", "geometry": {"type": "Point", "coordinates": [13.45092, 52.5223]}, "properties": {"id": "314401620", "name": "Ja Dilo", "street": "Petersburger Straße 45", "zip-code": 10249, "lat": 52.5223, "lon": 13.45092, "planning-area-id": 2500726}}, {"type": "Feature", "geometry": {"type": "Point", "coordinates": [13.45034, 52.52318]}, "properties": {"id": "314401622", "name": "Asia Shop", "lat": 52.52318, "lon": 13.45034, "planning-area-id": 2500726}}, {"type": "Feature", "geometry": {"type": "Point", "coordinates": [13.39838, 52.527]}, "properties": {"id": "322153511", "name": "Kiezmarkt", "street": "Große Hamburger Straße 39", "zip-code": 10115, "lat": 52.527, "lon": 13.39838, "planning-area-id": 1100309}}, {"type": "Feature", "geometry": {"type": "Point", "coordinates": [13.46161, 52.50871]}, "properties": {"id": "331347585", "name": "Nice 2 See U", "street": "Wühlischstraße 19", "zip-code": 10245, "lat": 52.50871, "lon": 13.46161, "planning-area-id": 2500833}}, {"type": "Feature", "geometry": {"type": "Point", "coordinates": [13.42477, 52.47569]}, "properties": {"id": "364135228", "name": "Orange", "lat": 52.47569, "lon": 13.42477, "planning-area-id": 8100103}}, {"type": "Feature", "geometry": {"type": "Point", "coordinates": [13.34301, 52.52826]}, "properties": {"id": "411899540", "name": "All in One Shop", "lat": 52.52826, "lon": 13.34301, "planning-area-id": 1200520}}, {"type": "Feature", "geometry": {"type": "Point", "coordinates": [13.37553, 52.45506]}, "properties": {"id": "420512359", "name": "Spätkauf am Atillaplatz", "street": "Alarichstraße 1", "zip-code": 12105, "lat": 52.45506, "lon": 13.37553, "planning-area-id": 7400826}}, {"type": "Feature", "geometry": {"type": "Point", "coordinates": [13.49642, 52.51202]}, "properties": {"id": "427670051", "name": "Späti", "lat": 52.51202, "lon": 13.49642, "planning-area-id": 11300725}}, {"type": "Feature", "geometry": {"type": "Point", "coordinates": [13.49707, 52.51205]}, "properties": {"id": "427670057", "name": "Sheran Späti + Hermes Paketshop", "street": "Frankfurter Allee 243", "zip-code": 10365, "lat": 52.51205, "lon": 13.49707, "planning-area-id": 11300725}}, {"type": "Feature", "geometry": {"type": "Point", "coordinates": [13.49748, 52.51174]}, "properties": {"id": "427670062", "name": "Kiez-Shop", "street": "Frankfurter Allee 246-248", "lat": 52.51174, "lon": 13.49748, "planning-area-id": 11300725}}, {"type": "Feature", "geometry": {"type": "Point", "coordinates": [13.36021, 52.48999]}, "properties": {"id": "429729075", "name": "City-Kiosk", "street": "Hauptstraße 160", "zip-code": 10827, "lat": 52.48999, "lon": 13.36021, "planning-area-id": 7200411}}, {"type": "Feature", "geometry": {"type": "Point", "coordinates": [13.45431, 52.50286]}, "properties": {"id": "430126697", "name": "Obst und Gemüse", "lat": 52.50286, "lon": 13.45431, "planning-area-id": 2500835}}, {"type": "Feature", "geometry": {"type": "Point", "coordinates": [13.46225, 52.50975]}, "properties": {"id": "431655696", "name": "LPG", "street": "Krossener Straße 29", "zip-code": 10245, "lat": 52.50975, "lon": 13.46225, "planning-area-id": 2500833}}, {"type": "Feature", "geometry": {"type": "Point", "coordinates": [13.20331, 52.53745]}, "properties": {"id": "434492758", "name": "Supermarkt Rose", "lat": 52.53745, "lon": 13.20331, "planning-area-id": 5100316}}, {"type": "Feature", "geometry": {"type": "Point", "coordinates": [13.49145, 52.50319]}, "properties": {"id": "438150623", "name": "Mini Markt", "lat": 52.50319, "lon": 13.49145, "planning-area-id": 11400929}}, {"type": "Feature", "geometry": {"type": "Point", "coordinates": [13.3564, 52.55109]}, "properties": {"id": "440971671", "name": "Mini Market Alper", "lat": 52.55109, "lon": 13.3564, "planning-area-id": 1401048}}, {"type": "Feature", "geometry": {"type": "Point", "coordinates": [13.43462, 52.46095]}, "properties": {"id": "441513730", "name": "Hakim Gida", "lat": 52.46095, "lon": 13.43462, "planning-area-id": 8200624}}, {"type": "Feature", "geometry": {"type": "Point", "coordinates": [13.44031, 52.4673]}, "properties": {"id": "442749323", "name": "Spät-Shop", "street": "Silbersteinstraße 9", "zip-code": 12051, "lat": 52.4673, "lon": 13.44031, "planning-area-id": 8100209}}, {"type": "Feature", "geometry": {"type": "Point", "coordinates": [13.44111, 52.50109]}, "properties": {"id": "448594622", "name": "Späti am Schlesi", "lat": 52.50109, "lon": 13.44111, "planning-area-id": 2300316}}, {"type": "Feature", "geometry": {"type": "Point", "coordinates": [13.51002, 52.55091]}, "properties": {"id": "452385593", "name": "Multi Spätkauf", "lat": 52.55091, "lon": 13.51002, "planning-area-id": 11200410}}, {"type": "Feature", "geometry": {"type": "Point", "coordinates": [13.43514, 52.48609]}, "properties": {"id": "454251024", "name": "Spätcampus", "street": "Weichselstraße 54", "zip-code": 12045, "lat": 52.48609, "lon": 13.43514, "planning-area-id": 8100312}}, {"type": "Feature", "geometry": {"type": "Point", "coordinates": [13.44652, 52.52113]}, "properties": {"id": "458138650", "name": "Spätkauf Olive", "lat": 52.52113, "lon": 13.44652, "planning-area-id": 2400522}}, {"type": "Feature", "geometry": {"type": "Point", "coordinates": [13.38783, 52.4405]}, "properties": {"id": "458752207", "name": "Mariendorfer back & spätkauf", "lat": 52.4405, "lon": 13.38783, "planning-area-id": 7501031}}, {"type": "Feature", "geometry": {"type": "Point", "coordinates": [13.39003, 52.5578]}, "properties": {"id": "473629401", "name": "Soldiner Späti", "street": "Soldiner Straße 14", "zip-code": 13359, "lat": 52.5578, "lon": 13.39003, "planning-area-id": 1300732}}, {"type": "Feature", "geometry": {"type": "Point", "coordinates": [13.44413, 52.48164]}, "properties": {"id": "476259949", "name": "Heimgetränke", "street": "Innstraße 9", "zip-code": 12045, "lat": 52.48164, "lon": 13.44413, "planning-area-id": 8100418}}, {"type": "Feature", "geometry": {"type": "Point", "coordinates": [13.42428, 52.54403]}, "properties": {"id": "506197795", "name": "Lateshop Café Roj", "street": "Stargarder Straße 50", "zip-code": 10437, "lat": 52.54403, "lon": 13.42428, "planning-area-id": 3601348}}, {"type": "Feature", "geometry": {"type": "Point", "coordinates": [13.28038, 52.58917]}, "properties": {"id": "524769051", "name": "Minimarkt Tegel", "street": "Alt-Tegel 14", "zip-code": 13507, "lat": 52.58917, "lon": 13.28038, "planning-area-id": 12200515}}, {"type": "Feature", "geometry": {"type": "Point", "coordinates": [13.35754, 52.54173]}, "properties": {"id": "530715886", "lat": 52.54173, "lon": 13.35754, "planning-area-id": 1401047}}, {"type": "Feature", "geometry": {"type": "Point", "coordinates": [13.35905, 52.54286]}, "properties": {"id": "530715910", "name": "Spätkauf & Backwaren", "street": "Sprengelstraße 2", "lat": 52.54286, "lon": 13.35905, "planning-area-id": 1401047}}, {"type": "Feature", "geometry": {"type": "Point", "coordinates": [13.48935, 52.46725]}, "properties": {"id": "539491913", "name": "Spätkauf", "street": "Baumschulenstraße 9", "zip-code": 12437, "lat": 52.46725, "lon": 13.48935, "planning-area-id": 9100304}}, {"type": "Feature", "geometry": {"type": "Point", "coordinates": [13.41576, 52.54722]}, "properties": {"id": "560524658", "name": "Asia Markt Frischekorb", "street": "Stargarder Straße 6", "zip-code": 10437, "lat": 52.54722, "lon": 13.41576, "planning-area-id": 3601346}}, {"type": "Feature", "geometry": {"type": "Point", "coordinates": [13.4204, 52.5454]}, "properties": {"id": "560525457", "name": "Verbrauchermarkt", "street": "Stargarder Straße 21", "zip-code": 10437, "lat": 52.5454, "lon": 13.4204, "planning-area-id": 3601347}}, {"type": "Feature", "geometry": {"type": "Point", "coordinates": [13.44966, 52.52273]}, "properties": {"id": "567546833", "name": "Petersburger Getränke Shop", "lat": 52.52273, "lon": 13.44966, "planning-area-id": 2400522}}, {"type": "Feature", "geometry": {"type": "Point", "coordinates": [13.45277, 52.52398]}, "properties": {"id": "567546844", "name": "Eberty Point", "street": "Ebertystraße 15", "zip-code": 10249, "lat": 52.52398, "lon": 13.45277, "planning-area-id": 2500726}}, {"type": "Feature", "geometry": {"type": "Point", "coordinates": [13.46731, 52.51281]}, "properties": {"id": "573381061", "name": "Quang Loi", "street": "Scharnweberstraße 20", "zip-code": 10247, "lat": 52.51281, "lon": 13.46731, "planning-area-id": 2500831}}, {"type": "Feature", "geometry": {"type": "Point", "coordinates": [13.46588, 52.51293]}, "properties": {"id": "576051172", "name": "Lebensmittel", "zip-code": 10247, "lat": 52.51293, "lon": 13.46588, "planning-area-id": 2500831}}, {"type": "Feature", "geometry": {"type": "Point", "coordinates": [13.46594, 52.51437]}, "properties": {"id": "576051178", "name": "Euro Spätkauf", "street": "Frankfurter Allee 60", "zip-code": 10247, "lat": 52.51437, "lon": 13.46594, "planning-area-id": 2500831}}, {"type": "Feature", "geometry": {"type": "Point", "coordinates": [13.41807, 52.54613]}, "properties": {"id": "577380846", "name": "Papki", "zip-code": 10437, "lat": 52.54613, "lon": 13.41807, "planning-area-id": 3601347}}, {"type": "Feature", "geometry": {"type": "Point", "coordinates": [13.47135, 52.51328]}, "properties": {"id": "586663202", "name": "Minimarkt", "lat": 52.51328, "lon": 13.47135, "planning-area-id": 2500832}}, {"type": "Feature", "geometry": {"type": "Point", "coordinates": [13.45558, 52.54948]}, "properties": {"id": "588552735", "name": "Insaf Supermarkt", "street": "Berliner Allee 77", "zip-code": 13088, "lat": 52.54948, "lon": 13.45558, "planning-area-id": 3500935}}, {"type": "Feature", "geometry": {"type": "Point", "coordinates": [13.46722, 52.46823]}, "properties": {"id": "618021342", "name": "MiniMarkt", "lat": 52.46823, "lon": 13.46722, "planning-area-id": 8100521}}, {"type": "Feature", "geometry": {"type": "Point", "coordinates": [13.44094, 52.48253]}, "properties": {"id": "620704357", "name": "laube shop", "lat": 52.48253, "lon": 13.44094, "planning-area-id": 8100312}}, {"type": "Feature", "geometry": {"type": "Point", "coordinates": [13.43609, 52.48343]}, "properties": {"id": "620704359", "lat": 52.48343, "lon": 13.43609, "planning-area-id": 8100314}}, {"type": "Feature", "geometry": {"type": "Point", "coordinates": [13.4376, 52.48266]}, "properties": {"id": "620704361", "name": "Orient Rösterei", "lat": 52.48266, "lon": 13.4376, "planning-area-id": 8100314}}, {"type": "Feature", "geometry": {"type": "Point", "coordinates": [13.43056, 52.53445]}, "properties": {"id": "626304112", "name": "Corner", "street": "Greifswalder Straße 197", "zip-code": 10405, "lat": 52.53445, "lon": 13.43056, "planning-area-id": 3701658}}, {"type": "Feature", "geometry": {"type": "Point", "coordinates": [13.29588, 52.49339]}, "properties": {"id": "639566330", "name": "Backshop & Kiosk", "street": "Joachim-Friedrich-Straße 1", "zip-code": 10711, "lat": 52.49339, "lon": 13.29588, "planning-area-id": 4500938}}, {"type": "Feature", "geometry": {"type": "Point", "coordinates": [13.412, 52.50339]}, "properties": {"id": "667858504", "name": "Kiezkauf", "street": "Oranienstraße 54", "zip-code": 10969, "lat": 52.50339, "lon": 13.412, "planning-area-id": 2100104}}, {"type": "Feature", "geometry": {"type": "Point", "coordinates": [13.35781, 52.55146]}, "properties": {"id": "678967934", "name": "Bonbonwasser", "lat": 52.55146, "lon": 13.35781, "planning-area-id": 1401048}}, {"type": "Feature", "geometry": {"type": "Point", "coordinates": [13.49851, 52.50947]}, "properties": {"id": "685354675", "name": "Oma Wenda", "street": "Irenenstraße 1", "zip-code": 10317, "lat": 52.50947, "lon": 13.49851, "planning-area-id": 11400929}}, {"type": "Feature", "geometry": {"type": "Point", "coordinates": [13.40869, 52.53423]}, "properties": {"id": "697714204", "name": "La Bodega", "street": "Schwedter Straße 17", "zip-code": 10119, "lat": 52.53423, "lon": 13.40869, "planning-area-id": 3701554}}, {"type": "Feature", "geometry": {"type": "Point", "coordinates": [13.41408, 52.54882]}, "properties": {"id": "697907411", "name": "Spätkauf -Late Shopping", "street": "Schönhauser Allee 72c", "zip-code": 10437, "lat": 52.54882, "lon": 13.41408, "planning-area-id": 3601346}}, {"type": "Feature", "geometry": {"type": "Point", "coordinates": [13.48004, 52.50829]}, "properties": {"id": "699713742", "name": "Boysen Späti", "street": "Schulze-Boysen-Straße 35", "zip-code": 10365, "lat": 52.50829, "lon": 13.48004, "planning-area-id": 11300826}}, {"type": "Feature", "geometry": {"type": "Point", "coordinates": [13.49596, 52.50646]}, "properties": {"id": "700775293", "name": "Cleopatras Oriental Food", "street": "Weitlingstraße 54", "zip-code": 10317, "lat": 52.50646, "lon": 13.49596, "planning-area-id": 11400929}}, {"type": "Feature", "geometry": {"type": "Point", "coordinates": [13.49652, 52.50678]}, "properties": {"id": "700775294", "name": "Trang Asia Supermarkt", "street": "Weitlingstraße 49", "zip-code": 10317, "lat": 52.50678, "lon": 13.49652, "planning-area-id": 11400929}}, {"type": "Feature", "geometry": {"type": "Point", "coordinates": [13.50725, 52.40313]}, "properties": {"id": "703744109", "lat": 52.40313, "lon": 13.50725, "planning-area-id": 8401245}}, {"type": "Feature", "geometry": {"type": "Point", "coordinates": [13.3787, 52.55083]}, "properties": {"id": "707353241", "name": "Spätkauf Öztep", "street": "Pankstraße 61", "zip-code": 13357, "lat": 52.55083, "lon": 13.3787, "planning-area-id": 1401044}}, {"type": "Feature", "geometry": {"type": "Point", "coordinates": [13.36961, 52.54639]}, "properties": {"id": "707452472", "name": "Backwaren", "street": "Reinickendorfer Straße 26", "zip-code": 13347, "lat": 52.54639, "lon": 13.36961, "planning-area-id": 1401044}}, {"type": "Feature", "geometry": {"type": "Point", "coordinates": [13.38211, 52.55222]}, "properties": {"id": "707490367", "name": "Kiosk", "street": "Badstraße 25", "zip-code": 13357, "lat": 52.55222, "lon": 13.38211, "planning-area-id": 1300733}}, {"type": "Feature", "geometry": {"type": "Point", "coordinates": [13.31409, 52.47273]}, "properties": {"id": "725621498", "name": "Spætkauf am Rüdi", "street": "Rüdesheimer Straße 8", "zip-code": 14197, "lat": 52.47273, "lon": 13.31409, "planning-area-id": 4400834}}, {"type": "Feature", "geometry": {"type": "Point", "coordinates": [13.36377, 52.50054]}, "properties": {"id": "731948133", "name": "Bodega", "lat": 52.50054, "lon": 13.36377, "planning-area-id": 1100104}}, {"type": "Feature", "geometry": {"type": "Point", "coordinates": [13.42324, 52.47465]}, "properties": {"id": "736620808", "name": "Kiezladen", "lat": 52.47465, "lon": 13.42324, "planning-area-id": 8100103}}, {"type": "Feature", "geometry": {"type": "Point", "coordinates": [13.41008, 52.52783]}, "properties": {"id": "736787803", "name": "Pi pa po", "street": "Rosa-Luxemburg-Straße 45", "zip-code": 10178, "lat": 52.52783, "lon": 13.41008, "planning-area-id": 1100310}}, {"type": "Feature", "geometry": {"type": "Point", "coordinates": [13.43048, 52.48793]}, "properties": {"id": "745733025", "name": "small all", "street": "Weserstraße 205", "zip-code": 12047, "lat": 52.48793, "lon": 13.43048, "planning-area-id": 8100311}}, {"type": "Feature", "geometry": {"type": "Point", "coordinates": [13.43752, 52.48756]}, "properties": {"id": "746478626", "name": "Honigbienchen Späti & Bakery", "street": "Weichselstraße 30", "zip-code": 12045, "lat": 52.48756, "lon": 13.43752, "planning-area-id": 8100312}}, {"type": "Feature", "geometry": {"type": "Point", "coordinates": [13.39881, 52.58025]}, "properties": {"id": "746853061", "name": "Babylon Café Bar", "lat": 52.58025, "lon": 13.39881, "planning-area-id": 3200206}}, {"type": "Feature", "geometry": {"type": "Point", "coordinates": [13.57657, 52.45537]}, "properties": {"id": "747845608", "name": "Café Kiez", "street": "Bahnhofstraße 49", "zip-code": 12555, "lat": 52.45537, "lon": 13.57657, "planning-area-id": 9501939}}, {"type": "Feature", "geometry": {"type": "Point", "coordinates": [13.4102, 52.57043]}, "properties": {"id": "753361458", "name": "Flick Flack", "street": "Berliner Straße 1", "zip-code": 13187, "lat": 52.57043, "lon": 13.4102, "planning-area-id": 3400723}}, {"type": "Feature", "geometry": {"type": "Point", "coordinates": [13.3576, 52.57459]}, "properties": {"id": "769270131", "name": "Naturkost", "street": "Alt-Reinickendorf 6", "zip-code": 13407, "lat": 52.57459, "lon": 13.3576, "planning-area-id": 12100205}}, {"type": "Feature", "geometry": {"type": "Point", "coordinates": [13.36329, 52.5664]}, "properties": {"id": "769849999", "name": "Resis Spät Shop", "lat": 52.5664, "lon": 13.36329, "planning-area-id": 12100102}}, {"type": "Feature", "geometry": {"type": "Point", "coordinates": [13.40825, 52.53744]}, "properties": {"id": "778710944", "name": "Spätkauf", "street": "Kastanienallee 26", "zip-code": 10435, "lat": 52.53744, "lon": 13.40825, "planning-area-id": 3701554}}, {"type": "Feature", "geometry": {"type": "Point", "coordinates": [13.41114, 52.54016]}, "properties": {"id": "778710967", "name": "Polats Minimarkt", "street": "Kastanienallee 5", "zip-code": 10435, "lat": 52.54016, "lon": 13.41114, "planning-area-id": 3701554}}, {"type": "Feature", "geometry": {"type": "Point", "coordinates": [13.41369, 52.54094]}, "properties": {"id": "783442851", "lat": 52.54094, "lon": 13.41369, "planning-area-id": 3601347}}, {"type": "Feature", "geometry": {"type": "Point", "coordinates": [13.42074, 52.53259]}, "properties": {"id": "790502632", "name": "Dilek", "street": "Prenzlauer Allee 26", "zip-code": 10405, "lat": 52.53259, "lon": 13.42074, "planning-area-id": 3701659}}, {"type": "Feature", "geometry": {"type": "Point", "coordinates": [13.45622, 52.54961]}, "properties": {"id": "803582040", "name": "Brra Späti", "street": "Berliner Allee 83", "zip-code": 13088, "lat": 52.54961, "lon": 13.45622, "planning-area-id": 3500935}}, {"type": "Feature", "geometry": {"type": "Point", "coordinates": [13.46554, 52.50613]}, "properties": {"id": "838429741", "name": "Käptn Kiez", "street": "Sonntagstraße 28", "zip-code": 10245, "lat": 52.50613, "lon": 13.46554, "planning-area-id": 2500834}}, {"type": "Feature", "geometry": {"type": "Point", "coordinates": [13.46746, 52.50497]}, "properties": {"id": "838429759", "name": "Kiosk 24", "lat": 52.50497, "lon": 13.46746, "planning-area-id": 2500834}}, {"type": "Feature", "geometry": {"type": "Point", "coordinates": [13.46786, 52.50464]}, "properties": {"id": "838429794", "name": "Die Späti Brüder", "street": "Sonntagstraße 2", "zip-code": 10245, "lat": 52.50464, "lon": 13.46786, "planning-area-id": 2500834}}, {"type": "Feature", "geometry": {"type": "Point", "coordinates": [13.32318, 52.47139]}, "properties": {"id": "846251052", "name": "Bio Grande", "street": "Wiesbadener Straße 82", "zip-code": 12161, "lat": 52.47139, "lon": 13.32318, "planning-area-id": 7300516}}, {"type": "Feature", "geometry": {"type": "Point", "coordinates": [13.51338, 52.46694]}, "properties": {"id": "847907650", "name": "Spätkauf 63", "street": "Edisonstraße 29 A", "zip-code": 12459, "lat": 52.46694, "lon": 13.51338, "planning-area-id": 9200511}}, {"type": "Feature", "geometry": {"type": "Point", "coordinates": [13.3198, 52.46687]}, "properties": {"id": "848169211", "name": "Kreuznacher Markt", "street": "Kreuznacher Straße 7", "zip-code": 14197, "lat": 52.46687, "lon": 13.3198, "planning-area-id": 6100103}}, {"type": "Feature", "geometry": {"type": "Point", "coordinates": [13.38434, 52.45754]}, "properties": {"id": "861837755", "name": "Karam Al-Sham", "street": "Tempelhofer Damm 207", "zip-code": 12099, "lat": 52.45754, "lon": 13.38434, "planning-area-id": 7400927}}, {"type": "Feature", "geometry": {"type": "Point", "coordinates": [13.4703, 52.50588]}, "properties": {"id": "863962594", "name": "Kiez Shop", "lat": 52.50588, "lon": 13.4703, "planning-area-id": 2500834}}, {"type": "Feature", "geometry": {"type": "Point", "coordinates": [13.46845, 52.50721]}, "properties": {"id": "863962795", "name": "Boxi Spätshop", "lat": 52.50721, "lon": 13.46845, "planning-area-id": 2500832}}, {"type": "Feature", "geometry": {"type": "Point", "coordinates": [13.46993, 52.50553]}, "properties": {"id": "863962912", "name": "Svennis Nachtshop", "lat": 52.50553, "lon": 13.46993, "planning-area-id": 2500834}}, {"type": "Feature", "geometry": {"type": "Point", "coordinates": [13.33036, 52.52553]}, "properties": {"id": "867497539", "name": "Back und Späti Zwang", "street": "Gotzkowskystraße 30", "zip-code": 10555, "lat": 52.52553, "lon": 13.33036, "planning-area-id": 1200521}}, {"type": "Feature", "geometry": {"type": "Point", "coordinates": [13.42884, 52.49824]}, "properties": {"id": "886089002", "name": "Checkpoint Ali", "street": "Wiener Straße 14", "zip-code": 10999, "lat": 52.49824, "lon": 13.42884, "planning-area-id": 2300417}}, {"type": "Feature", "geometry": {"type": "Point", "coordinates": [13.42732, 52.49876]}, "properties": {"id": "886154881", "lat": 52.49876, "lon": 13.42732, "planning-area-id": 2300417}}, {"type": "Feature", "geometry": {"type": "Point", "coordinates": [13.34942, 52.54166]}, "properties": {"id": "939667458", "name": "Media Point", "street": "Föhrer Straße 12", "lat": 52.54166, "lon": 13.34942, "planning-area-id": 1401046}}, {"type": "Feature", "geometry": {"type": "Point", "coordinates": [13.40833, 52.55334]}, "properties": {"id": "947301033", "name": "Lebensmittel und Getränke", "lat": 52.55334, "lon": 13.40833, "planning-area-id": 3601141}}, {"type": "Feature", "geometry": {"type": "Point", "coordinates": [13.41024, 52.49041]}, "properties": {"id": "947968184", "name": "HEIM Getränke2", "street": "Körtestraße 17", "zip-code": 10967, "lat": 52.49041, "lon": 13.41024, "planning-area-id": 2200212}}, {"type": "Feature", "geometry": {"type": "Point", "coordinates": [13.40844, 52.48945]}, "properties": {"id": "947978148", "name": "C@ll Shop", "street": "Körtestraße 35", "zip-code": 10967, "lat": 52.48945, "lon": 13.40844, "planning-area-id": 2200212}}, {"type": "Feature", "geometry": {"type": "Point", "coordinates": [13.41435, 52.49167]}, "properties": {"id": "959231215", "name": "Arslans Mix", "street": "Urbanstraße 133", "zip-code": 10967, "lat": 52.49167, "lon": 13.41435, "planning-area-id": 2200213}}, {"type": "Feature", "geometry": {"type": "Point", "coordinates": [13.40129, 52.52275]}, "properties": {"id": "975312186", "name": "BisSpäter", "street": "Neue Promenade 7", "zip-code": 10178, "lat": 52.52275, "lon": 13.40129, "planning-area-id": 1100309}}, {"type": "Feature", "geometry": {"type": "Point", "coordinates": [13.50047, 52.44594]}, "properties": {"id": "988401415", "name": "Mini-Markt", "lat": 52.44594, "lon": 13.50047, "planning-area-id": 9100407}}, {"type": "Feature", "geometry": {"type": "Point", "coordinates": [13.42181, 52.49388]}, "properties": {"id": "991750714", "name": "latenight shop", "lat": 52.49388, "lon": 13.42181, "planning-area-id": 8100310}}, {"type": "Feature", "geometry": {"type": "Point", "coordinates": [13.45001, 52.52729]}, "properties": {"id": "1003885734", "name": "Panorama Spätkauf", "lat": 52.52729, "lon": 13.45001, "planning-area-id": 3601452}}, {"type": "Feature", "geometry": {"type": "Point", "coordinates": [13.42877, 52.48851]}, "properties": {"id": "1028138858", "name": "Backshop Tabak&Presse", "street": "Reuterstraße 56", "zip-code": 12047, "lat": 52.48851, "lon": 13.42877, "planning-area-id": 8100311}}, {"type": "Feature", "geometry": {"type": "Point", "coordinates": [13.29087, 52.51547]}, "properties": {"id": "1092250109", "name": "Kiezmarkt mediterrane Welt", "street": "Danckelmannstraße 52", "zip-code": 14059, "lat": 52.51547, "lon": 13.29087, "planning-area-id": 4300413}}, {"type": "Feature", "geometry": {"type": "Point", "coordinates": [13.41584, 52.54024]}, "properties": {"id": "1095435039", "name": "Asia Mini Shop", "street": "Danziger Straße 20", "zip-code": 10435, "lat": 52.54024, "lon": 13.41584, "planning-area-id": 3701555}}, {"type": "Feature", "geometry": {"type": "Point", "coordinates": [13.42389, 52.53948]}, "properties": {"id": "1100350416", "name": "Danziger Express", "street": "Danziger Straße 71", "zip-code": 10435, "lat": 52.53948, "lon": 13.42389, "planning-area-id": 3601348}}, {"type": "Feature", "geometry": {"type": "Point", "coordinates": [13.42688, 52.48541]}, "properties": {"id": "1109675825", "name": "Asien Supermarkt Hao Cai Lei", "street": "Karl-Marx-Straße 15", "zip-code": 12043, "lat": 52.48541, "lon": 13.42688, "planning-area-id": 8100314}}, {"type": "Feature", "geometry": {"type": "Point", "coordinates": [13.43791, 52.53484]}, "properties": {"id": "1116716789", "name": "Lebensmittel", "lat": 52.53484, "lon": 13.43791, "planning-area-id": 3601451}}, {"type": "Feature", "geometry": {"type": "Point", "coordinates": [13.46981, 52.50655]}, "properties": {"id": "1140906805", "name": "Ellîka Spätkauf", "street": "Neue Bahnhofstraße 69", "zip-code": 10245, "lat": 52.50655, "lon": 13.46981, "planning-area-id": 2500832}}, {"type": "Feature", "geometry": {"type": "Point", "coordinates": [13.46205, 52.51007]}, "properties": {"id": "1140914372", "name": "City Kiosk", "street": "Seumestraße 20", "zip-code": 10245, "lat": 52.51007, "lon": 13.46205, "planning-area-id": 2500833}}, {"type": "Feature", "geometry": {"type": "Point", "coordinates": [13.43991, 52.51571]}, "properties": {"id": "1140926746", "name": "K Mini Markt", "street": "Straße der Pariser Kommune 31", "zip-code": 10243, "lat": 52.51571, "lon": 13.43991, "planning-area-id": 2400623}}, {"type": "Feature", "geometry": {"type": "Point", "coordinates": [13.43565, 52.51102]}, "properties": {"id": "1140927943", "name": "Spätkauf am Ostbahnhof", "street": "Erich-Steinfurth-Straße 6", "zip-code": 10243, "lat": 52.51102, "lon": 13.43565, "planning-area-id": 2400623}}, {"type": "Feature", "geometry": {"type": "Point", "coordinates": [13.43447, 52.52306]}, "properties": {"id": "1140928753", "name": "Spätkauf Lebensmittel", "lat": 52.52306, "lon": 13.43447, "planning-area-id": 2400521}}, {"type": "Feature", "geometry": {"type": "Point", "coordinates": [13.45164, 52.51988]}, "properties": {"id": "1140930611", "name": "Spätshop 68", "street": "Petersburger Straße 68", "zip-code": 10249, "lat": 52.51988, "lon": 13.45164, "planning-area-id": 2400522}}, {"type": "Feature", "geometry": {"type": "Point", "coordinates": [13.44945, 52.52222]}, "properties": {"id": "1140935486", "name": "Para Spätkauf", "lat": 52.52222, "lon": 13.44945, "planning-area-id": 2400522}}, {"type": "Feature", "geometry": {"type": "Point", "coordinates": [13.39218, 52.55344]}, "properties": {"id": "1161375510", "name": "Aksu Kiosk", "street": "Jülicher Straße 24", "zip-code": 13357, "lat": 52.55344, "lon": 13.39218, "planning-area-id": 1300733}}, {"type": "Feature", "geometry": {"type": "Point", "coordinates": [13.42916, 52.48708]}, "properties": {"id": "1165884653", "name": "I ♥️ Drinks Kiosk", "street": "Reuterstraße 29", "lat": 52.48708, "lon": 13.42916, "planning-area-id": 8100311}}, {"type": "Feature", "geometry": {"type": "Point", "coordinates": [13.4217, 52.60693]}, "properties": {"id": "1172023257", "name": "Wohnung Werkstatt Garten Shop", "lat": 52.60693, "lon": 13.4217, "planning-area-id": 3200310}}, {"type": "Feature", "geometry": {"type": "Point", "coordinates": [13.45559, 52.5091]}, "properties": {"id": "1181625810", "name": "Esperanto", "street": "Simon-Dach-Straße 18", "zip-code": 10245, "lat": 52.5091, "lon": 13.45559, "planning-area-id": 2500834}}, {"type": "Feature", "geometry": {"type": "Point", "coordinates": [13.40717, 52.54697]}, "properties": {"id": "1213234319", "name": "Gleim Shop", "street": "Gleimstraße 13A", "zip-code": 10437, "lat": 52.54697, "lon": 13.40717, "planning-area-id": 3601142}}, {"type": "Feature", "geometry": {"type": "Point", "coordinates": [13.49733, 52.50878]}, "properties": {"id": "1221375859", "name": "Sipan Spätverkauf", "lat": 52.50878, "lon": 13.49733, "planning-area-id": 11400929}}, {"type": "Feature", "geometry": {"type": "Point", "coordinates": [13.17124, 52.51961]}, "properties": {"id": "1225127392", "name": "Mias Späti", "street": "Sandstraße 66", "zip-code": 13593, "lat": 52.51961, "lon": 13.17124, "planning-area-id": 5200527}}, {"type": "Feature", "geometry": {"type": "Point", "coordinates": [13.30537, 52.51026]}, "properties": {"id": "1229435273", "name": "Borsa", "street": "Wilmersdorfer Straße 44", "zip-code": 10627, "lat": 52.51026, "lon": 13.30537, "planning-area-id": 4300623}}, {"type": "Feature", "geometry": {"type": "Point", "coordinates": [13.41313, 52.54841]}, "properties": {"id": "1241909148", "name": "Bollywood", "lat": 52.54841, "lon": 13.41313, "planning-area-id": 3601142}}, {"type": "Feature", "geometry": {"type": "Point", "coordinates": [13.41119, 52.53755]}, "properties": {"id": "1251129216", "name": "Spätkauf", "lat": 52.53755, "lon": 13.41119, "planning-area-id": 3701554}}, {"type": "Feature", "geometry": {"type": "Point", "coordinates": [13.28564, 52.58878]}, "properties": {"id": "1254238967", "name": "Asia Lebensmittel, Tee & Geschenkartikel", "lat": 52.58878, "lon": 13.28564, "planning-area-id": 12200515}}, {"type": "Feature", "geometry": {"type": "Point", "coordinates": [13.41691, 52.49236]}, "properties": {"id": "1255588542", "name": "kinzi discount", "lat": 52.49236, "lon": 13.41691, "planning-area-id": 2200213}}, {"type": "Feature", "geometry": {"type": "Point", "coordinates": [13.43912, 52.52366]}, "properties": {"id": "1258615840", "name": "Spätshop", "street": "Landsberger Allee 38", "zip-code": 10249, "lat": 52.52366, "lon": 13.43912, "planning-area-id": 2400521}}, {"type": "Feature", "geometry": {"type": "Point", "coordinates": [13.4934, 52.5014]}, "properties": {"id": "1259381388", "name": "Minimarkt Mura", "street": "Weitlingstraße 117", "zip-code": 10317, "lat": 52.5014, "lon": 13.4934, "planning-area-id": 11400929}}, {"type": "Feature", "geometry": {"type": "Point", "coordinates": [13.38421, 52.45681]}, "properties": {"id": "1262166743", "name": "24 H Shop", "lat": 52.45681, "lon": 13.38421, "planning-area-id": 7400927}}, {"type": "Feature", "geometry": {"type": "Point", "coordinates": [13.33971, 52.55416]}, "properties": {"id": "1269798909", "name": "Kiosk 21", "street": "Otawistraße 21", "zip-code": 13351, "lat": 52.55416, "lon": 13.33971, "planning-area-id": 1400937}}, {"type": "Feature", "geometry": {"type": "Point", "coordinates": [13.49299, 52.51433]}, "properties": {"id": "1293209218", "name": "Minimarkt", "street": "Fanningerstraße 18", "zip-code": 10365, "lat": 52.51433, "lon": 13.49299, "planning-area-id": 11300724}}, {"type": "Feature", "geometry": {"type": "Point", "coordinates": [13.31686, 52.51801]}, "properties": {"id": "1305230438", "name": "Sultan Shop", "street": "Guerickestraße 36", "zip-code": 10587, "lat": 52.51801, "lon": 13.31686, "planning-area-id": 4300619}}, {"type": "Feature", "geometry": {"type": "Point", "coordinates": [13.34132, 52.42906]}, "properties": {"id": "1305796906", "name": "Back & Späti", "lat": 52.42906, "lon": 13.34132, "planning-area-id": 6200314}}, {"type": "Feature", "geometry": {"type": "Point", "coordinates": [13.43029, 52.46878]}, "properties": {"id": "1307115292", "name": "Sarikiz Spätkauf 44", "lat": 52.46878, "lon": 13.43029, "planning-area-id": 8100104}}, {"type": "Feature", "geometry": {"type": "Point", "coordinates": [13.31136, 52.50626]}, "properties": {"id": "1311121901", "name": "Iran Shop", "street": "Kantstraße 124", "zip-code": 10625, "lat": 52.50626, "lon": 13.31136, "planning-area-id": 4300623}}, {"type": "Feature", "geometry": {"type": "Point", "coordinates": [13.41561, 52.55459]}, "properties": {"id": "1313284328", "name": "neon Spätkauf", "lat": 52.55459, "lon": 13.41561, "planning-area-id": 3400827}}, {"type": "Feature", "geometry": {"type": "Point", "coordinates": [13.45098, 52.48913]}, "properties": {"id": "1315201887", "name": "Spätkauf", "lat": 52.48913, "lon": 13.45098, "planning-area-id": 9100101}}, {"type": "Feature", "geometry": {"type": "Point", "coordinates": [13.42116, 52.498]}, "properties": {"id": "1320138052", "name": "Eis Mari", "street": "Reichenberger Straße 26", "zip-code": 10999, "lat": 52.498, "lon": 13.42116, "planning-area-id": 2300417}}, {"type": "Feature", "geometry": {"type": "Point", "coordinates": [13.5253, 52.45914]}, "properties": {"id": "1324860212", "name": "Späti Shop bei Baba", "zip-code": 12459, "lat": 52.45914, "lon": 13.5253, "planning-area-id": 9200511}}, {"type": "Feature", "geometry": {"type": "Point", "coordinates": [13.41693, 52.49168]}, "properties": {"id": "1327231904", "name": "Bioladen", "street": "Graefestraße 69", "zip-code": 10967, "lat": 52.49168, "lon": 13.41693, "planning-area-id": 2200213}}, {"type": "Feature", "geometry": {"type": "Point", "coordinates": [13.34286, 52.47496]}, "properties": {"id": "1332197461", "street": "Rubensstraße 28", "zip-code": 12159, "lat": 52.47496, "lon": 13.34286, "planning-area-id": 7300618}}, {"type": "Feature", "geometry": {"type": "Point", "coordinates": [13.33989, 52.47573]}, "properties": {"id": "1344436749", "name": "Spätkauf", "street": "Hähnelstraße 11A", "zip-code": 12159, "lat": 52.47573, "lon": 13.33989, "planning-area-id": 7300517}}, {"type": "Feature", "geometry": {"type": "Point", "coordinates": [13.43164, 52.50063]}, "properties": {"id": "1345222866", "name": "The Shops", "street": "Lausitzer Platz 11", "zip-code": 10997, "lat": 52.50063, "lon": 13.43164, "planning-area-id": 2300315}}, {"type": "Feature", "geometry": {"type": "Point", "coordinates": [13.42346, 52.50691]}, "properties": {"id": "1346939681", "name": "Mini Markt", "lat": 52.50691, "lon": 13.42346, "planning-area-id": 1100313}}, {"type": "Feature", "geometry": {"type": "Point", "coordinates": [13.42028, 52.50292]}, "properties": {"id": "1346939765", "name": "Spätkauf Olive", "street": "Adalbertstraße 80", "zip-code": 10997, "lat": 52.50292, "lon": 13.42028, "planning-area-id": 2300314}}, {"type": "Feature", "geometry": {"type": "Point", "coordinates": [13.4167, 52.51172]}, "properties": {"id": "1346939892", "name": "Asia Markt", "lat": 52.51172, "lon": 13.4167, "planning-area-id": 1100312}}, {"type": "Feature", "geometry": {"type": "Point", "coordinates": [13.4302, 52.46829]}, "properties": {"id": "1348552225", "name": "Azzam Supermarkt", "lat": 52.46829, "lon": 13.4302, "planning-area-id": 8100104}}, {"type": "Feature", "geometry": {"type": "Point", "coordinates": [13.50071, 52.54857]}, "properties": {"id": "1350982088", "name": "Spätverkauf", "lat": 52.54857, "lon": 13.50071, "planning-area-id": 11200411}}, {"type": "Feature", "geometry": {"type": "Point", "coordinates": [13.3956, 52.50301]}, "properties": {"id": "1356032933", "name": "Asia Super Shop", "street": "Lindenstraße 17", "zip-code": 10969, "lat": 52.50301, "lon": 13.3956, "planning-area-id": 2100103}}, {"type": "Feature", "geometry": {"type": "Point", "coordinates": [13.34396, 52.47085]}, "properties": {"id": "1356471635", "name": "Kevser", "street": "Rubensstraße 53", "zip-code": 12157, "lat": 52.47085, "lon": 13.34396, "planning-area-id": 7300619}}, {"type": "Feature", "geometry": {"type": "Point", "coordinates": [13.24031, 52.54318]}, "properties": {"id": "1365702019", "name": "Sera Market", "lat": 52.54318, "lon": 13.24031, "planning-area-id": 5300737}}, {"type": "Feature", "geometry": {"type": "Point", "coordinates": [13.42547, 52.47]}, "properties": {"id": "1372320330", "name": "Spätkauf", "street": "Warthestraße 16", "zip-code": 12051, "lat": 52.47, "lon": 13.42547, "planning-area-id": 8100104}}, {"type": "Feature", "geometry": {"type": "Point", "coordinates": [13.46106, 52.51152]}, "properties": {"id": "1374234428", "name": "Chiosk", "lat": 52.51152, "lon": 13.46106, "planning-area-id": 2500833}}, {"type": "Feature", "geometry": {"type": "Point", "coordinates": [13.38423, 52.50352]}, "properties": {"id": "1377854757", "name": "Ela Spätkauf", "street": "Stresemannstraße 72", "zip-code": 10963, "lat": 52.50352, "lon": 13.38423, "planning-area-id": 2100101}}, {"type": "Feature", "geometry": {"type": "Point", "coordinates": [13.42586, 52.52958]}, "properties": {"id": "1389043771", "name": "City Spätkauf", "street": "Greifswalder Straße 9", "zip-code": 10405, "lat": 52.52958, "lon": 13.42586, "planning-area-id": 3701660}}, {"type": "Feature", "geometry": {"type": "Point", "coordinates": [13.3937, 52.52829]}, "properties": {"id": "1389419270", "name": "M&J Nightshop", "street": "Torstraße 182", "lat": 52.52829, "lon": 13.3937, "planning-area-id": 1100309}}, {"type": "Feature", "geometry": {"type": "Point", "coordinates": [13.24631, 52.54467]}, "properties": {"id": "1389926121", "street": "Gartenfelder Straße 58", "zip-code": 13599, "lat": 52.54467, "lon": 13.24631, "planning-area-id": 5300737}}, {"type": "Feature", "geometry": {"type": "Point", "coordinates": [13.36792, 52.50494]}, "properties": {"id": "1397070387", "name": "Staabi Back & Bistro Kiosk", "lat": 52.50494, "lon": 13.36792, "planning-area-id": 1100104}}, {"type": "Feature", "geometry": {"type": "Point", "coordinates": [13.2597, 52.5475]}, "properties": {"id": "1412188997", "lat": 52.5475, "lon": 13.2597, "planning-area-id": 5300839}}, {"type": "Feature", "geometry": {"type": "Point", "coordinates": [13.27232, 52.5395]}, "properties": {"id": "1420865586", "name": "Akman Feinkost", "lat": 52.5395, "lon": 13.27232, "planning-area-id": 5300839}}, {"type": "Feature", "geometry": {"type": "Point", "coordinates": [13.43223, 52.49705]}, "properties": {"id": "1424999184", "name": "Day & Night Shop", "lat": 52.49705, "lon": 13.43223, "planning-area-id": 2300418}}, {"type": "Feature", "geometry": {"type": "Point", "coordinates": [13.55439, 52.5141]}, "properties": {"id": "1445299193", "name": "Biesm", "lat": 52.5141, "lon": 13.55439, "planning-area-id": 10300731}}, {"type": "Feature", "geometry": {"type": "Point", "coordinates": [13.46603, 52.50857]}, "properties": {"id": "1455764529", "name": "MultiMarkt3", "lat": 52.50857, "lon": 13.46603, "planning-area-id": 2500833}}, {"type": "Feature", "geometry": {"type": "Point", "coordinates": [13.41423, 52.55418]}, "properties": {"id": "1458646421", "name": "Back Späti", "street": "Schönhauser Allee 99", "zip-code": 10439, "lat": 52.55418, "lon": 13.41423, "planning-area-id": 3601139}}, {"type": "Feature", "geometry": {"type": "Point", "coordinates": [13.46296, 52.51467]}, "properties": {"id": "1464069051", "name": "Regenbogen Späti", "street": "Frankfurter Allee 42", "zip-code": 10247, "lat": 52.51467, "lon": 13.46296, "planning-area-id": 2500830}}, {"type": "Feature", "geometry": {"type": "Point", "coordinates": [13.36203, 52.55311]}, "properties": {"id": "1471202665", "name": "Imbiss-Punjab;Punjab Spätkauf", "street": "Groninger Straße 28", "zip-code": 13347, "lat": 52.55311, "lon": 13.36203, "planning-area-id": 1401049}}, {"type": "Feature", "geometry": {"type": "Point", "coordinates": [13.42702, 52.4884]}, "properties": {"id": "1472157627", "name": "Robinhood Store", "street": "Weserstraße 212", "zip-code": 12047, "lat": 52.4884, "lon": 13.42702, "planning-area-id": 8100311}}, {"type": "Feature", "geometry": {"type": "Point", "coordinates": [13.44453, 52.49277]}, "properties": {"id": "1500108107", "name": "Junkys Point", "street": "Karl-Kunger-Straße 1", "zip-code": 12435, "lat": 52.49277, "lon": 13.44453, "planning-area-id": 9100101}}, {"type": "Feature", "geometry": {"type": "Point", "coordinates": [13.43753, 52.48028]}, "properties": {"id": "1500156141", "name": "Pyza", "lat": 52.48028, "lon": 13.43753, "planning-area-id": 8100415}}, {"type": "Feature", "geometry": {"type": "Point", "coordinates": [13.35626, 52.54268]}, "properties": {"id": "1515489375", "name": "Bioladen Café", "street": "Tegeler Straße 30", "zip-code": 13353, "lat": 52.54268, "lon": 13.35626, "planning-area-id": 1401046}}, {"type": "Feature", "geometry": {"type": "Point", "coordinates": [13.49965, 52.50951]}, "properties": {"id": "1531118797", "name": "Nazar Getränkeshop", "zip-code": 10317, "lat": 52.50951, "lon": 13.49965, "planning-area-id": 11400929}}, {"type": "Feature", "geometry": {"type": "Point", "coordinates": [13.50342, 52.50655]}, "properties": {"id": "1531118804", "name": "Kiezladen", "street": "Zachertstraße 14", "zip-code": 10315, "lat": 52.50655, "lon": 13.50342, "planning-area-id": 11400930}}, {"type": "Feature", "geometry": {"type": "Point", "coordinates": [13.57377, 52.44465]}, "properties": {"id": "1531989580", "name": "My Späti", "street": "Alt-Köpenick 38", "zip-code": 12555, "lat": 52.44465, "lon": 13.57377, "planning-area-id": 9401534}}, {"type": "Feature", "geometry": {"type": "Point", "coordinates": [13.3748, 52.50911]}, "properties": {"id": "1574753265", "name": "Niezuspäti", "lat": 52.50911, "lon": 13.3748, "planning-area-id": 1100102}}, {"type": "Feature", "geometry": {"type": "Point", "coordinates": [13.40844, 52.57148]}, "properties": {"id": "1578269286", "name": "Der Obstmann", "lat": 52.57148, "lon": 13.40844, "planning-area-id": 3400722}}, {"type": "Feature", "geometry": {"type": "Point", "coordinates": [13.42568, 52.47964]}, "properties": {"id": "1578857510", "name": "Gizem", "lat": 52.47964, "lon": 13.42568, "planning-area-id": 8100206}}, {"type": "Feature", "geometry": {"type": "Point", "coordinates": [13.42296, 52.53915]}, "properties": {"id": "1584563390", "name": "Prenzlwood Späti 68", "street": "Danziger Straße 68", "lat": 52.53915, "lon": 13.42296, "planning-area-id": 3701555}}, {"type": "Feature", "geometry": {"type": "Point", "coordinates": [13.34571, 52.53134]}, "properties": {"id": "1597742298", "name": "Spätkauf", "street": "Birkenstraße 21", "zip-code": 10559, "lat": 52.53134, "lon": 13.34571, "planning-area-id": 1200623}}, {"type": "Feature", "geometry": {"type": "Point", "coordinates": [13.42205, 52.50063]}, "properties": {"id": "1614361190", "name": "Lebensmittel Hillmann", "street": "Oranienstraße 20", "zip-code": 10999, "lat": 52.50063, "lon": 13.42205, "planning-area-id": 2300314}}, {"type": "Feature", "geometry": {"type": "Point", "coordinates": [13.42321, 52.49043]}, "properties": {"id": "1614366959", "name": "Kiez Spirit", "lat": 52.49043, "lon": 13.42321, "planning-area-id": 2200213}}, {"type": "Feature", "geometry": {"type": "Point", "coordinates": [13.46187, 52.51785]}, "properties": {"id": "1614528079", "name": "Olive", "lat": 52.51785, "lon": 13.46187, "planning-area-id": 2500728}}, {"type": "Feature", "geometry": {"type": "Point", "coordinates": [13.48667, 52.4655]}, "properties": {"id": "1625174234", "name": "Kiez-Kiosk", "street": "Baumschulenstraße 89", "zip-code": 12437, "lat": 52.4655, "lon": 13.48667, "planning-area-id": 9100304}}, {"type": "Feature", "geometry": {"type": "Point", "coordinates": [13.47402, 52.51355]}, "properties": {"id": "1633204905", "name": "Hoa Mai Asia-Supermarkt", "street": "Frankfurter Allee 104", "zip-code": 10247, "lat": 52.51355, "lon": 13.47402, "planning-area-id": 2500832}}, {"type": "Feature", "geometry": {"type": "Point", "coordinates": [13.44082, 52.50005]}, "properties": {"id": "1637021706", "name": "lieber Späti als nie", "street": "Oppelner Straße 3", "zip-code": 10997, "lat": 52.50005, "lon": 13.44082, "planning-area-id": 2300419}}, {"type": "Feature", "geometry": {"type": "Point", "coordinates": [13.40537, 52.52357]}, "properties": {"id": "1653339106", "name": "Latino Point", "street": "Dircksenstraße 45", "zip-code": 10178, "lat": 52.52357, "lon": 13.40537, "planning-area-id": 1100309}}, {"type": "Feature", "geometry": {"type": "Point", "coordinates": [13.35127, 52.54781]}, "properties": {"id": "1657989689", "street": "Brüsseler Straße 9", "zip-code": 13353, "lat": 52.54781, "lon": 13.35127, "planning-area-id": 1400942}}, {"type": "Feature", "geometry": {"type": "Point", "coordinates": [13.48369, 52.46303]}, "properties": {"id": "1667160189", "name": "Baumschulen Späti", "lat": 52.46303, "lon": 13.48369, "planning-area-id": 9100304}}, {"type": "Feature", "geometry": {"type": "Point", "coordinates": [13.32006, 52.47667]}, "properties": {"id": "1668788004", "name": "We Love Späti", "street": "Hanauer Straße 80", "zip-code": 14197, "lat": 52.47667, "lon": 13.32006, "planning-area-id": 4400835}}, {"type": "Feature", "geometry": {"type": "Point", "coordinates": [13.57742, 52.45585]}, "properties": {"id": "1692613261", "name": "Alan Minimarket", "lat": 52.45585, "lon": 13.57742, "planning-area-id": 9501939}}, {"type": "Feature", "geometry": {"type": "Point", "coordinates": [13.57728, 52.45563]}, "properties": {"id": "1692613275", "name": "Obst Gemüse Getränke Lebensmittel", "lat": 52.45563, "lon": 13.57728, "planning-area-id": 9501939}}, {"type": "Feature", "geometry": {"type": "Point", "coordinates": [13.36122, 52.49018]}, "properties": {"id": "1713176030", "name": "Azzam", "lat": 52.49018, "lon": 13.36122, "planning-area-id": 7100206}}, {"type": "Feature", "geometry": {"type": "Point", "coordinates": [13.36154, 52.49022]}, "properties": {"id": "1713177124", "name": "நாகம்மா புடவையகம்", "street": "Willmanndamm 17", "zip-code": 10827, "lat": 52.49022, "lon": 13.36154, "planning-area-id": 7100206}}, {"type": "Feature", "geometry": {"type": "Point", "coordinates": [13.34057, 52.53232]}, "properties": {"id": "1721152114", "name": "Merhaba Discount", "street": "Birkenstraße 44", "zip-code": 10551, "lat": 52.53232, "lon": 13.34057, "planning-area-id": 1200520}}, {"type": "Feature", "geometry": {"type": "Point", "coordinates": [13.42324, 52.54293]}, "properties": {"id": "1742948314", "name": "Bäckerei Ergün", "lat": 52.54293, "lon": 13.42324, "planning-area-id": 3601348}}, {"type": "Feature", "geometry": {"type": "Point", "coordinates": [13.28351, 52.50626]}, "properties": {"id": "1743741230", "name": "Spätkauf", "lat": 52.50626, "lon": 13.28351, "planning-area-id": 4300415}}, {"type": "Feature", "geometry": {"type": "Point", "coordinates": [13.46971, 52.51229]}, "properties": {"id": "1758891018", "name": "MEY", "lat": 52.51229, "lon": 13.46971, "planning-area-id": 2500831}}, {"type": "Feature", "geometry": {"type": "Point", "coordinates": [13.44527, 52.4973]}, "properties": {"id": "1766031942", "name": "späti", "lat": 52.4973, "lon": 13.44527, "planning-area-id": 2300419}}, {"type": "Feature", "geometry": {"type": "Point", "coordinates": [13.41202, 52.54387]}, "properties": {"id": "1769968053", "lat": 52.54387, "lon": 13.41202, "planning-area-id": 3601142}}, {"type": "Feature", "geometry": {"type": "Point", "coordinates": [13.56366, 52.57103]}, "properties": {"id": "1777152612", "name": "Alkassem", "lat": 52.57103, "lon": 13.56366, "planning-area-id": 10100101}}, {"type": "Feature", "geometry": {"type": "Point", "coordinates": [13.42496, 52.49735]}, "properties": {"id": "1807541768", "name": "Bäckerei & Café 36", "lat": 52.49735, "lon": 13.42496, "planning-area-id": 2300417}}, {"type": "Feature", "geometry": {"type": "Point", "coordinates": [13.39103, 52.50493]}, "properties": {"id": "1814105912", "name": "Central Coffee", "street": "Friedrichstraße 32;33", "zip-code": 10969, "lat": 52.50493, "lon": 13.39103, "planning-area-id": 2100102}}, {"type": "Feature", "geometry": {"type": "Point", "coordinates": [13.41499, 52.52187]}, "properties": {"id": "1814543072", "name": "The 25 Hours Store", "zip-code": 10178, "lat": 52.52187, "lon": 13.41499, "planning-area-id": 1100310}}, {"type": "Feature", "geometry": {"type": "Point", "coordinates": [13.41859, 52.55051]}, "properties": {"id": "1831972687", "name": "Vervielfältigungsservice Breitfeld", "street": "Rodenbergstraße 33", "zip-code": 10439, "lat": 52.55051, "lon": 13.41859, "planning-area-id": 3601243}}, {"type": "Feature", "geometry": {"type": "Point", "coordinates": [13.42389, 52.54955]}, "properties": {"id": "1843136483", "name": "Spektrum Lebensfreude", "street": "Erich-Weinert-Straße 63", "zip-code": 10439, "lat": 52.54955, "lon": 13.42389, "planning-area-id": 3601244}}, {"type": "Feature", "geometry": {"type": "Point", "coordinates": [13.39424, 52.56477]}, "properties": {"id": "1845262965", "name": "pir Getränke", "street": "Wollankstraße 102", "zip-code": 13187, "lat": 52.56477, "lon": 13.39424, "planning-area-id": 3400721}}, {"type": "Feature", "geometry": {"type": "Point", "coordinates": [13.39234, 52.56372]}, "properties": {"id": "1847156092", "name": "Tausend Dinge", "street": "Wollankstraße 97", "zip-code": 13359, "lat": 52.56372, "lon": 13.39234, "planning-area-id": 1300732}}, {"type": "Feature", "geometry": {"type": "Point", "coordinates": [13.42951, 52.48144]}, "properties": {"id": "1848909329", "name": "Eck Oase", "lat": 52.48144, "lon": 13.42951, "planning-area-id": 8100206}}, {"type": "Feature", "geometry": {"type": "Point", "coordinates": [13.45952, 52.51025]}, "properties": {"id": "1862169692", "name": "Kiezladen", "lat": 52.51025, "lon": 13.45952, "planning-area-id": 2500833}}, {"type": "Feature", "geometry": {"type": "Point", "coordinates": [13.34157, 52.5254]}, "properties": {"id": "1866365545", "name": "Internet-Telecafe", "street": "Alt-Moabit 86", "zip-code": 10555, "lat": 52.5254, "lon": 13.34157, "planning-area-id": 1200522}}, {"type": "Feature", "geometry": {"type": "Point", "coordinates": [13.42209, 52.53487]}, "properties": {"id": "1875070756", "name": "Späti Bros", "street": "Prenzlauer Allee 37", "zip-code": 10405, "lat": 52.53487, "lon": 13.42209, "planning-area-id": 3701659}}, {"type": "Feature", "geometry": {"type": "Point", "coordinates": [13.43274, 52.48539]}, "properties": {"id": "1907577425", "name": "Spätkauf", "lat": 52.48539, "lon": 13.43274, "planning-area-id": 8100312}}, {"type": "Feature", "geometry": {"type": "Point", "coordinates": [13.4688, 52.51776]}, "properties": {"id": "1909902419", "name": "Back&Caffee Eck", "lat": 52.51776, "lon": 13.4688, "planning-area-id": 2500728}}, {"type": "Feature", "geometry": {"type": "Point", "coordinates": [13.32871, 52.53248]}, "properties": {"id": "1912183755", "name": "GP GetränkeMarkt", "street": "Beusselstraße 43", "zip-code": 10553, "lat": 52.53248, "lon": 13.32871, "planning-area-id": 1200519}}, {"type": "Feature", "geometry": {"type": "Point", "coordinates": [13.3077, 52.51677]}, "properties": {"id": "1915389772", "name": "Keno", "lat": 52.51677, "lon": 13.3077, "planning-area-id": 4300621}}, {"type": "Feature", "geometry": {"type": "Point", "coordinates": [13.45929, 52.47245]}, "properties": {"id": "1923316601", "name": "cebe Werksverkauf", "street": "Sonnenallee 227", "zip-code": 12057, "lat": 52.47245, "lon": 13.45929, "planning-area-id": 8100520}}, {"type": "Feature", "geometry": {"type": "Point", "coordinates": [13.51845, 52.41074]}, "properties": {"id": "1923320817", "name": "Milchhof Mendler", "street": "Lettberger Straße 94", "zip-code": 12355, "lat": 52.41074, "lon": 13.51845, "planning-area-id": 8401246}}, {"type": "Feature", "geometry": {"type": "Point", "coordinates": [13.40694, 52.53349]}, "properties": {"id": "1928634713", "name": "Presseshop & Spätkauf", "lat": 52.53349, "lon": 13.40694, "planning-area-id": 1100416}}, {"type": "Feature", "geometry": {"type": "Point", "coordinates": [13.40701, 52.53285]}, "properties": {"id": "1928636123", "name": "Spätkauf", "street": "Choriner Straße 11", "zip-code": 10119, "lat": 52.53285, "lon": 13.40701, "planning-area-id": 3701554}}, {"type": "Feature", "geometry": {"type": "Point", "coordinates": [13.39252, 52.49061]}, "properties": {"id": "1947086939", "name": "Späti Alte Apotheke", "street": "Solmsstraße 35", "zip-code": 10961, "lat": 52.49061, "lon": 13.39252, "planning-area-id": 2200211}}, {"type": "Feature", "geometry": {"type": "Point", "coordinates": [13.28773, 52.51868]}, "properties": {"id": "1948899764", "name": "Sidar Mini Market", "zip-code": 14059, "lat": 52.51868, "lon": 13.28773, "planning-area-id": 4300413}}, {"type": "Feature", "geometry": {"type": "Point", "coordinates": [13.42235, 52.533]}, "properties": {"id": "1964250493", "name": "Asia • Obst • Gemüse • Getränke • Tabak • Lebensmittel", "lat": 52.533, "lon": 13.42235, "planning-area-id": 3701659}}, {"type": "Feature", "geometry": {"type": "Point", "coordinates": [13.3444, 52.43841]}, "properties": {"id": "1964964493", "name": "Kiosk bei Ela-Ma", "lat": 52.43841, "lon": 13.3444, "planning-area-id": 6200313}}, {"type": "Feature", "geometry": {"type": "Point", "coordinates": [13.42798, 52.48489]}, "properties": {"id": "1965270924", "name": "Kiosk 23", "lat": 52.48489, "lon": 13.42798, "planning-area-id": 8100314}}, {"type": "Feature", "geometry": {"type": "Point", "coordinates": [13.42852, 52.48423]}, "properties": {"id": "1965270960", "name": "CAN Getränke", "lat": 52.48423, "lon": 13.42852, "planning-area-id": 8100206}}, {"type": "Feature", "geometry": {"type": "Point", "coordinates": [13.43311, 52.4968]}, "properties": {"id": "1965863431", "name": "Spätverkauf und Internet", "street": "Wiener Straße 28", "zip-code": 10999, "lat": 52.4968, "lon": 13.43311, "planning-area-id": 2300418}}, {"type": "Feature", "geometry": {"type": "Point", "coordinates": [13.31794, 52.5176]}, "properties": {"id": "1966836915", "name": "Michas Marktplatz", "street": "Guerickestraße 10", "zip-code": 10587, "lat": 52.5176, "lon": 13.31794, "planning-area-id": 4300622}}, {"type": "Feature", "geometry": {"type": "Point", "coordinates": [13.31984, 52.49652]}, "properties": {"id": "1979735269", "name": "Weltladen A Janela", "street": "Emser Straße 45", "zip-code": 10719, "lat": 52.49652, "lon": 13.31984, "planning-area-id": 4501044}}, {"type": "Feature", "geometry": {"type": "Point", "coordinates": [13.55094, 52.43906]}, "properties": {"id": "1979799014", "name": "Sibir", "street": "Dörpfeldstraße 62", "lat": 52.43906, "lon": 13.55094, "planning-area-id": 9200717}}, {"type": "Feature", "geometry": {"type": "Point", "coordinates": [13.46485, 52.51491]}, "properties": {"id": "1980987092", "name": "Kiez Shop", "street": "Frankfurter Allee 51", "lat": 52.51491, "lon": 13.46485, "planning-area-id": 2500728}}, {"type": "Feature", "geometry": {"type": "Point", "coordinates": [13.48249, 52.51599]}, "properties": {"id": "1981140798", "name": "Mini Markt", "street": "Normannenstraße 6", "zip-code": 10367, "lat": 52.51599, "lon": 13.48249, "planning-area-id": 11300722}}, {"type": "Feature", "geometry": {"type": "Point", "coordinates": [13.325, 52.4909]}, "properties": {"id": "1985536781", "name": "Automatico", "street": "Holsteinische Straße 19", "zip-code": 10717, "lat": 52.4909, "lon": 13.325, "planning-area-id": 4501149}}, {"type": "Feature", "geometry": {"type": "Point", "coordinates": [13.3391, 52.55373]}, "properties": {"id": "1988000838", "name": "Jashims Tante-Emma-Laden", "street": "Otawistraße 23", "zip-code": 13351, "lat": 52.55373, "lon": 13.3391, "planning-area-id": 1400937}}, {"type": "Feature", "geometry": {"type": "Point", "coordinates": [13.25192, 52.44948]}, "properties": {"id": "2018958606", "name": "Reformhaus Demski", "street": "Onkel-Tom-Straße 99", "zip-code": 14169, "lat": 52.44948, "lon": 13.25192, "planning-area-id": 6400840}}, {"type": "Feature", "geometry": {"type": "Point", "coordinates": [13.24106, 52.44207]}, "properties": {"id": "2018959799", "name": "Reformhaus Demski", "street": "Fischerhüttenstraße 64", "zip-code": 14163, "lat": 52.44207, "lon": 13.24106, "planning-area-id": 6400839}}, {"type": "Feature", "geometry": {"type": "Point", "coordinates": [13.31193, 52.50658]}, "properties": {"id": "2029768594", "name": "Kantshop", "street": "Kantstraße 46", "zip-code": 10625, "lat": 52.50658, "lon": 13.31193, "planning-area-id": 4300623}}, {"type": "Feature", "geometry": {"type": "Point", "coordinates": [13.35674, 52.48694]}, "properties": {"id": "2072375894", "name": "Kaiser Kiosk", "street": "Hauptstraße 18", "zip-code": 10827, "lat": 52.48694, "lon": 13.35674, "planning-area-id": 7200409}}, {"type": "Feature", "geometry": {"type": "Point", "coordinates": [13.43501, 52.48635]}, "properties": {"id": "2072853940", "name": "Späti International", "street": "Weserstraße 190", "zip-code": 12045, "lat": 52.48635, "lon": 13.43501, "planning-area-id": 8100312}}, {"type": "Feature", "geometry": {"type": "Point", "coordinates": [13.34494, 52.43556]}, "properties": {"id": "2098290154", "name": "Reformhaus Demski", "street": "Kaiser-Wilhelm-Straße 77", "zip-code": 12247, "lat": 52.43556, "lon": 13.34494, "planning-area-id": 6200313}}, {"type": "Feature", "geometry": {"type": "Point", "coordinates": [13.42652, 52.48836]}, "properties": {"id": "2126092520", "name": "Trinko Store", "lat": 52.48836, "lon": 13.42652, "planning-area-id": 8100311}}, {"type": "Feature", "geometry": {"type": "Point", "coordinates": [13.36322, 52.55047]}, "properties": {"id": "2127393893", "name": "Backshop", "lat": 52.55047, "lon": 13.36322, "planning-area-id": 1401049}}, {"type": "Feature", "geometry": {"type": "Point", "coordinates": [13.32583, 52.45548]}, "properties": {"id": "2131565441", "name": "Feinkost Häusler", "street": "Albrechtstraße 120", "zip-code": 12167, "lat": 52.45548, "lon": 13.32583, "planning-area-id": 6100208}}, {"type": "Feature", "geometry": {"type": "Point", "coordinates": [13.39694, 52.56572]}, "properties": {"id": "2148260152", "name": "Flora Bäckerei & Spätkauf", "street": "Florastraße 4", "zip-code": 13187, "lat": 52.56572, "lon": 13.39694, "planning-area-id": 3400721}}, {"type": "Feature", "geometry": {"type": "Point", "coordinates": [13.39476, 52.50686]}, "properties": {"id": "2181178527", "name": "Tobacco & Drinks", "lat": 52.50686, "lon": 13.39476, "planning-area-id": 2100102}}, {"type": "Feature", "geometry": {"type": "Point", "coordinates": [13.38623, 52.50517]}, "properties": {"id": "2183841807", "name": "E-36 Late Night", "lat": 52.50517, "lon": 13.38623, "planning-area-id": 2100101}}, {"type": "Feature", "geometry": {"type": "Point", "coordinates": [13.38624, 52.49039]}, "properties": {"id": "2190106003", "name": "Intern@net Call-Center", "lat": 52.49039, "lon": 13.38624, "planning-area-id": 2200209}}, {"type": "Feature", "geometry": {"type": "Point", "coordinates": [13.3961, 52.49091]}, "properties": {"id": "2266759473", "name": "Aqua Getränke- und Weinhandlung", "street": "Gneisenaustraße 30", "zip-code": 10961, "lat": 52.49091, "lon": 13.3961, "planning-area-id": 2200211}}, {"type": "Feature", "geometry": {"type": "Point", "coordinates": [13.37658, 52.45932]}, "properties": {"id": "2285962041", "name": "Kısmet Market", "street": "Manteuffelstraße 45", "zip-code": 12103, "lat": 52.45932, "lon": 13.37658, "planning-area-id": 7400825}}, {"type": "Feature", "geometry": {"type": "Point", "coordinates": [13.15872, 52.46251]}, "properties": {"id": "2286884682", "name": "Weichardts Hofladen", "street": "Kladower Damm 221", "zip-code": 14089, "lat": 52.46251, "lon": 13.15872, "planning-area-id": 5400942}}, {"type": "Feature", "geometry": {"type": "Point", "coordinates": [13.40844, 52.51037]}, "properties": {"id": "2287699197", "name": "Asia Markt", "street": "Alte Jakobstraße 77", "zip-code": 10179, "lat": 52.51037, "lon": 13.40844, "planning-area-id": 1100312}}, {"type": "Feature", "geometry": {"type": "Point", "coordinates": [13.40253, 52.56407]}, "properties": {"id": "2296927807", "name": "Doppelpack Handels GmbH", "street": "Heynstraße 9", "zip-code": 13187, "lat": 52.56407, "lon": 13.40253, "planning-area-id": 3400721}}, {"type": "Feature", "geometry": {"type": "Point", "coordinates": [13.36246, 52.54655]}, "properties": {"id": "2297383210", "name": "Ultra Kiosk", "street": "Antonstraße 42", "zip-code": 13347, "lat": 52.54655, "lon": 13.36246, "planning-area-id": 1401043}}, {"type": "Feature", "geometry": {"type": "Point", "coordinates": [13.36428, 52.54988]}, "properties": {"id": "2300052118", "name": "First Class Telecafe", "lat": 52.54988, "lon": 13.36428, "planning-area-id": 1401049}}, {"type": "Feature", "geometry": {"type": "Point", "coordinates": [13.36403, 52.55001]}, "properties": {"id": "2300052127", "name": "Max-Multi Shop", "lat": 52.55001, "lon": 13.36403, "planning-area-id": 1401049}}, {"type": "Feature", "geometry": {"type": "Point", "coordinates": [13.36448, 52.55001]}, "properties": {"id": "2301610392", "name": "Sen Market", "street": "Schulstraße 117", "zip-code": 13347, "lat": 52.55001, "lon": 13.36448, "planning-area-id": 1401049}}, {"type": "Feature", "geometry": {"type": "Point", "coordinates": [13.36694, 52.55159]}, "properties": {"id": "2301610395", "name": "Spätshop", "lat": 52.55159, "lon": 13.36694, "planning-area-id": 1401049}}, {"type": "Feature", "geometry": {"type": "Point", "coordinates": [13.36387, 52.54904]}, "properties": {"id": "2303114798", "name": "Abritus", "lat": 52.54904, "lon": 13.36387, "planning-area-id": 1401043}}, {"type": "Feature", "geometry": {"type": "Point", "coordinates": [13.36416, 52.54923]}, "properties": {"id": "2303114813", "name": "Afroshop Marula", "lat": 52.54923, "lon": 13.36416, "planning-area-id": 1401043}}, {"type": "Feature", "geometry": {"type": "Point", "coordinates": [13.36491, 52.54747]}, "properties": {"id": "2305236082", "name": "Backshop Spätverkauf", "street": "Prinz-Eugen-Straße 21", "lat": 52.54747, "lon": 13.36491, "planning-area-id": 1401043}}, {"type": "Feature", "geometry": {"type": "Point", "coordinates": [13.35532, 52.54201]}, "properties": {"id": "2306426962", "lat": 52.54201, "lon": 13.35532, "planning-area-id": 1401046}}, {"type": "Feature", "geometry": {"type": "Point", "coordinates": [13.43375, 52.46382]}, "properties": {"id": "2332757501", "name": "Antipasto", "zip-code": 12051, "lat": 52.46382, "lon": 13.43375, "planning-area-id": 8100209}}, {"type": "Feature", "geometry": {"type": "Point", "coordinates": [13.42383, 52.50162]}, "properties": {"id": "2335055081", "name": "Kiosk am Mariannen", "lat": 52.50162, "lon": 13.42383, "planning-area-id": 2300314}}, {"type": "Feature", "geometry": {"type": "Point", "coordinates": [13.45407, 52.51233]}, "properties": {"id": "2335083233", "name": "Day & Night Shop", "street": "Grünberger Straße 35", "zip-code": 10245, "lat": 52.51233, "lon": 13.45407, "planning-area-id": 2500833}}, {"type": "Feature", "geometry": {"type": "Point", "coordinates": [13.45574, 52.51205]}, "properties": {"id": "2335091426", "name": "Mini Markt", "street": "Grünberger Straße 49", "zip-code": 10245, "lat": 52.51205, "lon": 13.45574, "planning-area-id": 2500833}}, {"type": "Feature", "geometry": {"type": "Point", "coordinates": [13.43867, 52.46958]}, "properties": {"id": "2342347250", "name": "Spätkauf", "street": "Emser Straße 11;10", "zip-code": 12051, "lat": 52.46958, "lon": 13.43867, "planning-area-id": 8100208}}, {"type": "Feature", "geometry": {"type": "Point", "coordinates": [13.31519, 52.50604]}, "properties": {"id": "2352412654", "name": "T.G.E.", "street": "Kantstraße 133", "zip-code": 10625, "lat": 52.50604, "lon": 13.31519, "planning-area-id": 4300624}}, {"type": "Feature", "geometry": {"type": "Point", "coordinates": [13.43952, 52.47543]}, "properties": {"id": "2352673943", "name": "Kollektiv Bioase", "street": "Karl-Marx-Straße 162", "zip-code": 12043, "lat": 52.47543, "lon": 13.43952, "planning-area-id": 8100207}}, {"type": "Feature", "geometry": {"type": "Point", "coordinates": [13.38172, 52.51369]}, "properties": {"id": "2361021964", "name": "Berlin City Market", "street": "Wilhelmstraße 84", "lat": 52.51369, "lon": 13.38172, "planning-area-id": 1100205}}, {"type": "Feature", "geometry": {"type": "Point", "coordinates": [13.38333, 52.48387]}, "properties": {"id": "2361562308", "name": "Elas Spätkauf 35", "street": "Manfred-von-Richthofen-Straße 10", "zip-code": 12101, "lat": 52.48387, "lon": 13.38333, "planning-area-id": 7400720}}, {"type": "Feature", "geometry": {"type": "Point", "coordinates": [13.40557, 52.49006]}, "properties": {"id": "2402339483", "name": "Cennet", "street": "Südstern 2", "zip-code": 10961, "lat": 52.49006, "lon": 13.40557, "planning-area-id": 2200210}}, {"type": "Feature", "geometry": {"type": "Point", "coordinates": [13.34351, 52.50425]}, "properties": {"id": "2402905128", "name": "Spätkauf", "lat": 52.50425, "lon": 13.34351, "planning-area-id": 7100101}}, {"type": "Feature", "geometry": {"type": "Point", "coordinates": [13.45644, 52.50235]}, "properties": {"id": "2403972911", "name": "Getränkeshop", "lat": 52.50235, "lon": 13.45644, "planning-area-id": 2500835}}, {"type": "Feature", "geometry": {"type": "Point", "coordinates": [13.41192, 52.55215]}, "properties": {"id": "2420799063", "name": "Clerks Späti", "street": "Paul-Robeson-Straße 43", "zip-code": 10439, "lat": 52.55215, "lon": 13.41192, "planning-area-id": 3601141}}, {"type": "Feature", "geometry": {"type": "Point", "coordinates": [13.30238, 52.584]}, "properties": {"id": "2420918363", "name": "Mini Markt Tieba", "lat": 52.584, "lon": 13.30238, "planning-area-id": 12500825}}, {"type": "Feature", "geometry": {"type": "Point", "coordinates": [13.244, 52.51041]}, "properties": {"id": "2423398551", "name": "Stevos", "street": "Flatowallee 16", "zip-code": 14055, "lat": 52.51041, "lon": 13.244, "planning-area-id": 4200205}}, {"type": "Feature", "geometry": {"type": "Point", "coordinates": [13.46545, 52.51124]}, "properties": {"id": "2429480918", "name": "Jung Shop", "street": "Jungstraße 19", "zip-code": 10247, "lat": 52.51124, "lon": 13.46545, "planning-area-id": 2500831}}, {"type": "Feature", "geometry": {"type": "Point", "coordinates": [13.45794, 52.50997]}, "properties": {"id": "2429501927", "name": "Meet Kiosk Spätverkauf", "street": "Gabriel-Max-Straße 20", "zip-code": 10245, "lat": 52.50997, "lon": 13.45794, "planning-area-id": 2500833}}, {"type": "Feature", "geometry": {"type": "Point", "coordinates": [13.43268, 52.50227]}, "properties": {"id": "2432876317", "name": "Kiosk Burhan Aykut", "street": "Wrangelstraße 24", "zip-code": 10997, "lat": 52.50227, "lon": 13.43268, "planning-area-id": 2300315}}, {"type": "Feature", "geometry": {"type": "Point", "coordinates": [13.45913, 52.50906]}, "properties": {"id": "2438849736", "name": "Select Drinks & More", "street": "Wühlischstraße 38", "zip-code": 10245, "lat": 52.50906, "lon": 13.45913, "planning-area-id": 2500834}}, {"type": "Feature", "geometry": {"type": "Point", "coordinates": [13.32007, 52.48696]}, "properties": {"id": "2445456646", "name": "Sweet Mini Markt", "street": "Brandenburgische Straße 1a", "zip-code": 10713, "lat": 52.48696, "lon": 13.32007, "planning-area-id": 4501147}}, {"type": "Feature", "geometry": {"type": "Point", "coordinates": [13.3616, 52.4842]}, "properties": {"id": "2454290040", "name": "Spätkauf", "lat": 52.4842, "lon": 13.3616, "planning-area-id": 7200413}}, {"type": "Feature", "geometry": {"type": "Point", "coordinates": [13.43071, 52.48686]}, "properties": {"id": "2484347004", "name": "Heil Quelle", "lat": 52.48686, "lon": 13.43071, "planning-area-id": 8100311}}, {"type": "Feature", "geometry": {"type": "Point", "coordinates": [13.43057, 52.48617]}, "properties": {"id": "2484347012", "name": "Havin", "lat": 52.48617, "lon": 13.43057, "planning-area-id": 8100312}}, {"type": "Feature", "geometry": {"type": "Point", "coordinates": [13.38783, 52.49237]}, "properties": {"id": "2496651179", "name": "Café Tinto", "zip-code": 10961, "lat": 52.49237, "lon": 13.38783, "planning-area-id": 2200211}}, {"type": "Feature", "geometry": {"type": "Point", "coordinates": [13.45837, 52.51013]}, "properties": {"id": "2496841605", "name": "Quick Store Aquarium Lounge", "street": "Gabriel-Max-Straße 4", "zip-code": 10245, "lat": 52.51013, "lon": 13.45837, "planning-area-id": 2500833}}, {"type": "Feature", "geometry": {"type": "Point", "coordinates": [13.30918, 52.50729]}, "properties": {"id": "2532870781", "name": "TAEO Thai Supermarkt", "street": "Krumme Straße 42", "zip-code": 10627, "lat": 52.50729, "lon": 13.30918, "planning-area-id": 4300623}}, {"type": "Feature", "geometry": {"type": "Point", "coordinates": [13.4405, 52.54299]}, "properties": {"id": "2538714890", "name": "Duman Spätkauf - Lyca Mobile Partner", "street": "Greifswalder Straße 159", "zip-code": 10409, "lat": 52.54299, "lon": 13.4405, "planning-area-id": 3601245}}, {"type": "Feature", "geometry": {"type": "Point", "coordinates": [13.3796, 52.54577]}, "properties": {"id": "2566382658", "name": "Back & Späti", "lat": 52.54577, "lon": 13.3796, "planning-area-id": 1300836}}, {"type": "Feature", "geometry": {"type": "Point", "coordinates": [13.46547, 52.51671]}, "properties": {"id": "2571168397", "name": "Samariter Tourist Shop", "street": "Samariterstraße 10", "zip-code": 10247, "lat": 52.51671, "lon": 13.46547, "planning-area-id": 2500728}}, {"type": "Feature", "geometry": {"type": "Point", "coordinates": [13.42639, 52.48811]}, "properties": {"id": "2591225594", "name": "Alpha and Omega International Afro Shop", "street": "Weserstraße 3-4", "zip-code": 12047, "lat": 52.48811, "lon": 13.42639, "planning-area-id": 8100311}}, {"type": "Feature", "geometry": {"type": "Point", "coordinates": [13.54911, 52.43818]}, "properties": {"id": "2618499940", "name": "ASIA Lebensmittel", "street": "Dörpfeldstraße 46", "zip-code": 12489, "lat": 52.43818, "lon": 13.54911, "planning-area-id": 9200717}}, {"type": "Feature", "geometry": {"type": "Point", "coordinates": [13.41563, 52.49587]}, "properties": {"id": "2625393031", "name": "Bauerngarten", "street": "Admiralstraße 21", "zip-code": 10999, "lat": 52.49587, "lon": 13.41563, "planning-area-id": 2100106}}, {"type": "Feature", "geometry": {"type": "Point", "coordinates": [13.43754, 52.46945]}, "properties": {"id": "2631445467", "name": "Spätkauf Stadt-Kiosk", "street": "Emser Straße 15", "zip-code": 12051, "lat": 52.46945, "lon": 13.43754, "planning-area-id": 8100208}}, {"type": "Feature", "geometry": {"type": "Point", "coordinates": [13.42751, 52.49942]}, "properties": {"id": "2641521427", "name": "Drinkshop", "lat": 52.49942, "lon": 13.42751, "planning-area-id": 2300315}}, {"type": "Feature", "geometry": {"type": "Point", "coordinates": [13.33007, 52.52431]}, "properties": {"id": "2654574019", "name": "Moonshine Spätkauf", "lat": 52.52431, "lon": 13.33007, "planning-area-id": 1200521}}, {"type": "Feature", "geometry": {"type": "Point", "coordinates": [13.4791, 52.50419]}, "properties": {"id": "2663080756", "name": "Kiez Einkaufseck", "street": "Kaskelstraße 28", "lat": 52.50419, "lon": 13.4791, "planning-area-id": 11400927}}, {"type": "Feature", "geometry": {"type": "Point", "coordinates": [13.4456, 52.47095]}, "properties": {"id": "2688507896", "name": "Azam Getränkeshop Spätkauf", "street": "Braunschweiger Straße 58", "zip-code": 12055, "lat": 52.47095, "lon": 13.4456, "planning-area-id": 8100417}}, {"type": "Feature", "geometry": {"type": "Point", "coordinates": [13.47034, 52.50649]}, "properties": {"id": "2690026209", "name": "Best of Späti", "lat": 52.50649, "lon": 13.47034, "planning-area-id": 2500832}}, {"type": "Feature", "geometry": {"type": "Point", "coordinates": [13.43159, 52.46662]}, "properties": {"id": "2729010572", "name": "Semsur", "lat": 52.46662, "lon": 13.43159, "planning-area-id": 8100105}}, {"type": "Feature", "geometry": {"type": "Point", "coordinates": [13.3712, 52.53965]}, "properties": {"id": "2736043858", "name": "Spät & Backshop", "lat": 52.53965, "lon": 13.3712, "planning-area-id": 1300836}}, {"type": "Feature", "geometry": {"type": "Point", "coordinates": [13.34012, 52.52695]}, "properties": {"id": "2745722989", "name": "Asia - asiatische Lebensmittel Geschenkartikel", "street": "Bredowstraße 2", "zip-code": 10551, "lat": 52.52695, "lon": 13.34012, "planning-area-id": 1200520}}, {"type": "Feature", "geometry": {"type": "Point", "coordinates": [13.38515, 52.55672]}, "properties": {"id": "2752211152", "name": "Akso Export", "street": "Prinzenallee 25-26", "zip-code": 13359, "lat": 52.55672, "lon": 13.38515, "planning-area-id": 1300732}}, {"type": "Feature", "geometry": {"type": "Point", "coordinates": [13.38754, 52.55598]}, "properties": {"id": "2752211158", "name": "Balkan", "street": "Osloer Straße 7", "zip-code": 13359, "lat": 52.55598, "lon": 13.38754, "planning-area-id": 1300732}}, {"type": "Feature", "geometry": {"type": "Point", "coordinates": [13.38559, 52.55726]}, "properties": {"id": "2752211176", "name": "Orientshop", "street": "Prinzenallee 30", "zip-code": 13359, "lat": 52.55726, "lon": 13.38559, "planning-area-id": 1300732}}, {"type": "Feature", "geometry": {"type": "Point", "coordinates": [13.39243, 52.52447]}, "properties": {"id": "2756495812", "name": "Spätkauf", "lat": 52.52447, "lon": 13.39243, "planning-area-id": 1100309}}, {"type": "Feature", "geometry": {"type": "Point", "coordinates": [13.38433, 52.55645]}, "properties": {"id": "2756763461", "name": "Yiğido 58 Spätkauf", "lat": 52.55645, "lon": 13.38433, "planning-area-id": 1300730}}, {"type": "Feature", "geometry": {"type": "Point", "coordinates": [13.39163, 52.56388]}, "properties": {"id": "2756763474", "name": "Spätkauf", "lat": 52.56388, "lon": 13.39163, "planning-area-id": 1300731}}, {"type": "Feature", "geometry": {"type": "Point", "coordinates": [13.379, 52.50523]}, "properties": {"id": "2769572946", "name": "T.I.C 2", "lat": 52.50523, "lon": 13.379, "planning-area-id": 2100101}}, {"type": "Feature", "geometry": {"type": "Point", "coordinates": [13.44319, 52.49957]}, "properties": {"id": "2796270178", "name": "See U Späti", "street": "Falckensteinstraße 5", "zip-code": 10997, "lat": 52.49957, "lon": 13.44319, "planning-area-id": 2300419}}, {"type": "Feature", "geometry": {"type": "Point", "coordinates": [13.40398, 52.52331]}, "properties": {"id": "2796736339", "name": "Long Shop", "street": "Dircksenstraße 50", "zip-code": 10178, "lat": 52.52331, "lon": 13.40398, "planning-area-id": 1100309}}, {"type": "Feature", "geometry": {"type": "Point", "coordinates": [13.31905, 52.49797]}, "properties": {"id": "2801187847", "name": "7 days Late Shop", "lat": 52.49797, "lon": 13.31905, "planning-area-id": 4501044}}, {"type": "Feature", "geometry": {"type": "Point", "coordinates": [13.42593, 52.48781]}, "properties": {"id": "2813482370", "name": "Drinks Shop Hermann Platz", "lat": 52.48781, "lon": 13.42593, "planning-area-id": 8100311}}, {"type": "Feature", "geometry": {"type": "Point", "coordinates": [13.46309, 52.5151]}, "properties": {"id": "2824979767", "name": "Camel", "street": "Frankfurter Allee 43", "zip-code": 10247, "lat": 52.5151, "lon": 13.46309, "planning-area-id": 2500728}}, {"type": "Feature", "geometry": {"type": "Point", "coordinates": [13.3258, 52.52785]}, "properties": {"id": "2827585866", "name": "Ed & Fred Nussdepot", "street": "Huttenstraße 8", "zip-code": 10553, "lat": 52.52785, "lon": 13.3258, "planning-area-id": 1200518}}, {"type": "Feature", "geometry": {"type": "Point", "coordinates": [13.39717, 52.53713]}, "properties": {"id": "2860326047", "name": "Tam Phuc Asia Shop Spätkauf", "lat": 52.53713, "lon": 13.39717, "planning-area-id": 1100416}}, {"type": "Feature", "geometry": {"type": "Point", "coordinates": [13.45256, 52.51988]}, "properties": {"id": "2862295897", "name": "Djangos Place", "street": "Petersburger Straße 69", "zip-code": 10249, "lat": 52.51988, "lon": 13.45256, "planning-area-id": 2500726}}, {"type": "Feature", "geometry": {"type": "Point", "coordinates": [13.18502, 52.51492]}, "properties": {"id": "2873890929", "name": "Esso", "street": "Heerstraße 285", "zip-code": 13595, "lat": 52.51492, "lon": 13.18502, "planning-area-id": 5200634}}, {"type": "Feature", "geometry": {"type": "Point", "coordinates": [13.36341, 52.49574]}, "properties": {"id": "2874686038", "name": "Infinity", "lat": 52.49574, "lon": 13.36341, "planning-area-id": 7100205}}, {"type": "Feature", "geometry": {"type": "Point", "coordinates": [13.36585, 52.49516]}, "properties": {"id": "2874686040", "name": "Schland Night Shop", "lat": 52.49516, "lon": 13.36585, "planning-area-id": 7100205}}, {"type": "Feature", "geometry": {"type": "Point", "coordinates": [13.61231, 52.52645]}, "properties": {"id": "2877252373", "name": "Spätverkauf", "lat": 52.52645, "lon": 13.61231, "planning-area-id": 10400835}}, {"type": "Feature", "geometry": {"type": "Point", "coordinates": [13.29029, 52.47684]}, "properties": {"id": "2881543413", "name": "Hofladen im Kiez (Bioladen)", "lat": 52.47684, "lon": 13.29029, "planning-area-id": 4400830}}, {"type": "Feature", "geometry": {"type": "Point", "coordinates": [13.43269, 52.55834]}, "properties": {"id": "2886852045", "name": "Elan", "street": "Tino-Schwierzina-Straße 37", "zip-code": 13089, "lat": 52.55834, "lon": 13.43269, "planning-area-id": 3300516}}, {"type": "Feature", "geometry": {"type": "Point", "coordinates": [13.42643, 52.48724]}, "properties": {"id": "2926167818", "name": "Späti47", "street": "Sonnenallee 12", "zip-code": 12047, "lat": 52.48724, "lon": 13.42643, "planning-area-id": 8100314}}, {"type": "Feature", "geometry": {"type": "Point", "coordinates": [13.42365, 52.50143]}, "properties": {"id": "2935214601", "name": "Akasya Spätkauf", "lat": 52.50143, "lon": 13.42365, "planning-area-id": 2300314}}, {"type": "Feature", "geometry": {"type": "Point", "coordinates": [13.42701, 52.49981]}, "properties": {"id": "2935241502", "name": "Abschnitt 36", "street": "Audre-Lorde-Straße 73", "zip-code": 10997, "lat": 52.49981, "lon": 13.42701, "planning-area-id": 2300315}}, {"type": "Feature", "geometry": {"type": "Point", "coordinates": [13.44, 52.48404]}, "properties": {"id": "2935386822", "name": "Elbe Getränke", "street": "Weserstraße 171", "zip-code": 12045, "lat": 52.48404, "lon": 13.44, "planning-area-id": 8100312}}, {"type": "Feature", "geometry": {"type": "Point", "coordinates": [13.4622, 52.50858]}, "properties": {"id": "2935555501", "name": "MultiMarkt", "lat": 52.50858, "lon": 13.4622, "planning-area-id": 2500833}}, {"type": "Feature", "geometry": {"type": "Point", "coordinates": [13.36357, 52.56453]}, "properties": {"id": "2953781233", "name": "Spätkauf", "street": "Residenzstraße 48", "lat": 52.56453, "lon": 13.36357, "planning-area-id": 12100204}}, {"type": "Feature", "geometry": {"type": "Point", "coordinates": [13.37182, 52.56086]}, "properties": {"id": "2953846658", "name": "Kaufshop Bafi", "street": "Reginhardstraße 34", "zip-code": 13409, "lat": 52.56086, "lon": 13.37182, "planning-area-id": 12100101}}, {"type": "Feature", "geometry": {"type": "Point", "coordinates": [13.40228, 52.58593]}, "properties": {"id": "2958353241", "name": "SpätiPate", "street": "Dietzgenstraße 57", "zip-code": 13156, "lat": 52.58593, "lon": 13.40228, "planning-area-id": 3200205}}, {"type": "Feature", "geometry": {"type": "Point", "coordinates": [13.30215, 52.50602]}, "properties": {"id": "2962777900", "name": "Späti am Stutti", "lat": 52.50602, "lon": 13.30215, "planning-area-id": 4300416}}, {"type": "Feature", "geometry": {"type": "Point", "coordinates": [13.3019, 52.48814]}, "properties": {"id": "2973862795", "name": "#mein Spaetkauf", "street": "Hohenzollerndamm 156", "zip-code": 10713, "lat": 52.48814, "lon": 13.3019, "planning-area-id": 4501146}}, {"type": "Feature", "geometry": {"type": "Point", "coordinates": [13.57691, 52.45516]}, "properties": {"id": "3004064464", "name": "Weltladen Köpenick", "street": "Bahnhofstraße 9", "zip-code": 12555, "lat": 52.45516, "lon": 13.57691, "planning-area-id": 9501939}}, {"type": "Feature", "geometry": {"type": "Point", "coordinates": [13.45378, 52.51774]}, "properties": {"id": "3072013563", "name": "Botan Späti", "street": "Petersburger Straße 87", "lat": 52.51774, "lon": 13.45378, "planning-area-id": 2500727}}, {"type": "Feature", "geometry": {"type": "Point", "coordinates": [13.4396, 52.49942]}, "properties": {"id": "3073260197", "name": "Spätkauf Wrangelkiez", "street": "Wrangelstraße 44", "zip-code": 10997, "lat": 52.49942, "lon": 13.4396, "planning-area-id": 2300419}}, {"type": "Feature", "geometry": {"type": "Point", "coordinates": [13.44076, 52.4992]}, "properties": {"id": "3073291314", "name": "Spätverkauf", "street": "Wrangelstraße 87", "zip-code": 10997, "lat": 52.4992, "lon": 13.44076, "planning-area-id": 2300419}}, {"type": "Feature", "geometry": {"type": "Point", "coordinates": [13.43018, 52.49778]}, "properties": {"id": "3074531911", "name": "Original Unverpackt", "street": "Wiener Straße 16", "zip-code": 10999, "lat": 52.49778, "lon": 13.43018, "planning-area-id": 2300417}}, {"type": "Feature", "geometry": {"type": "Point", "coordinates": [13.58081, 52.45712]}, "properties": {"id": "3113099753", "name": "Spätkauf", "zip-code": 12555, "lat": 52.45712, "lon": 13.58081, "planning-area-id": 9501940}}, {"type": "Feature", "geometry": {"type": "Point", "coordinates": [13.36388, 52.5434]}, "properties": {"id": "3140301723", "name": "Müller Eck", "street": "Müllerstraße 163A", "lat": 52.5434, "lon": 13.36388, "planning-area-id": 1401047}}, {"type": "Feature", "geometry": {"type": "Point", "coordinates": [13.35354, 52.54164]}, "properties": {"id": "3147455157", "name": "Spätkauf King", "lat": 52.54164, "lon": 13.35354, "planning-area-id": 1401046}}, {"type": "Feature", "geometry": {"type": "Point", "coordinates": [13.35384, 52.54233]}, "properties": {"id": "3149431447", "name": "Krokodil Späti", "street": "Samoastraße 23", "lat": 52.54233, "lon": 13.35384, "planning-area-id": 1401046}}, {"type": "Feature", "geometry": {"type": "Point", "coordinates": [13.37645, 52.52428]}, "properties": {"id": "3157747970", "name": "Kiosk", "street": "Virchowweg 6", "zip-code": 10117, "lat": 52.52428, "lon": 13.37645, "planning-area-id": 1100308}}, {"type": "Feature", "geometry": {"type": "Point", "coordinates": [13.26672, 52.41446]}, "properties": {"id": "3194403750", "name": "Kiosk", "street": "Teltower Damm 213", "zip-code": 14167, "lat": 52.41446, "lon": 13.26672, "planning-area-id": 6300528}}, {"type": "Feature", "geometry": {"type": "Point", "coordinates": [13.44157, 52.50148]}, "properties": {"id": "3209504900", "name": "Late Shop", "lat": 52.50148, "lon": 13.44157, "planning-area-id": 2300316}}, {"type": "Feature", "geometry": {"type": "Point", "coordinates": [13.42229, 52.50269]}, "properties": {"id": "3215985724", "name": "Uli’s Spätkauf", "lat": 52.50269, "lon": 13.42229, "planning-area-id": 2300314}}, {"type": "Feature", "geometry": {"type": "Point", "coordinates": [13.37777, 52.54504]}, "properties": {"id": "3221929062", "name": "Der kleine Laden Spätkauf", "street": "Wiesenstraße 62", "zip-code": 13357, "lat": 52.54504, "lon": 13.37777, "planning-area-id": 1300836}}, {"type": "Feature", "geometry": {"type": "Point", "coordinates": [13.48887, 52.50305]}, "properties": {"id": "3239265254", "name": "Stern Backshop, Stehcafe, Kiosk", "lat": 52.50305, "lon": 13.48887, "planning-area-id": 11400929}}, {"type": "Feature", "geometry": {"type": "Point", "coordinates": [13.26186, 52.43676]}, "properties": {"id": "3244632333", "name": "Reformhaus Demski", "lat": 52.43676, "lon": 13.26186, "planning-area-id": 6400841}}, {"type": "Feature", "geometry": {"type": "Point", "coordinates": [13.45762, 52.42397]}, "properties": {"id": "3267343770", "name": "Kwik Markt", "lat": 52.42397, "lon": 13.45762, "planning-area-id": 8300935}}, {"type": "Feature", "geometry": {"type": "Point", "coordinates": [13.35962, 52.56206]}, "properties": {"id": "3284007561", "lat": 52.56206, "lon": 13.35962, "planning-area-id": 12100204}}, {"type": "Feature", "geometry": {"type": "Point", "coordinates": [13.398, 52.53857]}, "properties": {"id": "3286264361", "name": "Mauerkiosk", "street": "Bernauer Straße 32", "zip-code": 10115, "lat": 52.53857, "lon": 13.398, "planning-area-id": 1100416}}, {"type": "Feature", "geometry": {"type": "Point", "coordinates": [13.4062, 52.55286]}, "properties": {"id": "3306498748", "name": "Kiezmarkt", "lat": 52.55286, "lon": 13.4062, "planning-area-id": 3601141}}, {"type": "Feature", "geometry": {"type": "Point", "coordinates": [13.44136, 52.47919]}, "properties": {"id": "3312315281", "name": "Spätinn2", "lat": 52.47919, "lon": 13.44136, "planning-area-id": 8100415}}, {"type": "Feature", "geometry": {"type": "Point", "coordinates": [13.23495, 52.60785]}, "properties": {"id": "3333071085", "name": "Kiosk", "lat": 52.60785, "lon": 13.23495, "planning-area-id": 12400619}}, {"type": "Feature", "geometry": {"type": "Point", "coordinates": [13.40878, 52.50084]}, "properties": {"id": "3348712211", "name": "Kiezkiosk", "lat": 52.50084, "lon": 13.40878, "planning-area-id": 2100105}}, {"type": "Feature", "geometry": {"type": "Point", "coordinates": [13.32037, 52.56574]}, "properties": {"id": "3362345317", "name": "Familia Market", "lat": 52.56574, "lon": 13.32037, "planning-area-id": 12200309}}, {"type": "Feature", "geometry": {"type": "Point", "coordinates": [13.44234, 52.48355]}, "properties": {"id": "3373144216", "name": "JWANspäti", "street": "Wildenbruchstraße 83", "zip-code": 12045, "lat": 52.48355, "lon": 13.44234, "planning-area-id": 8100312}}, {"type": "Feature", "geometry": {"type": "Point", "coordinates": [13.42399, 52.55401]}, "properties": {"id": "3383020379", "name": "Spätshop + Bäckerei", "street": "Neumannstraße 3a", "zip-code": 13189, "lat": 52.55401, "lon": 13.42399, "planning-area-id": 3400828}}, {"type": "Feature", "geometry": {"type": "Point", "coordinates": [13.4148, 52.55657]}, "properties": {"id": "3384540738", "name": "Spätkauf", "lat": 52.55657, "lon": 13.4148, "planning-area-id": 3400827}}, {"type": "Feature", "geometry": {"type": "Point", "coordinates": [13.41485, 52.55334]}, "properties": {"id": "3393706957", "name": "Spätkauf", "street": "Schönhauser Allee 90", "zip-code": 10439, "lat": 52.55334, "lon": 13.41485, "planning-area-id": 3601243}}, {"type": "Feature", "geometry": {"type": "Point", "coordinates": [13.3578, 52.55194]}, "properties": {"id": "3393947819", "name": "Tabak Presse", "zip-code": 13347, "lat": 52.55194, "lon": 13.3578, "planning-area-id": 1401048}}, {"type": "Feature", "geometry": {"type": "Point", "coordinates": [13.46917, 52.52021]}, "properties": {"id": "3398525115", "name": "Eldenaer Spätkauf 28", "street": "Eldenaer Straße 28", "zip-code": 10247, "lat": 52.52021, "lon": 13.46917, "planning-area-id": 2500728}}, {"type": "Feature", "geometry": {"type": "Point", "coordinates": [13.47896, 52.51637]}, "properties": {"id": "3409123517", "name": "Früchte & Asia-Lebensmittel", "lat": 52.51637, "lon": 13.47896, "planning-area-id": 11300722}}, {"type": "Feature", "geometry": {"type": "Point", "coordinates": [13.45559, 52.48992]}, "properties": {"id": "3442711034", "name": "Mamas Spätkauf", "lat": 52.48992, "lon": 13.45559, "planning-area-id": 9100101}}, {"type": "Feature", "geometry": {"type": "Point", "coordinates": [13.44626, 52.4917]}, "properties": {"id": "3442719667", "name": "M&S Spätkauf", "street": "Karl-Kunger-Straße 10", "zip-code": 12435, "lat": 52.4917, "lon": 13.44626, "planning-area-id": 9100101}}, {"type": "Feature", "geometry": {"type": "Point", "coordinates": [13.45423, 52.48936]}, "properties": {"id": "3442721070", "name": "Asia Lebensmittel", "street": "Elsenstraße 25", "zip-code": 12435, "lat": 52.48936, "lon": 13.45423, "planning-area-id": 9100101}}, {"type": "Feature", "geometry": {"type": "Point", "coordinates": [13.44212, 52.4887]}, "properties": {"id": "3442739322", "name": "Ost-West Späti", "street": "Onckenstraße 16", "zip-code": 12435, "lat": 52.4887, "lon": 13.44212, "planning-area-id": 9100101}}, {"type": "Feature", "geometry": {"type": "Point", "coordinates": [13.41316, 52.55051]}, "properties": {"id": "3452115332", "name": "Kasatschok Russische Spezialitäten", "street": "Schivelbeiner Straße 49", "zip-code": 10439, "lat": 52.55051, "lon": 13.41316, "planning-area-id": 3601141}}, {"type": "Feature", "geometry": {"type": "Point", "coordinates": [13.41256, 52.55349]}, "properties": {"id": "3465014812", "name": "RK Markt", "street": "Bornholmer Straße 92", "zip-code": 10439, "lat": 52.55349, "lon": 13.41256, "planning-area-id": 3601141}}, {"type": "Feature", "geometry": {"type": "Point", "coordinates": [13.41382, 52.55345]}, "properties": {"id": "3465014815", "name": "Almaraii", "street": "Bornholmer Straße 96", "zip-code": 10439, "lat": 52.55345, "lon": 13.41382, "planning-area-id": 3601141}}, {"type": "Feature", "geometry": {"type": "Point", "coordinates": [13.42136, 52.49371]}, "properties": {"id": "3499262003", "name": "Spätkauf", "lat": 52.49371, "lon": 13.42136, "planning-area-id": 2200213}}, {"type": "Feature", "geometry": {"type": "Point", "coordinates": [13.41926, 52.5397]}, "properties": {"id": "3518024330", "name": "We Love Späti", "street": "Danziger Straße 44", "zip-code": 10435, "lat": 52.5397, "lon": 13.41926, "planning-area-id": 3701555}}, {"type": "Feature", "geometry": {"type": "Point", "coordinates": [13.42364, 52.53751]}, "properties": {"id": "3525872327", "street": "Prenzlauer Allee 50", "zip-code": 10405, "lat": 52.53751, "lon": 13.42364, "planning-area-id": 3701658}}, {"type": "Feature", "geometry": {"type": "Point", "coordinates": [13.32097, 52.50571]}, "properties": {"id": "3530849181", "name": "Spätkauf Astier", "street": "Kantstraße 145", "zip-code": 10623, "lat": 52.50571, "lon": 13.32097, "planning-area-id": 4300624}}, {"type": "Feature", "geometry": {"type": "Point", "coordinates": [13.32356, 52.46014]}, "properties": {"id": "3570845450", "name": "Zora", "street": "Schloßstraße 22", "zip-code": 12163, "lat": 52.46014, "lon": 13.32356, "planning-area-id": 6100102}}, {"type": "Feature", "geometry": {"type": "Point", "coordinates": [13.40474, 52.54016]}, "properties": {"id": "3578282893", "name": "Minimarkt", "lat": 52.54016, "lon": 13.40474, "planning-area-id": 3701554}}, {"type": "Feature", "geometry": {"type": "Point", "coordinates": [13.42406, 52.47402]}, "properties": {"id": "3578321975", "name": "Oker Markt", "street": "Okerstraße 12", "zip-code": 12049, "lat": 52.47402, "lon": 13.42406, "planning-area-id": 8100103}}, {"type": "Feature", "geometry": {"type": "Point", "coordinates": [13.32702, 52.50539]}, "properties": {"id": "3590230294", "name": "Spätshop", "lat": 52.50539, "lon": 13.32702, "planning-area-id": 4300622}}, {"type": "Feature", "geometry": {"type": "Point", "coordinates": [13.33148, 52.50395]}, "properties": {"id": "3602855064", "name": "KompaktKauf", "lat": 52.50395, "lon": 13.33148, "planning-area-id": 4501042}}, {"type": "Feature", "geometry": {"type": "Point", "coordinates": [13.44393, 52.51879]}, "properties": {"id": "3615273496", "street": "Auerstraße 12", "lat": 52.51879, "lon": 13.44393, "planning-area-id": 2400522}}, {"type": "Feature", "geometry": {"type": "Point", "coordinates": [13.35773, 52.48723]}, "properties": {"id": "3632641125", "name": "Haupt Getränke", "lat": 52.48723, "lon": 13.35773, "planning-area-id": 7200411}}, {"type": "Feature", "geometry": {"type": "Point", "coordinates": [13.45674, 52.51053]}, "properties": {"id": "3644133594", "name": "Tobacco & Drinks", "street": "Simon-Dach-Straße 38", "zip-code": 10245, "lat": 52.51053, "lon": 13.45674, "planning-area-id": 2500833}}, {"type": "Feature", "geometry": {"type": "Point", "coordinates": [13.32903, 52.42909]}, "properties": {"id": "3670161824", "name": "Kiosk", "lat": 52.42909, "lon": 13.32903, "planning-area-id": 6200422}}, {"type": "Feature", "geometry": {"type": "Point", "coordinates": [13.20878, 52.56206]}, "properties": {"id": "3677450357", "name": "Spätie", "lat": 52.56206, "lon": 13.20878, "planning-area-id": 5100103}}, {"type": "Feature", "geometry": {"type": "Point", "coordinates": [13.33172, 52.50473]}, "properties": {"id": "3678881034", "name": "Spätkauf", "lat": 52.50473, "lon": 13.33172, "planning-area-id": 4501042}}, {"type": "Feature", "geometry": {"type": "Point", "coordinates": [13.44737, 52.47787]}, "properties": {"id": "3686251705", "name": "Sonnen Spätkauf", "lat": 52.47787, "lon": 13.44737, "planning-area-id": 8100415}}, {"type": "Feature", "geometry": {"type": "Point", "coordinates": [13.30212, 52.51105]}, "properties": {"id": "3710407323", "name": "Mini Market", "street": "Bismarckstraße 76", "zip-code": 10627, "lat": 52.51105, "lon": 13.30212, "planning-area-id": 4300623}}, {"type": "Feature", "geometry": {"type": "Point", "coordinates": [13.36265, 52.49861]}, "properties": {"id": "3712223331", "name": "Spätkauf", "street": "Potsdamer Straße 117/119", "zip-code": 10783, "lat": 52.49861, "lon": 13.36265, "planning-area-id": 7100205}}, {"type": "Feature", "geometry": {"type": "Point", "coordinates": [13.3017, 52.51196]}, "properties": {"id": "3712391645", "name": "Kaiser Spätkauf", "street": "Kaiser-Friedrich-Straße 78", "zip-code": 10585, "lat": 52.51196, "lon": 13.3017, "planning-area-id": 4300621}}, {"type": "Feature", "geometry": {"type": "Point", "coordinates": [13.41114, 52.52153]}, "properties": {"id": "3717599468", "name": "Yormas", "lat": 52.52153, "lon": 13.41114, "planning-area-id": 1100310}}, {"type": "Feature", "geometry": {"type": "Point", "coordinates": [13.30899, 52.50671]}, "properties": {"id": "3721863451", "name": "Späti Bull", "street": "Kantstraße 52", "zip-code": 10627, "lat": 52.50671, "lon": 13.30899, "planning-area-id": 4300623}}, {"type": "Feature", "geometry": {"type": "Point", "coordinates": [13.44736, 52.50383]}, "properties": {"id": "3750154925", "name": "Spätkauf", "lat": 52.50383, "lon": 13.44736, "planning-area-id": 2400625}}, {"type": "Feature", "geometry": {"type": "Point", "coordinates": [13.37749, 52.55675]}, "properties": {"id": "3757302128", "name": "Prime Shop", "street": "Koloniestraße 143", "zip-code": 13359, "lat": 52.55675, "lon": 13.37749, "planning-area-id": 1300730}}, {"type": "Feature", "geometry": {"type": "Point", "coordinates": [13.51704, 52.46244]}, "properties": {"id": "3789168245", "name": "Asia Supermarkt", "street": "Schillerpromenade 5", "zip-code": 12459, "lat": 52.46244, "lon": 13.51704, "planning-area-id": 9200511}}, {"type": "Feature", "geometry": {"type": "Point", "coordinates": [13.51788, 52.4617]}, "properties": {"id": "3789200614", "name": "Spätkauf 30", "street": "Wilhelminenhofstraße 30", "zip-code": 12459, "lat": 52.4617, "lon": 13.51788, "planning-area-id": 9200511}}, {"type": "Feature", "geometry": {"type": "Point", "coordinates": [13.51444, 52.46253]}, "properties": {"id": "3792656709", "name": "Spätkauf 49", "street": "Wilhelminenhofstraße 16a", "zip-code": 12459, "lat": 52.46253, "lon": 13.51444, "planning-area-id": 9200511}}, {"type": "Feature", "geometry": {"type": "Point", "coordinates": [13.36595, 52.49914]}, "properties": {"id": "3798391366", "name": "Späti Wood", "street": "Kurfürstenstraße 164", "zip-code": 10785, "lat": 52.49914, "lon": 13.36595, "planning-area-id": 7100205}}, {"type": "Feature", "geometry": {"type": "Point", "coordinates": [13.34773, 52.55089]}, "properties": {"id": "3803590073", "name": "Multi Shop", "lat": 52.55089, "lon": 13.34773, "planning-area-id": 1400938}}, {"type": "Feature", "geometry": {"type": "Point", "coordinates": [13.28536, 52.58701]}, "properties": {"id": "3811248574", "name": "Mini-Markt", "lat": 52.58701, "lon": 13.28536, "planning-area-id": 12200515}}, {"type": "Feature", "geometry": {"type": "Point", "coordinates": [13.35377, 52.49884]}, "properties": {"id": "3826013967", "name": "Late Night Shop", "street": "Nollendorfplatz 7", "zip-code": 10777, "lat": 52.49884, "lon": 13.35377, "planning-area-id": 7100102}}, {"type": "Feature", "geometry": {"type": "Point", "coordinates": [13.33041, 52.49271]},