{"type": "FeatureCollection", "features": [{"type": "Feature", "geometry": {"type": "Point", "coordinates": [13.33845, 52.47996]}, "properties": {"id": "237838613", "name": "Rückert-Gymnasium", "street": "Mettestraße 8", "zip-code": 10825, "lat": 52.47996, "lon": 13.33845, "planning-area-id": 7200308}}, {"type": "Feature", "geometry": {"type": "Point", "coordinates": [13.28804, 52.53944]}, "properties": {"id": "256912446", "name": "Erwin von Witzleben Grundschule", "street": "Halemweg 34-42", "zip-code": 13627, "lat": 52.53944, "lon": 13.28804, "planning-area-id": 4100101}}, {"type": "Feature", "geometry": {"type": "Point", "coordinates": [13.24163, 52.52114]}, "properties": {"id": "256913234", "name": "Sportschule im Olympiapark - Poelchau-Schule", "street": "Prinz-Friedrich-Karl-Weg 1", "zip-code": 14053, "lat": 52.52114, "lon": 13.24163, "planning-area-id": 4200203}}, {"type": "Feature", "geometry": {"type": "Point", "coordinates": [13.28832, 52.53765]}, "properties": {"id": "256913872", "name": "Anna Freud Schule", "street": "Halemweg 22", "zip-code": 13627, "lat": 52.53765, "lon": 13.28832, "planning-area-id": 4100101}}, {"type": "Feature", "geometry": {"type": "Point", "coordinates": [13.30194, 52.49783]}, "properties": {"id": "268915174", "name": "ABC-Kindergarten - Sabine Erdmann Vorschule", "lat": 52.49783, "lon": 13.30194, "planning-area-id": 4500938}}, {"type": "Feature", "geometry": {"type": "Point", "coordinates": [13.38145, 52.45454]}, "properties": {"id": "268915405", "name": "Freie Schule in Berlin", "street": "Viktoriastraße 13-18", "zip-code": 12105, "lat": 52.45454, "lon": 13.38145, "planning-area-id": 7400825}}, {"type": "Feature", "geometry": {"type": "Point", "coordinates": [13.19967, 52.57212]}, "properties": {"id": "298750707", "name": "Evangelische Schule Spandau", "street": "Schönwalder Allee 26/27", "zip-code": 13587, "lat": 52.57212, "lon": 13.19967, "planning-area-id": 5100101}}, {"type": "Feature", "geometry": {"type": "Point", "coordinates": [13.33906, 52.48036]}, "properties": {"id": "340239440", "name": "Sternberg Grundschule", "street": "Mettestraße 8", "zip-code": 10825, "lat": 52.48036, "lon": 13.33906, "planning-area-id": 7200308}}, {"type": "Feature", "geometry": {"type": "Point", "coordinates": [13.43576, 52.47175]}, "properties": {"id": "360713397", "name": "Peter-Petersen-Schule", "street": "Jonasstraße 15-16", "zip-code": 12053, "lat": 52.47175, "lon": 13.43576, "planning-area-id": 8100208}}, {"type": "Feature", "geometry": {"type": "Point", "coordinates": [13.43549, 52.47259]}, "properties": {"id": "360713401", "name": "Konrad-Agahd-Grundschule", "street": "Thomasstraße 39", "zip-code": 12053, "lat": 52.47259, "lon": 13.43549, "planning-area-id": 8100208}}, {"type": "Feature", "geometry": {"type": "Point", "coordinates": [13.51705, 52.44511]}, "properties": {"id": "506133476", "name": "Berliner Rettungsdienstschule", "lat": 52.44511, "lon": 13.51705, "planning-area-id": 9100409}}, {"type": "Feature", "geometry": {"type": "Point", "coordinates": [13.3982, 52.5353]}, "properties": {"id": "613697442", "lat": 52.5353, "lon": 13.3982, "planning-area-id": 1100416}}, {"type": "Feature", "geometry": {"type": "Point", "coordinates": [13.53112, 52.52642]}, "properties": {"id": "727710608", "name": "bbw Akademie Betriebswirtschaftliche Weiterbildung", "street": "Allee der Kosmonauten 33 B", "zip-code": 12681, "lat": 52.52642, "lon": 13.53112, "planning-area-id": 10100311}}, {"type": "Feature", "geometry": {"type": "Point", "coordinates": [13.57687, 52.44304]}, "properties": {"id": "850092123", "name": "Käpt´n Mosers Wassersportschule", "lat": 52.44304, "lon": 13.57687, "planning-area-id": 9401534}}, {"type": "Feature", "geometry": {"type": "Point", "coordinates": [13.41209, 52.50344]}, "properties": {"id": "867872391", "name": "Deutsch Praxis", "lat": 52.50344, "lon": 13.41209, "planning-area-id": 2100104}}, {"type": "Feature", "geometry": {"type": "Point", "coordinates": [13.41392, 52.50236]}, "properties": {"id": "871633760", "name": "Yoga/Schiatsu-Zentrum", "lat": 52.50236, "lon": 13.41392, "planning-area-id": 2100104}}, {"type": "Feature", "geometry": {"type": "Point", "coordinates": [13.42138, 52.50167]}, "properties": {"id": "876244328", "name": "Atelier für physisches Theater – Internationale Schule für Bewegungsschauspiel", "lat": 52.50167, "lon": 13.42138, "planning-area-id": 2300314}}, {"type": "Feature", "geometry": {"type": "Point", "coordinates": [13.49299, 52.6256]}, "properties": {"id": "985919722", "name": "Jugendwerkstatt Buch Aktivierungshilfe", "lat": 52.6256, "lon": 13.49299, "planning-area-id": 3100103}}, {"type": "Feature", "geometry": {"type": "Point", "coordinates": [13.41354, 52.56202]}, "properties": {"id": "996413480", "name": "TING-Schule", "lat": 52.56202, "lon": 13.41354, "planning-area-id": 3400829}}, {"type": "Feature", "geometry": {"type": "Point", "coordinates": [13.27067, 52.45456]}, "properties": {"id": "1015728668", "name": "Biesalski-Schule", "street": "Hüttenweg 40", "zip-code": 14195, "lat": 52.45456, "lon": 13.27067, "planning-area-id": 6400842}}, {"type": "Feature", "geometry": {"type": "Point", "coordinates": [13.33272, 52.48337]}, "properties": {"id": "1057857273", "name": "Ernst-Habermann-Grundschule", "street": "Prinzregentenstraße 33-34", "zip-code": 10715, "lat": 52.48337, "lon": 13.33272, "planning-area-id": 4501153}}, {"type": "Feature", "geometry": {"type": "Point", "coordinates": [13.30078, 52.51854]}, "properties": {"id": "1137671520", "name": "Kindermalschule", "street": "Lohmeyerstraße 26", "zip-code": 10587, "lat": 52.51854, "lon": 13.30078, "planning-area-id": 4300621}}, {"type": "Feature", "geometry": {"type": "Point", "coordinates": [13.37162, 52.50343]}, "properties": {"id": "1140710553", "name": "CJD Berlin", "street": "Am Karlsbad 16", "zip-code": 10785, "lat": 52.50343, "lon": 13.37162, "planning-area-id": 1100104}}, {"type": "Feature", "geometry": {"type": "Point", "coordinates": [13.43591, 52.43994]}, "properties": {"id": "1224801662", "name": "Alno Küchenstudio", "lat": 52.43994, "lon": 13.43591, "planning-area-id": 8200730}}, {"type": "Feature", "geometry": {"type": "Point", "coordinates": [13.40562, 52.55208]}, "properties": {"id": "1407207210", "name": "Abendgymnasium Prenzlauer Berg", "street": "Driesener Straße 22", "zip-code": 10439, "lat": 52.55208, "lon": 13.40562, "planning-area-id": 3601140}}, {"type": "Feature", "geometry": {"type": "Point", "coordinates": [13.38842, 52.52848]}, "properties": {"id": "1552045205", "name": "Deutsch-Institut Berlin", "street": "Novalisstraße 12", "zip-code": 10115, "lat": 52.52848, "lon": 13.38842, "planning-area-id": 1100415}}, {"type": "Feature", "geometry": {"type": "Point", "coordinates": [13.42132, 52.49083]}, "properties": {"id": "1597894107", "name": "Islam Vakfi", "lat": 52.49083, "lon": 13.42132, "planning-area-id": 2200213}}, {"type": "Feature", "geometry": {"type": "Point", "coordinates": [13.30369, 52.50832]}, "properties": {"id": "1658284135", "name": "Charlotte-Wolff-Kolleg", "street": "Pestalozzistraße 40-41", "zip-code": 10627, "lat": 52.50832, "lon": 13.30369, "planning-area-id": 4300623}}, {"type": "Feature", "geometry": {"type": "Point", "coordinates": [13.41986, 52.49928]}, "properties": {"id": "1827035552", "name": "SCHATZ Schulaufgabenzirkel", "zip-code": 10999, "lat": 52.49928, "lon": 13.41986, "planning-area-id": 2300314}}, {"type": "Feature", "geometry": {"type": "Point", "coordinates": [13.33446, 52.48224]}, "properties": {"id": "1833519549", "name": "OSZ Wirtschaft Leopold-Ullstein-Schule - Abteilung II", "street": "Prinzregentenstraße 60", "zip-code": 10715, "lat": 52.48224, "lon": 13.33446, "planning-area-id": 4501153}}, {"type": "Feature", "geometry": {"type": "Point", "coordinates": [13.33445, 52.48211]}, "properties": {"id": "1833591080", "name": "Kläre-Bloch-Schule", "street": "Prinzregentenstraße 60", "zip-code": 10715, "lat": 52.48211, "lon": 13.33445, "planning-area-id": 4501153}}, {"type": "Feature", "geometry": {"type": "Point", "coordinates": [13.60489, 52.53571]}, "properties": {"id": "1855387994", "name": "Das Lernzentum (Helliwood media & education)", "lat": 52.53571, "lon": 13.60489, "planning-area-id": 10200526}}, {"type": "Feature", "geometry": {"type": "Point", "coordinates": [13.42175, 52.49677]}, "properties": {"id": "1867142844", "name": "Institut für Phytotherapie", "street": "Paul-Lincke-Ufer 42-43", "zip-code": 10999, "lat": 52.49677, "lon": 13.42175, "planning-area-id": 2300417}}, {"type": "Feature", "geometry": {"type": "Point", "coordinates": [13.44638, 52.49408]}, "properties": {"id": "2134648578", "name": "InBit Institut", "lat": 52.49408, "lon": 13.44638, "planning-area-id": 9100101}}, {"type": "Feature", "geometry": {"type": "Point", "coordinates": [13.24797, 52.61088]}, "properties": {"id": "2136734352", "name": "Fachschule für Sozialpädagogik", "street": "Am Bärensprung 58", "zip-code": 13503, "lat": 52.61088, "lon": 13.24797, "planning-area-id": 12400619}}, {"type": "Feature", "geometry": {"type": "Point", "coordinates": [13.33506, 52.48245]}, "properties": {"id": "2180504961", "name": "Wangari Maathai International School", "street": "Babelsberger Straße 24-25", "zip-code": 10715, "lat": 52.48245, "lon": 13.33506, "planning-area-id": 4501153}}, {"type": "Feature", "geometry": {"type": "Point", "coordinates": [13.42015, 52.49356]}, "properties": {"id": "2232813894", "name": "Hermann-Hesse-Gymnasium (Haus 3)", "lat": 52.49356, "lon": 13.42015, "planning-area-id": 2200213}}, {"type": "Feature", "geometry": {"type": "Point", "coordinates": [13.34293, 52.52374]}, "properties": {"id": "2379197943", "name": "indisoft GmbH", "street": "Stromstraße 3b", "zip-code": 10555, "lat": 52.52374, "lon": 13.34293, "planning-area-id": 1200626}}, {"type": "Feature", "geometry": {"type": "Point", "coordinates": [13.36533, 52.55333]}, "properties": {"id": "2431140182", "name": "das kleine atelier", "street": "Oudenarder Straße 32", "zip-code": 13347, "lat": 52.55333, "lon": 13.36533, "planning-area-id": 1401049}}, {"type": "Feature", "geometry": {"type": "Point", "coordinates": [13.44152, 52.54253]}, "properties": {"id": "2538629492", "name": "Freie Sekundarschule Peppermont", "street": "Greifswalder Straße 88", "zip-code": 10409, "lat": 52.54253, "lon": 13.44152, "planning-area-id": 3601449}}, {"type": "Feature", "geometry": {"type": "Point", "coordinates": [13.44172, 52.55728]}, "properties": {"id": "2610154858", "name": "Berlin Bilingual School", "street": "Rudolf-Baschant-Straße 2", "zip-code": 13086, "lat": 52.55728, "lon": 13.44172, "planning-area-id": 3500932}}, {"type": "Feature", "geometry": {"type": "Point", "coordinates": [13.38416, 52.49613]}, "properties": {"id": "2629122240", "name": "Taxischule Metropolis", "lat": 52.49613, "lon": 13.38416, "planning-area-id": 2200208}}, {"type": "Feature", "geometry": {"type": "Point", "coordinates": [13.44017, 52.52184]}, "properties": {"id": "2844490858", "street": "Diestelmeyerstraße 6", "zip-code": 10249, "lat": 52.52184, "lon": 13.44017, "planning-area-id": 2400521}}, {"type": "Feature", "geometry": {"type": "Point", "coordinates": [13.38113, 52.56607]}, "properties": {"id": "2952353502", "name": "Quinoa Schule", "street": "Kühnemannstraße 26", "zip-code": 13409, "lat": 52.56607, "lon": 13.38113, "planning-area-id": 1300731}}, {"type": "Feature", "geometry": {"type": "Point", "coordinates": [13.41812, 52.53966]}, "properties": {"id": "3090369566", "name": "iek", "street": "Husemannstraße 32", "zip-code": 10435, "lat": 52.53966, "lon": 13.41812, "planning-area-id": 3701555}}, {"type": "Feature", "geometry": {"type": "Point", "coordinates": [13.38455, 52.51551]}, "properties": {"id": "3093478831", "name": "Schule bei der Botschaft der Russischen Föderation", "street": "Behrenstraße 64-65", "zip-code": 10117, "lat": 52.51551, "lon": 13.38455, "planning-area-id": 1100206}}, {"type": "Feature", "geometry": {"type": "Point", "coordinates": [13.26989, 52.45463]}, "properties": {"id": "3347795761", "name": "Quentin-Blake-Europa-Schule", "street": "Hüttenweg 40", "zip-code": 14195, "lat": 52.45463, "lon": 13.26989, "planning-area-id": 6400842}}, {"type": "Feature", "geometry": {"type": "Point", "coordinates": [13.32946, 52.48806]}, "properties": {"id": "3465132015", "name": "Svenska Skolan i Berlin", "street": "Landhausstraße 26-28", "zip-code": 10717, "lat": 52.48806, "lon": 13.32946, "planning-area-id": 4501149}}, {"type": "Feature", "geometry": {"type": "Point", "coordinates": [13.4475, 52.5122]}, "properties": {"id": "3644290194", "name": "Be The - Therapie bei Lernschwierigkeiten", "street": "Am Comeniusplatz 2", "zip-code": 10243, "lat": 52.5122, "lon": 13.4475, "planning-area-id": 2400624}}, {"type": "Feature", "geometry": {"type": "Point", "coordinates": [13.39195, 52.50197]}, "properties": {"id": "4149486091", "name": "Liebmann-Schule", "street": "Friedrichstraße 13", "zip-code": 10969, "lat": 52.50197, "lon": 13.39195, "planning-area-id": 2100102}}, {"type": "Feature", "geometry": {"type": "Point", "coordinates": [13.19482, 52.57305]}, "properties": {"id": "4298064770", "name": "Hort der ESS", "zip-code": 13587, "lat": 52.57305, "lon": 13.19482, "planning-area-id": 5100101}}, {"type": "Feature", "geometry": {"type": "Point", "coordinates": [13.35938, 52.50402]}, "properties": {"id": "4368419896", "name": "Internationale Lomonossow-Schule", "street": "Genthiner Straße 20", "zip-code": 10785, "lat": 52.50402, "lon": 13.35938, "planning-area-id": 1100103}}, {"type": "Feature", "geometry": {"type": "Point", "coordinates": [13.37745, 52.4908]}, "properties": {"id": "4850314524", "name": "Cumbancha", "street": "Möckernstraße 68", "zip-code": 10965, "lat": 52.4908, "lon": 13.37745, "planning-area-id": 2200209}}, {"type": "Feature", "geometry": {"type": "Point", "coordinates": [13.27975, 52.53289]}, "properties": {"id": "4864189821", "name": "EIIE EURASIA Institute for International Education GmbH", "zip-code": 13627, "lat": 52.53289, "lon": 13.27975, "planning-area-id": 5300840}}, {"type": "Feature", "geometry": {"type": "Point", "coordinates": [13.44778, 52.52793]}, "properties": {"id": "4932662327", "name": "Piano Cano", "street": "Cotheniusstraße 3", "zip-code": 10407, "lat": 52.52793, "lon": 13.44778, "planning-area-id": 3601452}}, {"type": "Feature", "geometry": {"type": "Point", "coordinates": [13.39461, 52.4544]}, "properties": {"id": "5477749794", "name": "Samuel-Hahnemann-Schule", "street": "Colditzstraße 34-36", "zip-code": 12099, "lat": 52.4544, "lon": 13.39461, "planning-area-id": 7400927}}, {"type": "Feature", "geometry": {"type": "Point", "coordinates": [13.44682, 52.42273]}, "properties": {"id": "5661514223", "name": "Schule am Hasenhegerweg", "street": "Hasenhegerweg 12", "zip-code": 12353, "lat": 52.42273, "lon": 13.44682, "planning-area-id": 8200833}}, {"type": "Feature", "geometry": {"type": "Point", "coordinates": [13.44681, 52.42244]}, "properties": {"id": "5661514224", "name": "Lisa-Tetzner-Grundschule", "street": "Hasenhegerweg 12", "zip-code": 12353, "lat": 52.42244, "lon": 13.44681, "planning-area-id": 8200833}}, {"type": "Feature", "geometry": {"type": "Point", "coordinates": [13.48854, 52.52368]}, "properties": {"id": "5695079683", "name": "OTA - Tanyildiz Schweißtechnik", "street": "Josef-Orlopp-Straße 45 - 49", "zip-code": 10365, "lat": 52.52368, "lon": 13.48854, "planning-area-id": 11300721}}, {"type": "Feature", "geometry": {"type": "Point", "coordinates": [13.42731, 52.53478]}, "properties": {"id": "5790175872", "name": "Corrie-ten-Boom-Schule", "street": "Christburger Straße 14C", "zip-code": 10405, "lat": 52.53478, "lon": 13.42731, "planning-area-id": 3701658}}, {"type": "Feature", "geometry": {"type": "Point", "coordinates": [13.42784, 52.53464]}, "properties": {"id": "5790175875", "name": "Elisabeth-Abegg-Grundschule", "street": "Christburger Straße 14C", "zip-code": 10405, "lat": 52.53464, "lon": 13.42784, "planning-area-id": 3701658}}, {"type": "Feature", "geometry": {"type": "Point", "coordinates": [13.35412, 52.4858]}, "properties": {"id": "5907019898", "name": "Privates Europa-Gymnasium Berlin", "street": "Hauptstraße 27", "zip-code": 10827, "lat": 52.4858, "lon": 13.35412, "planning-area-id": 7200409}}, {"type": "Feature", "geometry": {"type": "Point", "coordinates": [13.2634, 52.50954]}, "properties": {"id": "5997094437", "name": "Moser Schule Schweizer Gymnasium gGmbH", "lat": 52.50954, "lon": 13.2634, "planning-area-id": 4200310}}, {"type": "Feature", "geometry": {"type": "Point", "coordinates": [13.40626, 52.52735]}, "properties": {"id": "6058583254", "street": "Mulackstraße 8", "zip-code": 10119, "lat": 52.52735, "lon": 13.40626, "planning-area-id": 1100309}}, {"type": "Feature", "geometry": {"type": "Point", "coordinates": [13.28871, 52.48111]}, "properties": {"id": "6153498939", "name": "Institut für Verhaltenstherapie Berlin", "street": "Hohenzollerndamm 125;126", "zip-code": 14199, "lat": 52.48111, "lon": 13.28871, "planning-area-id": 4400830}}, {"type": "Feature", "geometry": {"type": "Point", "coordinates": [13.39769, 52.53753]}, "properties": {"id": "6215800460", "name": "Mal- und Zeichenschule Prib", "street": "Brunnenstraße 45", "zip-code": 10115, "lat": 52.53753, "lon": 13.39769, "planning-area-id": 1100416}}, {"type": "Feature", "geometry": {"type": "Point", "coordinates": [13.37046, 52.55057]}, "properties": {"id": "6251995791", "name": "Produktionsschule Mitte", "lat": 52.55057, "lon": 13.37046, "planning-area-id": 1401044}}, {"type": "Feature", "geometry": {"type": "Point", "coordinates": [13.50729, 52.63316]}, "properties": {"id": "6410792688", "name": "Akademie der Gesundheit", "street": "Schwanebecker Chaussee 4 E-H", "zip-code": 13125, "lat": 52.63316, "lon": 13.50729, "planning-area-id": 3100102}}, {"type": "Feature", "geometry": {"type": "Point", "coordinates": [13.40971, 52.5533]}, "properties": {"id": "6422859463", "name": "Freie Grundschule Pfefferwerk", "street": "Schönfließer Straße 7", "zip-code": 10439, "lat": 52.5533, "lon": 13.40971, "planning-area-id": 3601141}}, {"type": "Feature", "geometry": {"type": "Point", "coordinates": [13.40965, 52.55295]}, "properties": {"id": "6422859464", "name": "Freie Sekundarschule PepperMont", "lat": 52.55295, "lon": 13.40965, "planning-area-id": 3601141}}, {"type": "Feature", "geometry": {"type": "Point", "coordinates": [13.31648, 52.48662]}, "properties": {"id": "7685796317", "name": "Prestige Kosmetikakademie", "street": "Berliner Straße 53", "zip-code": 10713, "lat": 52.48662, "lon": 13.31648, "planning-area-id": 4501146}}, {"type": "Feature", "geometry": {"type": "Point", "coordinates": [13.31967, 52.48156]}, "properties": {"id": "7774237459", "name": "Grund-Bildungs-Zentrum Berlin", "street": "Paretzer Straße 1", "zip-code": 10713, "lat": 52.48156, "lon": 13.31967, "planning-area-id": 4501148}}, {"type": "Feature", "geometry": {"type": "Point", "coordinates": [13.39204, 52.50148]}, "properties": {"id": "8050485559", "name": "Galilei Grundschule", "street": "Friedrichstraße 13", "zip-code": 10969, "lat": 52.50148, "lon": 13.39204, "planning-area-id": 2100102}}, {"type": "Feature", "geometry": {"type": "Point", "coordinates": [13.35895, 52.54021]}, "properties": {"id": "8589000133", "name": "Kristall Grundschule", "street": "Tegeler Straße 13", "zip-code": 13353, "lat": 52.54021, "lon": 13.35895, "planning-area-id": 1401047}}, {"type": "Feature", "geometry": {"type": "Point", "coordinates": [13.53785, 52.41862]}, "properties": {"id": "9215908289", "name": "Grundschule am Berg", "lat": 52.41862, "lon": 13.53785, "planning-area-id": 9300920}}, {"type": "Feature", "geometry": {"type": "Point", "coordinates": [13.30997, 52.49537]}, "properties": {"id": "9502964060", "name": "Berliner Schule für Zen Shiatsu", "lat": 52.49537, "lon": 13.30997, "planning-area-id": 4501043}}, {"type": "Feature", "geometry": {"type": "Point", "coordinates": [13.53658, 52.54276]}, "properties": {"id": "9674270517", "name": "SENECA INTENSIV Studios", "street": "Georg-Knorr-Straße 4 / Haus 10", "zip-code": 12681, "lat": 52.54276, "lon": 13.53658, "planning-area-id": 10100205}}, {"type": "Feature", "geometry": {"type": "Point", "coordinates": [13.2474, 52.61277]}, "properties": {"id": "9953624692", "name": "Demokratische Schule X", "street": "Ruppiner Chaussee 211", "zip-code": 13503, "lat": 52.61277, "lon": 13.2474, "planning-area-id": 12400618}}, {"type": "Feature", "geometry": {"type": "Point", "coordinates": [13.55082, 52.54637]}, "properties": {"id": "10273324300", "name": "Peter-Pan-Grundschule", "lat": 52.54637, "lon": 13.55082, "planning-area-id": 10100210}}, {"type": "Feature", "geometry": {"type": "Point", "coordinates": [13.32347, 52.45936]}, "properties": {"id": "10671322645", "name": "fjs - freie journalisten schule", "lat": 52.45936, "lon": 13.32347, "planning-area-id": 6100102}}, {"type": "Feature", "geometry": {"type": "Point", "coordinates": [13.45328, 52.53295]}, "properties": {"id": "10788214205", "name": "Ironhack Berlin", "zip-code": 10407, "lat": 52.53295, "lon": 13.45328, "planning-area-id": 3601450}}, {"type": "Feature", "geometry": {"type": "Point", "coordinates": [13.57986, 52.52208]}, "properties": {"id": "11060589005", "name": "Grundschule an der Wuhle", "lat": 52.52208, "lon": 13.57986, "planning-area-id": 10200629}}, {"type": "Feature", "geometry": {"type": "Point", "coordinates": [13.38931, 52.55496]}, "properties": {"id": "11191369537", "name": "Berlin Comics Schule", "street": "Stettiner Straße 30", "zip-code": 13357, "lat": 52.55496, "lon": 13.38931, "planning-area-id": 1300733}}, {"type": "Feature", "geometry": {"type": "Point", "coordinates": [13.3439, 52.52306]}, "properties": {"id": "11197523749", "name": "Seminarschiff", "lat": 52.52306, "lon": 13.3439, "planning-area-id": 1200626}}, {"type": "Feature", "geometry": {"type": "Point", "coordinates": [13.63085, 52.44503]}, "properties": {"id": "11198242339", "name": "Surfpaddelschule", "lat": 52.44503, "lon": 13.63085, "planning-area-id": 9501737}}, {"type": "Feature", "geometry": {"type": "Point", "coordinates": [13.2629, 52.43741]}, "properties": {"id": "11267498757", "name": "Freie Schule Anne Sophie", "street": "Clayallee 328-334", "zip-code": 14169, "lat": 52.43741, "lon": 13.2629, "planning-area-id": 6400841}}, {"type": "Feature", "geometry": {"type": "Point", "coordinates": [13.45331, 52.46851]}, "properties": {"id": "11287862770", "name": "b-trend-setting", "street": "Lahnstraße 19", "zip-code": 12055, "lat": 52.46851, "lon": 13.45331, "planning-area-id": 8100521}}, {"type": "Feature", "geometry": {"type": "Point", "coordinates": [13.4363, 52.49884]}, "properties": {"id": "11357840631", "name": "Shiatsu Schule Kreuzberg", "street": "Lübbener Straße 26", "zip-code": 10997, "lat": 52.49884, "lon": 13.4363, "planning-area-id": 2300419}}, {"type": "Feature", "geometry": {"type": "Point", "coordinates": [13.41744, 52.54554]}, "properties": {"id": "11425591669", "name": "Elinor-Ostrom-Schule (2. Schulstandort)", "street": "Pappelallee 30-31", "zip-code": 10437, "lat": 52.54554, "lon": 13.41744, "planning-area-id": 3601347}}, {"type": "Feature", "geometry": {"type": "Point", "coordinates": [13.42251, 52.47442]}, "properties": {"id": "11525305289", "name": "Evangelische Schule Neukölln Oberstufe", "lat": 52.47442, "lon": 13.42251, "planning-area-id": 8100103}}, {"type": "Feature", "geometry": {"type": "Point", "coordinates": [13.52329, 52.46189]}, "properties": {"id": "11769563161", "name": "Volkshochschule Treptow-Köpenick", "lat": 52.46189, "lon": 13.52329, "planning-area-id": 9200511}}, {"type": "Feature", "geometry": {"type": "Point", "coordinates": [13.31812, 52.54646]}, "properties": {"id": "11863051770", "name": "Anna-Lindh-Schule", "lat": 52.54646, "lon": 13.31812, "planning-area-id": 4100101}}, {"type": "Feature", "geometry": {"type": "Point", "coordinates": [13.19971, 52.5548]}, "properties": {"id": "12068069133", "name": "Grundschule Fehrbelliner Tor", "lat": 52.5548, "lon": 13.19971, "planning-area-id": 5100313}}, {"type": "Feature", "geometry": {"type": "Point", "coordinates": [13.35445, 52.48574]}, "properties": {"id": "12135294142", "name": "Freie Schule Schöneberg", "street": "Hauptstraße 27, Eingang C", "zip-code": 10827, "lat": 52.48574, "lon": 13.35445, "planning-area-id": 7200409}}, {"type": "Feature", "geometry": {"type": "Point", "coordinates": [13.51163, 52.56948]}, "properties": {"id": "12314506395", "name": "Jugendkunstschule Lichtenberg", "street": "Demminer Straße 4", "lat": 52.56948, "lon": 13.51163, "planning-area-id": 11100205}}, {"type": "Feature", "geometry": {"type": "Point", "coordinates": [13.38857, 52.53512]}, "properties": {"id": "12321410631", "name": "Lazarus Schulen", "street": "Bernauer Straße 115-118", "zip-code": 13355, "lat": 52.53512, "lon": 13.38857, "planning-area-id": 1300835}}, {"type": "Feature", "geometry": {"type": "Point", "coordinates": [13.43845, 52.52968]}, "properties": {"id": "12512361420", "name": "Felix-Mendelssohn-Bartholdy-Gymnasium (Temporäres Haus 3)", "lat": 52.52968, "lon": 13.43845, "planning-area-id": 3701660}}, {"type": "Feature", "geometry": {"type": "Point", "coordinates": [13.4199, 52.53305]}, "properties": {"id": "12522418564", "name": "Volkshochschule Berlin-Pankow", "lat": 52.53305, "lon": 13.4199, "planning-area-id": 3701556}}, {"type": "Feature", "geometry": {"type": "Point", "coordinates": [13.3091, 52.49401]}, "properties": {"id": "12563980204", "name": "Evangelische Schule Wilmersdorf", "street": "Brandenburgische Straße 51", "zip-code": 10707, "lat": 52.49401, "lon": 13.3091, "planning-area-id": 4500939}}, {"type": "Feature", "geometry": {"type": "Point", "coordinates": [13.32133, 52.49625]}, "properties": {"id": "12564011957", "name": "Katholische Schule Sankt Ludwig", "street": "Düsseldorfer Straße 13", "zip-code": 10719, "lat": 52.49625, "lon": 13.32133, "planning-area-id": 4501044}}, {"type": "Feature", "geometry": {"type": "Point", "coordinates": [13.3093, 52.60447]}, "properties": {"id": "12677407057", "name": "Apego-Schule Berlin", "street": "Dianastraße 44-46", "zip-code": 13469, "lat": 52.60447, "lon": 13.3093, "planning-area-id": 12500928}}, {"type": "Feature", "geometry": {"type": "Point", "coordinates": [13.1387, 52.52542]}, "properties": {"id": "12691468320", "name": "Grundschule Heerstr. 580", "street": "Heerstraße 580", "zip-code": 13591, "lat": 52.52542, "lon": 13.1387, "planning-area-id": 5200524}}, {"type": "Feature", "geometry": {"type": "Point", "coordinates": [13.54221, 52.53613]}, "properties": {"id": "12766031273", "name": "Neubau Grundschule mit TSH", "street": "Bruno-Baum-Straße 68", "zip-code": 12685, "lat": 52.53613, "lon": 13.54221, "planning-area-id": 10100313}}, {"type": "Feature", "geometry": {"type": "Point", "coordinates": [13.59873, 52.53125]}, "properties": {"id": "12766032980", "name": "Neubau Grundschule mit TSH", "lat": 52.53125, "lon": 13.59873, "planning-area-id": 10200526}}, {"type": "Feature", "geometry": {"type": "Point", "coordinates": [13.60109, 52.53064]}, "properties": {"id": "12766064655", "name": "Neubau MEB 22 mit Mensa", "street": "Klingenthaler Straße 12", "zip-code": 12627, "lat": 52.53064, "lon": 13.60109, "planning-area-id": 10200526}}, {"type": "Feature", "geometry": {"type": "Point", "coordinates": [13.29356, 52.6232]}, "properties": {"id": "12782008075", "name": "Richard-Keller-Schule", "street": "Frohnauer Straße 74-80", "zip-code": 13467, "lat": 52.6232, "lon": 13.29356, "planning-area-id": 12400722}}, {"type": "Feature", "geometry": {"type": "Point", "coordinates": [13.51336, 52.52496]}, "properties": {"id": "12797375598", "name": "15. Schule\nISS mit gymnasialer Oberstufe - 11K15", "street": "Allee der Kosmonauten 22", "zip-code": 10315, "lat": 52.52496, "lon": 13.51336, "planning-area-id": 11300721}}, {"type": "Feature", "geometry": {"type": "Point", "coordinates": [13.5139, 52.52483]}, "properties": {"id": "12797375599", "name": "12. Gymnasium Lichtenberg 11Y12", "street": "Allee der Kosmonauten 22", "zip-code": 10315, "lat": 52.52483, "lon": 13.5139, "planning-area-id": 11300721}}, {"type": "Feature", "geometry": {"type": "Point", "coordinates": [13.36129, 52.48738]}, "properties": {"id": "12991942701", "name": "actorfactory", "street": "Crellestraße 19/20, 2. Hof", "zip-code": 10827, "lat": 52.48738, "lon": 13.36129, "planning-area-id": 7200411}}, {"type": "Feature", "geometry": {"type": "Point", "coordinates": [13.40797, 52.45911]}, "properties": {"id": "12992163102", "name": "Schauspielschule \"Der Kreis\" Fritz-Kirchhoff-Schule", "street": "Teilestraße 11—13, Tor 3", "zip-code": 12099, "lat": 52.45911, "lon": 13.40797, "planning-area-id": 7400927}}, {"type": "Feature", "geometry": {"type": "Point", "coordinates": [13.42306, 52.48819]}, "properties": {"id": "12992212501", "name": "die schauspielfabrik berlin", "street": "Urbanstraße 70A", "zip-code": 10967, "lat": 52.48819, "lon": 13.42306, "planning-area-id": 2200212}}, {"type": "Feature", "geometry": {"type": "Point", "coordinates": [13.44728, 52.55046]}, "properties": {"id": "13050559747", "name": "Ostkreuzschule für Fotografie", "street": "Behaimstraße 32/34", "zip-code": 13086, "lat": 52.55046, "lon": 13.44728, "planning-area-id": 3500935}}]}