{"type": "FeatureCollection", "features": [{"type": "Feature", "geometry": {"type": "Point", "coordinates": [13.28426, 52.51333]}, "properties": {"id": "30352328", "lat": 52.51333, "lon": 13.28426, "planning-area-id": 4200311}}, {"type": "Feature", "geometry": {"type": "Point", "coordinates": [13.19171, 52.53606]}, "properties": {"id": "616672198", "name": "Sixti Car Club", "lat": 52.53606, "lon": 13.19171, "planning-area-id": 5100316}}, {"type": "Feature", "geometry": {"type": "Point", "coordinates": [13.42012, 52.49979]}, "properties": {"id": "1826897235", "name": "stadtmobil", "street": "Skalitzer Straße 133", "zip-code": 10999, "lat": 52.49979, "lon": 13.42012, "planning-area-id": 2300314}}, {"type": "Feature", "geometry": {"type": "Point", "coordinates": [13.43168, 52.50512]}, "properties": {"id": "1826931830", "name": "Stadtmobil", "street": "Audre-Lorde-Straße 17-21", "zip-code": 10997, "lat": 52.50512, "lon": 13.43168, "planning-area-id": 2300316}}, {"type": "Feature", "geometry": {"type": "Point", "coordinates": [13.42032, 52.54212]}, "properties": {"id": "3363900043", "lat": 52.54212, "lon": 13.42032, "planning-area-id": 3601348}}, {"type": "Feature", "geometry": {"type": "Point", "coordinates": [13.43207, 52.53018]}, "properties": {"id": "3674966440", "name": "Stadtmobil", "street": "Bötzowstraße 13", "zip-code": 10407, "lat": 52.53018, "lon": 13.43207, "planning-area-id": 3701660}}, {"type": "Feature", "geometry": {"type": "Point", "coordinates": [13.42696, 52.54499]}, "properties": {"id": "3875852629", "name": "Flinkster", "lat": 52.54499, "lon": 13.42696, "planning-area-id": 3601244}}, {"type": "Feature", "geometry": {"type": "Point", "coordinates": [13.38176, 52.53431]}, "properties": {"id": "4436548357", "lat": 52.53431, "lon": 13.38176, "planning-area-id": 1100414}}, {"type": "Feature", "geometry": {"type": "Point", "coordinates": [13.37874, 52.52296]}, "properties": {"id": "4605555446", "lat": 52.52296, "lon": 13.37874, "planning-area-id": 1100308}}, {"type": "Feature", "geometry": {"type": "Point", "coordinates": [13.4076, 52.54731]}, "properties": {"id": "5260315892", "lat": 52.54731, "lon": 13.4076, "planning-area-id": 3601142}}, {"type": "Feature", "geometry": {"type": "Point", "coordinates": [13.43755, 52.50348]}, "properties": {"id": "6124260756", "name": "Cambio Station Köpenicker", "street": "Köpenicker Straße 11", "lat": 52.50348, "lon": 13.43755, "planning-area-id": 2300316}}, {"type": "Feature", "geometry": {"type": "Point", "coordinates": [13.4222, 52.51359]}, "properties": {"id": "7536994036", "lat": 52.51359, "lon": 13.4222, "planning-area-id": 1100311}}, {"type": "Feature", "geometry": {"type": "Point", "coordinates": [13.40121, 52.52878]}, "properties": {"id": "7915910821", "name": "stadtmobil", "lat": 52.52878, "lon": 13.40121, "planning-area-id": 1100309}}, {"type": "Feature", "geometry": {"type": "Point", "coordinates": [13.34639, 52.4796]}, "properties": {"id": "7995684589", "lat": 52.4796, "lon": 13.34639, "planning-area-id": 7200308}}, {"type": "Feature", "geometry": {"type": "Point", "coordinates": [13.22608, 52.55417]}, "properties": {"id": "8255683563", "name": "Jelbi-Station Daumstraße/Rhenaniastraße", "lat": 52.55417, "lon": 13.22608, "planning-area-id": 5300736}}, {"type": "Feature", "geometry": {"type": "Point", "coordinates": [13.23266, 52.53867]}, "properties": {"id": "8614201454", "name": "Jelbi-Station U Haselhorst", "lat": 52.53867, "lon": 13.23266, "planning-area-id": 5300737}}, {"type": "Feature", "geometry": {"type": "Point", "coordinates": [13.50098, 52.51068]}, "properties": {"id": "8614204893", "name": "Jelbi-Station S+U Lichtenberg", "lat": 52.51068, "lon": 13.50098, "planning-area-id": 11400931}}, {"type": "Feature", "geometry": {"type": "Point", "coordinates": [13.56087, 52.50586]}, "properties": {"id": "9002051629", "name": "Jelbi", "lat": 52.50586, "lon": 13.56087, "planning-area-id": 10300733}}, {"type": "Feature", "geometry": {"type": "Point", "coordinates": [13.41808, 52.54408]}, "properties": {"id": "9074640222", "name": "cambio CarSharing - Station Helmholtz", "street": "Lychener Straße 46", "zip-code": 10437, "lat": 52.54408, "lon": 13.41808, "planning-area-id": 3601347}}, {"type": "Feature", "geometry": {"type": "Point", "coordinates": [13.37914, 52.49179]}, "properties": {"id": "10263347366", "lat": 52.49179, "lon": 13.37914, "planning-area-id": 2200209}}, {"type": "Feature", "geometry": {"type": "Point", "coordinates": [13.42285, 52.48671]}, "properties": {"id": "10271579872", "lat": 52.48671, "lon": 13.42285, "planning-area-id": 2200212}}, {"type": "Feature", "geometry": {"type": "Point", "coordinates": [13.41351, 52.48851]}, "properties": {"id": "10293401273", "lat": 52.48851, "lon": 13.41351, "planning-area-id": 2200212}}, {"type": "Feature", "geometry": {"type": "Point", "coordinates": [13.44367, 52.49749]}, "properties": {"id": "10293414916", "lat": 52.49749, "lon": 13.44367, "planning-area-id": 2300419}}, {"type": "Feature", "geometry": {"type": "Point", "coordinates": [13.42816, 52.57221]}, "properties": {"id": "10608414647", "name": "DB InfraGO Granitzstraße", "zip-code": 13189, "lat": 52.57221, "lon": 13.42816, "planning-area-id": 3400831}}, {"type": "Feature", "geometry": {"type": "Point", "coordinates": [13.36638, 52.47559]}, "properties": {"id": "10969860170", "lat": 52.47559, "lon": 13.36638, "planning-area-id": 7200413}}, {"type": "Feature", "geometry": {"type": "Point", "coordinates": [13.39576, 52.48968]}, "properties": {"id": "12118950889", "name": "cambio", "lat": 52.48968, "lon": 13.39576, "planning-area-id": 2200211}}, {"type": "Feature", "geometry": {"type": "Point", "coordinates": [13.41278, 52.54868]}, "properties": {"id": "12400195590", "name": "Cambio", "lat": 52.54868, "lon": 13.41278, "planning-area-id": 3601142}}, {"type": "Feature", "geometry": {"type": "Point", "coordinates": [13.41283, 52.54856]}, "properties": {"id": "12891470287", "name": "cambio CarSharing - Station Schönhauser", "street": "Kopenhagener Straße 78", "zip-code": 10437, "lat": 52.54856, "lon": 13.41283, "planning-area-id": 3601142}}, {"type": "Feature", "geometry": {"type": "Point", "coordinates": [13.41407, 52.49499]}, "properties": {"id": "12891747547", "name": "cambio CarSharing - Station Admiral-Jelbi", "street": "Planufer 85", "zip-code": 10967, "lat": 52.49499, "lon": 13.41407, "planning-area-id": 2200213}}, {"type": "Feature", "geometry": {"type": "Point", "coordinates": [13.39171, 52.49712]}, "properties": {"id": "12891766078", "name": "cambio CarSharing - Station Blücherplatz", "street": "Blücherplatz 3", "zip-code": 10961, "lat": 52.49712, "lon": 13.39171, "planning-area-id": 2200210}}, {"type": "Feature", "geometry": {"type": "Point", "coordinates": [13.40786, 52.49869]}, "properties": {"id": "12979828797", "name": "Jelbi U Prinzenstraße", "lat": 52.49869, "lon": 13.40786, "planning-area-id": 2100105}}, {"type": "Feature", "geometry": {"type": "Point", "coordinates": [13.42748, 52.4961]}, "properties": {"id": "13062273477", "lat": 52.4961, "lon": 13.42748, "planning-area-id": 2300417}}, {"type": "Feature", "geometry": {"type": "Point", "coordinates": [13.41791, 52.50404]}, "properties": {"id": "13062308746", "lat": 52.50404, "lon": 13.41791, "planning-area-id": 2300314}}, {"type": "Feature", "geometry": {"type": "Point", "coordinates": [13.4243, 52.50175]}, "properties": {"id": "13062358511", "lat": 52.50175, "lon": 13.4243, "planning-area-id": 2300314}}, {"type": "Feature", "geometry": {"type": "Point", "coordinates": [13.42698, 52.50026]}, "properties": {"id": "13062387409", "lat": 52.50026, "lon": 13.42698, "planning-area-id": 2300315}}, {"type": "Feature", "geometry": {"type": "Point", "coordinates": [13.35328, 52.49016]}, "properties": {"id": "13084955493", "lat": 52.49016, "lon": 13.35328, "planning-area-id": 7100204}}]}