{"type": "FeatureCollection", "features": [{"type": "Feature", "geometry": {"type": "Point", "coordinates": [13.35962, 52.53437]}, "properties": {"id": "29040741", "name": "Filmrauschpalast", "street": "Lehrter Straße 35", "zip-code": 10557, "lat": 52.53437, "lon": 13.35962, "planning-area-id": 1200624}}, {"type": "Feature", "geometry": {"type": "Point", "coordinates": [13.286, 52.58391]}, "properties": {"id": "79615774", "name": "CineStar", "lat": 52.58391, "lon": 13.286, "planning-area-id": 12200515}}, {"type": "Feature", "geometry": {"type": "Point", "coordinates": [13.54202, 52.54175]}, "properties": {"id": "101186634", "name": "UCI Am Eastgate", "street": "Märkische Allee 176-178", "zip-code": 12681, "lat": 52.54175, "lon": 13.54202, "planning-area-id": 10100210}}, {"type": "Feature", "geometry": {"type": "Point", "coordinates": [13.45819, 52.51291]}, "properties": {"id": "251559871", "name": "Kino Intimes", "street": "Boxhagener Straße 107", "zip-code": 10245, "lat": 52.51291, "lon": 13.45819, "planning-area-id": 2500830}}, {"type": "Feature", "geometry": {"type": "Point", "coordinates": [13.41143, 52.52589]}, "properties": {"id": "256754256", "name": "Kino Babylon", "street": "Rosa-Luxemburg-Straße 30", "zip-code": 10178, "lat": 52.52589, "lon": 13.41143, "planning-area-id": 1100310}}, {"type": "Feature", "geometry": {"type": "Point", "coordinates": [13.20634, 52.5385]}, "properties": {"id": "272004025", "name": "Cineplex", "lat": 52.5385, "lon": 13.20634, "planning-area-id": 5100316}}, {"type": "Feature", "geometry": {"type": "Point", "coordinates": [13.51217, 52.46205]}, "properties": {"id": "273477667", "name": "Kino Spreehöfe", "street": "Wilhelminenhofstraße 89", "zip-code": 12459, "lat": 52.46205, "lon": 13.51217, "planning-area-id": 9200510}}, {"type": "Feature", "geometry": {"type": "Point", "coordinates": [13.33045, 52.47695]}, "properties": {"id": "277004600", "name": "Cosima", "street": "Sieglindestraße 10", "zip-code": 12159, "lat": 52.47695, "lon": 13.33045, "planning-area-id": 7300517}}, {"type": "Feature", "geometry": {"type": "Point", "coordinates": [13.45092, 52.54881]}, "properties": {"id": "281887442", "name": "Kino Toni & Tonino", "street": "Antonplatz 1", "zip-code": 13086, "lat": 52.54881, "lon": 13.45092, "planning-area-id": 3500935}}, {"type": "Feature", "geometry": {"type": "Point", "coordinates": [13.32861, 52.46693]}, "properties": {"id": "297512119", "name": "Cinema", "street": "Bundesallee 111", "zip-code": 12161, "lat": 52.46693, "lon": 13.32861, "planning-area-id": 7300516}}, {"type": "Feature", "geometry": {"type": "Point", "coordinates": [13.20245, 52.53546]}, "properties": {"id": "299288097", "name": "Kino im Kulturhaus Spandau", "lat": 52.53546, "lon": 13.20245, "planning-area-id": 5100316}}, {"type": "Feature", "geometry": {"type": "Point", "coordinates": [13.30842, 52.50676]}, "properties": {"id": "312618622", "name": "Kant Kino", "street": "Kantstraße 54", "zip-code": 10627, "lat": 52.50676, "lon": 13.30842, "planning-area-id": 4300623}}, {"type": "Feature", "geometry": {"type": "Point", "coordinates": [13.60411, 52.53779]}, "properties": {"id": "313942258", "name": "CineStar", "lat": 52.53779, "lon": 13.60411, "planning-area-id": 10200421}}, {"type": "Feature", "geometry": {"type": "Point", "coordinates": [13.41014, 52.48999]}, "properties": {"id": "331345531", "name": "Sputnik Kino", "street": "Hasenheide 54", "zip-code": 10967, "lat": 52.48999, "lon": 13.41014, "planning-area-id": 2200212}}, {"type": "Feature", "geometry": {"type": "Point", "coordinates": [13.43169, 52.48196]}, "properties": {"id": "333351711", "name": "Cineplex", "lat": 52.48196, "lon": 13.43169, "planning-area-id": 8100206}}, {"type": "Feature", "geometry": {"type": "Point", "coordinates": [13.40776, 52.53649]}, "properties": {"id": "339825650", "name": "Lichtblick", "street": "Kastanienallee 77", "zip-code": 10435, "lat": 52.53649, "lon": 13.40776, "planning-area-id": 3701554}}, {"type": "Feature", "geometry": {"type": "Point", "coordinates": [13.4019, 52.52406]}, "properties": {"id": "343650200", "name": "Hackesche Höfe Kino", "street": "Rosenthaler Straße 40-41", "zip-code": 10178, "lat": 52.52406, "lon": 13.4019, "planning-area-id": 1100309}}, {"type": "Feature", "geometry": {"type": "Point", "coordinates": [13.40184, 52.52456]}, "properties": {"id": "343650283", "name": "Kino Central", "street": "Rosenthaler Straße 39", "zip-code": 10178, "lat": 52.52456, "lon": 13.40184, "planning-area-id": 1100309}}, {"type": "Feature", "geometry": {"type": "Point", "coordinates": [13.41455, 52.50152]}, "properties": {"id": "350460866", "name": "fsk - Kino am Oranienplatz", "street": "Segitzdamm 2", "zip-code": 10969, "lat": 52.50152, "lon": 13.41455, "planning-area-id": 2100104}}, {"type": "Feature", "geometry": {"type": "Point", "coordinates": [13.41692, 52.50065]}, "properties": {"id": "350460874", "name": "Babylon Kreuzberg", "street": "Dresdener Straße 126", "zip-code": 10999, "lat": 52.50065, "lon": 13.41692, "planning-area-id": 2300314}}, {"type": "Feature", "geometry": {"type": "Point", "coordinates": [13.35939, 52.48633]}, "properties": {"id": "352907002", "name": "Xenon", "street": "Kolonnenstraße 5", "zip-code": 10827, "lat": 52.48633, "lon": 13.35939, "planning-area-id": 7200410}}, {"type": "Feature", "geometry": {"type": "Point", "coordinates": [13.38535, 52.49304]}, "properties": {"id": "355946428", "name": "Yorck", "street": "Yorckstraße 86", "zip-code": 10965, "lat": 52.49304, "lon": 13.38535, "planning-area-id": 2200209}}, {"type": "Feature", "geometry": {"type": "Point", "coordinates": [13.40148, 52.58035]}, "properties": {"id": "388325296", "name": "Blauer Stern", "street": "Hermann-Hesse-Straße 11", "zip-code": 13156, "lat": 52.58035, "lon": 13.40148, "planning-area-id": 3200206}}, {"type": "Feature", "geometry": {"type": "Point", "coordinates": [13.45544, 52.42952]}, "properties": {"id": "391462594", "name": "UCI Kinowelt", "street": "Johannisthaler Chaussee 295", "zip-code": 12351, "lat": 52.42952, "lon": 13.45544, "planning-area-id": 8300934}}, {"type": "Feature", "geometry": {"type": "Point", "coordinates": [13.41209, 52.52021]}, "properties": {"id": "437291301", "name": "Cinestar Cubix am Alexanderplatz", "street": "Rathausstraße 1", "zip-code": 10178, "lat": 52.52021, "lon": 13.41209, "planning-area-id": 1100310}}, {"type": "Feature", "geometry": {"type": "Point", "coordinates": [13.43058, 52.55255]}, "properties": {"id": "447078290", "name": "Brotfabrik", "zip-code": 13086, "lat": 52.55255, "lon": 13.43058, "planning-area-id": 3500934}}, {"type": "Feature", "geometry": {"type": "Point", "coordinates": [13.4234, 52.49033]}, "properties": {"id": "448811295", "name": "Moviemento", "street": "Kottbusser Damm 22", "zip-code": 10967, "lat": 52.49033, "lon": 13.4234, "planning-area-id": 2200213}}, {"type": "Feature", "geometry": {"type": "Point", "coordinates": [13.4394, 52.47748]}, "properties": {"id": "474801031", "name": "Passage", "street": "Karl-Marx-Straße 131", "zip-code": 12043, "lat": 52.47748, "lon": 13.4394, "planning-area-id": 8100416}}, {"type": "Feature", "geometry": {"type": "Point", "coordinates": [13.44735, 52.52075]}, "properties": {"id": "494156434", "name": "Tilsiter Lichtspiele", "street": "Richard-Sorge-Straße 25A", "zip-code": 10249, "lat": 52.52075, "lon": 13.44735, "planning-area-id": 2400522}}, {"type": "Feature", "geometry": {"type": "Point", "coordinates": [13.40081, 52.53365]}, "properties": {"id": "609911082", "name": "ACUDkino", "street": "Veteranenstraße 21", "zip-code": 10119, "lat": 52.53365, "lon": 13.40081, "planning-area-id": 1100416}}, {"type": "Feature", "geometry": {"type": "Point", "coordinates": [13.54789, 52.43584]}, "properties": {"id": "638313755", "name": "Casablanca", "street": "Friedenstraße 12", "zip-code": 12489, "lat": 52.43584, "lon": 13.54789, "planning-area-id": 9200716}}, {"type": "Feature", "geometry": {"type": "Point", "coordinates": [13.42348, 52.50406]}, "properties": {"id": "660899079", "name": "Freiluftkino Kreuzberg", "street": "Mariannenplatz 2", "zip-code": 10997, "lat": 52.50406, "lon": 13.42348, "planning-area-id": 2300314}}, {"type": "Feature", "geometry": {"type": "Point", "coordinates": [13.42802, 52.47879]}, "properties": {"id": "662864720", "name": "Rollberg Kino", "street": "Rollbergstraße 70", "zip-code": 12053, "lat": 52.47879, "lon": 13.42802, "planning-area-id": 8100206}}, {"type": "Feature", "geometry": {"type": "Point", "coordinates": [13.37374, 52.50864]}, "properties": {"id": "675243681", "name": "CinemaxX", "street": "Potsdamer Straße 5", "zip-code": 10785, "lat": 52.50864, "lon": 13.37374, "planning-area-id": 1100102}}, {"type": "Feature", "geometry": {"type": "Point", "coordinates": [13.60946, 52.53616]}, "properties": {"id": "792057385", "name": "Die Kiste", "street": "Heidenauer Straße 10", "zip-code": 12627, "lat": 52.53616, "lon": 13.60946, "planning-area-id": 10200524}}, {"type": "Feature", "geometry": {"type": "Point", "coordinates": [13.42442, 52.48342]}, "properties": {"id": "837792482", "name": "Neues Off", "street": "Hermannstraße 20", "zip-code": 12049, "lat": 52.48342, "lon": 13.42442, "planning-area-id": 8100101}}, {"type": "Feature", "geometry": {"type": "Point", "coordinates": [13.32665, 52.46414]}, "properties": {"id": "979081268", "name": "Titania-Palast", "street": "Gutsmuthsstraße 27-28", "zip-code": 12163, "lat": 52.46414, "lon": 13.32665, "planning-area-id": 6100103}}, {"type": "Feature", "geometry": {"type": "Point", "coordinates": [13.2015, 52.53644]}, "properties": {"id": "1197273317", "name": "OpenAirKino Spandau", "street": "Carl-Schurz-Straße 13", "zip-code": 13597, "lat": 52.53644, "lon": 13.2015, "planning-area-id": 5100316}}, {"type": "Feature", "geometry": {"type": "Point", "coordinates": [13.2028, 52.53833]}, "properties": {"id": "1336816758", "name": "Sweet Secrets", "street": "Jüdenstraße 29", "zip-code": 13597, "lat": 52.53833, "lon": 13.2028, "planning-area-id": 5100316}}, {"type": "Feature", "geometry": {"type": "Point", "coordinates": [13.42753, 52.48961]}, "properties": {"id": "1569218585", "name": "Kino Sex Shop", "lat": 52.48961, "lon": 13.42753, "planning-area-id": 8100311}}, {"type": "Feature", "geometry": {"type": "Point", "coordinates": [13.46164, 52.51187]}, "properties": {"id": "1787511231", "name": "b-ware! ladenkino", "street": "Gärtnerstraße 19", "zip-code": 10245, "lat": 52.51187, "lon": 13.46164, "planning-area-id": 2500833}}, {"type": "Feature", "geometry": {"type": "Point", "coordinates": [13.43027, 52.52903]}, "properties": {"id": "1863569258", "name": "Filmtheater am Friedrichshain", "street": "Bötzowstraße 1-5", "zip-code": 10407, "lat": 52.52903, "lon": 13.43027, "planning-area-id": 3701660}}, {"type": "Feature", "geometry": {"type": "Point", "coordinates": [13.31965, 52.50442]}, "properties": {"id": "1934149453", "name": "filmkunst 66", "street": "Bleibtreustraße 12", "zip-code": 10623, "lat": 52.50442, "lon": 13.31965, "planning-area-id": 4501041}}, {"type": "Feature", "geometry": {"type": "Point", "coordinates": [13.42954, 52.48379]}, "properties": {"id": "1965270875", "name": "BE-KAS Sexothek & Kino", "lat": 52.48379, "lon": 13.42954, "planning-area-id": 8100206}}, {"type": "Feature", "geometry": {"type": "Point", "coordinates": [13.33058, 52.50606]}, "properties": {"id": "2160083741", "name": "Delphi LUX", "street": "Kantstraße 10", "zip-code": 10623, "lat": 52.50606, "lon": 13.33058, "planning-area-id": 4300622}}, {"type": "Feature", "geometry": {"type": "Point", "coordinates": [13.32, 52.48468]}, "properties": {"id": "2445454963", "name": "Eva Lichtspiele", "street": "Blissestraße 18", "zip-code": 10713, "lat": 52.48468, "lon": 13.32, "planning-area-id": 4501146}}, {"type": "Feature", "geometry": {"type": "Point", "coordinates": [13.41956, 52.55244]}, "properties": {"id": "2458223837", "name": "Kino Krokodil", "street": "Greifenhagener Straße 32", "zip-code": 10437, "lat": 52.55244, "lon": 13.41956, "planning-area-id": 3601243}}, {"type": "Feature", "geometry": {"type": "Point", "coordinates": [13.32935, 52.47898]}, "properties": {"id": "2476268052", "name": "Bundesplatz Studio", "street": "Bundesplatz 14", "zip-code": 10715, "lat": 52.47898, "lon": 13.32935, "planning-area-id": 4501153}}, {"type": "Feature", "geometry": {"type": "Point", "coordinates": [13.32493, 52.50209]}, "properties": {"id": "2479053617", "name": "Cinema Paris", "street": "Kurfürstendamm 211", "zip-code": 10719, "lat": 52.50209, "lon": 13.32493, "planning-area-id": 4501041}}, {"type": "Feature", "geometry": {"type": "Point", "coordinates": [13.33002, 52.50325]}, "properties": {"id": "3675973920", "name": "Astor Film Lounge", "street": "Kurfürstendamm 225", "zip-code": 10719, "lat": 52.50325, "lon": 13.33002, "planning-area-id": 4501042}}, {"type": "Feature", "geometry": {"type": "Point", "coordinates": [13.33956, 52.55858]}, "properties": {"id": "3817115996", "name": "City Kino Wedding im Centre Français", "lat": 52.55858, "lon": 13.33956, "planning-area-id": 1400941}}, {"type": "Feature", "geometry": {"type": "Point", "coordinates": [13.38494, 52.5411]}, "properties": {"id": "4007032909", "name": "Schneiders Filmclub", "street": "Gustav-Meyer-Allee 25", "zip-code": 13355, "lat": 52.5411, "lon": 13.38494, "planning-area-id": 1300835}}, {"type": "Feature", "geometry": {"type": "Point", "coordinates": [13.44191, 52.48269]}, "properties": {"id": "4723897691", "name": "Wolf Kino", "street": "Weserstraße 59", "zip-code": 12045, "lat": 52.48269, "lon": 13.44191, "planning-area-id": 8100418}}, {"type": "Feature", "geometry": {"type": "Point", "coordinates": [13.36, 52.53445]}, "properties": {"id": "4894834027", "name": "umsonst&draussen", "street": "Lehrter Straße 35", "zip-code": 10557, "lat": 52.53445, "lon": 13.36, "planning-area-id": 1200624}}, {"type": "Feature", "geometry": {"type": "Point", "coordinates": [13.43304, 52.49166]}, "properties": {"id": "5153435222", "name": "Il Kino", "street": "Nansenstraße 22", "zip-code": 12047, "lat": 52.49166, "lon": 13.43304, "planning-area-id": 8100310}}, {"type": "Feature", "geometry": {"type": "Point", "coordinates": [13.3427, 52.49899]}, "properties": {"id": "5389518870", "name": "Connection Shop und Kino", "lat": 52.49899, "lon": 13.3427, "planning-area-id": 7100101}}, {"type": "Feature", "geometry": {"type": "Point", "coordinates": [13.4418, 52.50526]}, "properties": {"id": "6058229939", "name": "UCI Luxe East Side Gallery", "street": "Mildred-Harnack-Straße 13", "zip-code": 10243, "lat": 52.50526, "lon": 13.4418, "planning-area-id": 2400625}}, {"type": "Feature", "geometry": {"type": "Point", "coordinates": [13.39753, 52.51843]}, "properties": {"id": "6582271201", "name": "Zeughauskino", "street": "Unter den Linden 2", "zip-code": 10117, "lat": 52.51843, "lon": 13.39753, "planning-area-id": 1100206}}, {"type": "Feature", "geometry": {"type": "Point", "coordinates": [13.42599, 52.50777]}, "properties": {"id": "6697621223", "name": "Videokino Peliculoso", "street": "Köpenicker Straße 137", "zip-code": 10179, "lat": 52.50777, "lon": 13.42599, "planning-area-id": 1100313}}, {"type": "Feature", "geometry": {"type": "Point", "coordinates": [13.41302, 52.52949]}, "properties": {"id": "7141376790", "name": "Kino in der Königstadt", "street": "Straßburger Straße 55", "zip-code": 10405, "lat": 52.52949, "lon": 13.41302, "planning-area-id": 3701556}}, {"type": "Feature", "geometry": {"type": "Point", "coordinates": [13.44057, 52.51273]}, "properties": {"id": "7710353352", "name": "Hofkino", "street": "Franz-Mehring-Platz 1", "zip-code": 10243, "lat": 52.51273, "lon": 13.44057, "planning-area-id": 2400625}}, {"type": "Feature", "geometry": {"type": "Point", "coordinates": [13.29939, 52.50543]}, "properties": {"id": "7947855087", "name": "Klick Kino", "street": "Windscheidstraße 19", "zip-code": 10627, "lat": 52.50543, "lon": 13.29939, "planning-area-id": 4300416}}, {"type": "Feature", "geometry": {"type": "Point", "coordinates": [13.39586, 52.52958]}, "properties": {"id": "9079726511", "name": "Zinema", "street": "Bergstraße 2", "zip-code": 10115, "lat": 52.52958, "lon": 13.39586, "planning-area-id": 1100415}}, {"type": "Feature", "geometry": {"type": "Point", "coordinates": [13.36718, 52.50878]}, "properties": {"id": "9858868570", "name": "Sommerkino Kulturforum", "street": "Matthäikirchplatz 6", "zip-code": 10785, "lat": 52.50878, "lon": 13.36718, "planning-area-id": 1100102}}, {"type": "Feature", "geometry": {"type": "Point", "coordinates": [13.41066, 52.46479]}, "properties": {"id": "9938090502", "name": "Freiluftkino Insel", "street": "Oberlandstraße 26-35", "zip-code": 12099, "lat": 52.46479, "lon": 13.41066, "planning-area-id": 7400927}}, {"type": "Feature", "geometry": {"type": "Point", "coordinates": [13.36723, 52.54379]}, "properties": {"id": "10287958985", "name": "Sinema Transtopia", "street": "Lindower Straße 20/22", "lat": 52.54379, "lon": 13.36723, "planning-area-id": 1300836}}, {"type": "Feature", "geometry": {"type": "Point", "coordinates": [13.41304, 52.54789]}, "properties": {"id": "11200668007", "name": "Colosseum Filmtheater Berlin", "street": "Schönhauser Allee 123", "zip-code": 10437, "lat": 52.54789, "lon": 13.41304, "planning-area-id": 3601142}}, {"type": "Feature", "geometry": {"type": "Point", "coordinates": [13.32625, 52.51347]}, "properties": {"id": "12620520303", "name": "Charlies Campus Filmclub (Unikino TU Berlin)", "street": "Straße des 17. Juni 136", "zip-code": 10623, "lat": 52.51347, "lon": 13.32625, "planning-area-id": 4300622}}, {"type": "Feature", "geometry": {"type": "Point", "coordinates": [13.46614, 52.49796]}, "properties": {"id": "13101175108", "name": "Freiluftkino Neue Zukunft", "lat": 52.49796, "lon": 13.46614, "planning-area-id": 2500835}}]}