{"type": "FeatureCollection", "features": [{"type": "Feature", "geometry": {"type": "Point", "coordinates": [13.35877, 52.53477]}, "properties": {"id": "29040731", "name": "Sultan Ahmed Camii", "lat": 52.53477, "lon": 13.35877, "planning-area-id": 1200624}}, {"type": "Feature", "geometry": {"type": "Point", "coordinates": [13.39037, 52.49518]}, "properties": {"id": "29209127", "lat": 52.49518, "lon": 13.39037, "planning-area-id": 2200210}}, {"type": "Feature", "geometry": {"type": "Point", "coordinates": [13.29661, 52.60102]}, "properties": {"id": "248702772", "name": "Martin-Luther-Kapelle", "lat": 52.60102, "lon": 13.29661, "planning-area-id": 12500824}}, {"type": "Feature", "geometry": {"type": "Point", "coordinates": [13.19541, 52.5225]}, "properties": {"id": "289795838", "name": "St. Wilhelm", "street": "Weißenburger Straße 9-11", "zip-code": 13595, "lat": 52.5225, "lon": 13.19541, "planning-area-id": 5200630}}, {"type": "Feature", "geometry": {"type": "Point", "coordinates": [13.62356, 52.4475]}, "properties": {"id": "292201931", "name": "Stadtmission Gemeinde Friedrichshagen", "street": "Bölschestraße 135", "zip-code": 12587, "lat": 52.4475, "lon": 13.62356, "planning-area-id": 9501737}}, {"type": "Feature", "geometry": {"type": "Point", "coordinates": [13.23711, 52.54716]}, "properties": {"id": "332997622", "name": "Evangelische Weihnachtskirche", "street": "Haselhorster Damm 56", "zip-code": 13599, "lat": 52.54716, "lon": 13.23711, "planning-area-id": 5300737}}, {"type": "Feature", "geometry": {"type": "Point", "coordinates": [13.39361, 52.48893]}, "properties": {"id": "333459517", "name": "Evangelisch Freikirchliche Gemeinde Kreuzberg", "street": "Bergmannstraße 22", "zip-code": 10961, "lat": 52.48893, "lon": 13.39361, "planning-area-id": 2200211}}, {"type": "Feature", "geometry": {"type": "Point", "coordinates": [13.24103, 52.44418]}, "properties": {"id": "336571772", "name": "Adventgemeinde Waldfriede", "street": "Argentinische Allee 40", "zip-code": 14163, "lat": 52.44418, "lon": 13.24103, "planning-area-id": 6400838}}, {"type": "Feature", "geometry": {"type": "Point", "coordinates": [13.37791, 52.5165]}, "properties": {"id": "355960992", "name": "Raum der Stille", "street": "Pariser Platz 8", "zip-code": 10117, "lat": 52.5165, "lon": 13.37791, "planning-area-id": 1100206}}, {"type": "Feature", "geometry": {"type": "Point", "coordinates": [13.44285, 52.47593]}, "properties": {"id": "441734644", "name": "Freie evangelische Bibel-Baptisten-Gemeinde", "street": "Richardstraße 28", "zip-code": 12043, "lat": 52.47593, "lon": 13.44285, "planning-area-id": 8100416}}, {"type": "Feature", "geometry": {"type": "Point", "coordinates": [13.58218, 52.45679]}, "properties": {"id": "474359499", "name": "Adventgemeinde Köpenick", "lat": 52.45679, "lon": 13.58218, "planning-area-id": 9501940}}, {"type": "Feature", "geometry": {"type": "Point", "coordinates": [13.40127, 52.49812]}, "properties": {"id": "535628093", "name": "Inssan-Moschee", "lat": 52.49812, "lon": 13.40127, "planning-area-id": 2100106}}, {"type": "Feature", "geometry": {"type": "Point", "coordinates": [13.38995, 52.5208]}, "properties": {"id": "540969924", "name": "Quaker Meeting", "street": "Planckstraße 20", "zip-code": 10117, "lat": 52.5208, "lon": 13.38995, "planning-area-id": 1100206}}, {"type": "Feature", "geometry": {"type": "Point", "coordinates": [13.49652, 52.64177]}, "properties": {"id": "601062306", "name": "Mater Dolorosa Kirche", "street": "Röbellweg 61", "zip-code": 13125, "lat": 52.64177, "lon": 13.49652, "planning-area-id": 3100101}}, {"type": "Feature", "geometry": {"type": "Point", "coordinates": [13.38232, 52.53986]}, "properties": {"id": "676083788", "name": "Fo-Guang-Shan-Tempel", "street": "Ackerstraße 85-86", "zip-code": 13355, "lat": 52.53986, "lon": 13.38232, "planning-area-id": 1300835}}, {"type": "Feature", "geometry": {"type": "Point", "coordinates": [13.34995, 52.57519]}, "properties": {"id": "701838306", "name": "Evangelisch-Freikirchliche Gemeinde K.d.ö.R.", "street": "Alt-Reinickendorf 32", "zip-code": 13407, "lat": 52.57519, "lon": 13.34995, "planning-area-id": 12100205}}, {"type": "Feature", "geometry": {"type": "Point", "coordinates": [13.42077, 52.48677]}, "properties": {"id": "945925159", "name": "Sri Ganesha Hindu Tempel", "street": "Hasenheide 106", "zip-code": 10967, "lat": 52.48677, "lon": 13.42077, "planning-area-id": 8100101}}, {"type": "Feature", "geometry": {"type": "Point", "coordinates": [13.48141, 52.40846]}, "properties": {"id": "948654862", "name": "Gemeindezentrum ev. Kirchengemeinde Rudow", "street": "Geflügelsteig 22-28", "zip-code": 12355, "lat": 52.40846, "lon": 13.48141, "planning-area-id": 8401242}}, {"type": "Feature", "geometry": {"type": "Point", "coordinates": [13.48765, 52.61853]}, "properties": {"id": "977654857", "lat": 52.61853, "lon": 13.48765, "planning-area-id": 3300411}}, {"type": "Feature", "geometry": {"type": "Point", "coordinates": [13.26964, 52.55043]}, "properties": {"id": "1026420272", "lat": 52.55043, "lon": 13.26964, "planning-area-id": 12200414}}, {"type": "Feature", "geometry": {"type": "Point", "coordinates": [13.19908, 52.56182]}, "properties": {"id": "1135452610", "name": "Katholische Gemeinde St. Lambertus", "street": "Cautiusstraße 6", "zip-code": 13587, "lat": 52.56182, "lon": 13.19908, "planning-area-id": 5100105}}, {"type": "Feature", "geometry": {"type": "Point", "coordinates": [13.32773, 52.45853]}, "properties": {"id": "1232194996", "name": "Thomas Gemeinde", "street": "Bergstraße 92", "zip-code": 12169, "lat": 52.45853, "lon": 13.32773, "planning-area-id": 6100208}}, {"type": "Feature", "geometry": {"type": "Point", "coordinates": [13.39952, 52.53636]}, "properties": {"id": "1256840401", "name": "ChristusKirche Berlin-Mitte", "street": "Anklamer Straße 31", "zip-code": 10115, "lat": 52.53636, "lon": 13.39952, "planning-area-id": 1100416}}, {"type": "Feature", "geometry": {"type": "Point", "coordinates": [13.31107, 52.61753]}, "properties": {"id": "1274338417", "name": "Ev. Kirchengem. Hermsdorf", "street": "Wachsmuthstraße 24", "zip-code": 13467, "lat": 52.61753, "lon": 13.31107, "planning-area-id": 12400723}}, {"type": "Feature", "geometry": {"type": "Point", "coordinates": [13.46546, 52.51229]}, "properties": {"id": "1309021897", "name": "Buddhistisches Zentrum Bodhicharya Deutschland e.V.", "street": "Kinzigstraße 25", "zip-code": 10247, "lat": 52.51229, "lon": 13.46546, "planning-area-id": 2500831}}, {"type": "Feature", "geometry": {"type": "Point", "coordinates": [13.36346, 52.52636]}, "properties": {"id": "1313117575", "name": "Stadtmission Gemeinde im Zentrum am Hauptbahnhof", "street": "Lehrter Straße 68", "zip-code": 10557, "lat": 52.52636, "lon": 13.36346, "planning-area-id": 1200627}}, {"type": "Feature", "geometry": {"type": "Point", "coordinates": [13.31609, 52.45528]}, "properties": {"id": "1370499165", "name": "Kirche des Nazareners", "lat": 52.45528, "lon": 13.31609, "planning-area-id": 6100101}}, {"type": "Feature", "geometry": {"type": "Point", "coordinates": [13.32757, 52.47168]}, "properties": {"id": "1392943281", "name": "Evangelische Gemeinschaft Friedenau", "street": "Friedrich-Wilhelm-Platz 7", "zip-code": 12161, "lat": 52.47168, "lon": 13.32757, "planning-area-id": 7300515}}, {"type": "Feature", "geometry": {"type": "Point", "coordinates": [13.20125, 52.52356]}, "properties": {"id": "1404465171", "name": "Königreichssaal Jehovas Zeugen", "street": "Weißenburger Straße 35", "zip-code": 13595, "lat": 52.52356, "lon": 13.20125, "planning-area-id": 5200631}}, {"type": "Feature", "geometry": {"type": "Point", "coordinates": [13.1824, 52.52766]}, "properties": {"id": "1404484782", "name": "Königreichssaal Jehovas Zeugen", "street": "Seeburger Straße 32E", "zip-code": 13581, "lat": 52.52766, "lon": 13.1824, "planning-area-id": 5200629}}, {"type": "Feature", "geometry": {"type": "Point", "coordinates": [13.57396, 52.44364]}, "properties": {"id": "1505231652", "name": "Schloßkirche", "lat": 52.44364, "lon": 13.57396, "planning-area-id": 9401534}}, {"type": "Feature", "geometry": {"type": "Point", "coordinates": [13.44033, 52.55271]}, "properties": {"id": "1556403863", "name": "Immanuel-Kapelle Baptisten-Gemeinde", "zip-code": 13086, "lat": 52.55271, "lon": 13.44033, "planning-area-id": 3500934}}, {"type": "Feature", "geometry": {"type": "Point", "coordinates": [13.39455, 52.56593]}, "properties": {"id": "1602071051", "name": "Franziskanerkloster", "zip-code": 13187, "lat": 52.56593, "lon": 13.39455, "planning-area-id": 3400721}}, {"type": "Feature", "geometry": {"type": "Point", "coordinates": [13.34578, 52.50594]}, "properties": {"id": "1813041607", "name": "St. Franziskus - Kapelle", "lat": 52.50594, "lon": 13.34578, "planning-area-id": 1100101}}, {"type": "Feature", "geometry": {"type": "Point", "coordinates": [13.2752, 52.5751]}, "properties": {"id": "1891429795", "name": "Stadtmission Gemeinde Tegel", "street": "Billerbecker Weg 112-114", "zip-code": 13507, "lat": 52.5751, "lon": 13.2752, "planning-area-id": 12200412}}, {"type": "Feature", "geometry": {"type": "Point", "coordinates": [13.399, 52.586]}, "properties": {"id": "1903040914", "name": "Adventgemeinde Pankow", "street": "Eichenstraße 61", "zip-code": 13156, "lat": 52.586, "lon": 13.399, "planning-area-id": 3200205}}, {"type": "Feature", "geometry": {"type": "Point", "coordinates": [13.44566, 52.47185]}, "properties": {"id": "1976696605", "name": "Gazi Osman Pasa Moschee eV", "street": "Schöneweider Straße 11", "zip-code": 12055, "lat": 52.47185, "lon": 13.44566, "planning-area-id": 8100417}}, {"type": "Feature", "geometry": {"type": "Point", "coordinates": [13.41256, 52.49253]}, "properties": {"id": "2145256562", "name": "Buddhistisches Tor Berlin", "zip-code": 10967, "lat": 52.49253, "lon": 13.41256, "planning-area-id": 2200213}}, {"type": "Feature", "geometry": {"type": "Point", "coordinates": [13.44193, 52.47675]}, "properties": {"id": "2281044959", "name": "Evangelische Reformierte Bethlehemsgemeinde", "street": "Richardstraße 97", "zip-code": 12043, "lat": 52.47675, "lon": 13.44193, "planning-area-id": 8100416}}, {"type": "Feature", "geometry": {"type": "Point", "coordinates": [13.36582, 52.54897]}, "properties": {"id": "2303055234", "name": "International Christian Revival Church", "lat": 52.54897, "lon": 13.36582, "planning-area-id": 1401043}}, {"type": "Feature", "geometry": {"type": "Point", "coordinates": [13.42161, 52.50082]}, "properties": {"id": "2412265590", "name": "International Zen Temple", "lat": 52.50082, "lon": 13.42161, "planning-area-id": 2300314}}, {"type": "Feature", "geometry": {"type": "Point", "coordinates": [13.47233, 52.51344]}, "properties": {"id": "2439362666", "name": "Stadtmission Gemeinde Frankfurter Allee", "street": "Frankfurter Allee 96", "zip-code": 10247, "lat": 52.51344, "lon": 13.47233, "planning-area-id": 2500832}}, {"type": "Feature", "geometry": {"type": "Point", "coordinates": [13.18382, 52.52658]}, "properties": {"id": "2478866162", "name": "Markaz Rasulallah e.V.", "street": "Seeburger Straße 65", "zip-code": 13581, "lat": 52.52658, "lon": 13.18382, "planning-area-id": 5200630}}, {"type": "Feature", "geometry": {"type": "Point", "coordinates": [13.38674, 52.55391]}, "properties": {"id": "2501779747", "name": "Stadtmission Gemeinde Wedding", "street": "Stettiner Straße 45", "zip-code": 13357, "lat": 52.55391, "lon": 13.38674, "planning-area-id": 1300733}}, {"type": "Feature", "geometry": {"type": "Point", "coordinates": [13.35193, 52.5329]}, "properties": {"id": "2529484537", "name": "Indonesisches Weisheits- & Kulturzentrum", "street": "Feldzeugmeisterstraße 1", "zip-code": 10557, "lat": 52.5329, "lon": 13.35193, "planning-area-id": 1200623}}, {"type": "Feature", "geometry": {"type": "Point", "coordinates": [13.4068, 52.56533]}, "properties": {"id": "2625794374", "name": "Paulus-Gemeinde Berlin-Pankow e.V.", "street": "Florastraße 35", "zip-code": 13187, "lat": 52.56533, "lon": 13.4068, "planning-area-id": 3400723}}, {"type": "Feature", "geometry": {"type": "Point", "coordinates": [13.3601, 52.59584]}, "properties": {"id": "2699488273", "name": "Evangelisch Apostolische Johannes Gemeinde", "lat": 52.59584, "lon": 13.3601, "planning-area-id": 12601235}}, {"type": "Feature", "geometry": {"type": "Point", "coordinates": [13.42737, 52.48605]}, "properties": {"id": "2759261083", "name": "Hamidiye Camii", "street": "Sonnenallee 18", "zip-code": 12047, "lat": 52.48605, "lon": 13.42737, "planning-area-id": 8100314}}, {"type": "Feature", "geometry": {"type": "Point", "coordinates": [13.43886, 52.47848]}, "properties": {"id": "2822957669", "name": "Alevitischer Kulturverein Berlin e.V. Oniki Imam Yolu/Weg der Zwölf Imame", "street": "Richardstraße 110", "zip-code": 12043, "lat": 52.47848, "lon": 13.43886, "planning-area-id": 8100415}}, {"type": "Feature", "geometry": {"type": "Point", "coordinates": [13.40255, 52.42478]}, "properties": {"id": "2848134843", "name": "Islamisches Imam Hassan Werk e.V.", "street": "Im Lesachtal 24", "zip-code": 12107, "lat": 52.42478, "lon": 13.40255, "planning-area-id": 7501134}}, {"type": "Feature", "geometry": {"type": "Point", "coordinates": [13.63199, 52.52081]}, "properties": {"id": "2860740786", "name": "Friedhofskapelle", "street": "Walter-Leistikow-Weg 10", "zip-code": 12623, "lat": 52.52081, "lon": 13.63199, "planning-area-id": 10400938}}, {"type": "Feature", "geometry": {"type": "Point", "coordinates": [13.45545, 52.42838]}, "properties": {"id": "2865873505", "name": "Martin-Luther-King-Kirche", "street": "Martin-Luther-King-Weg 8", "zip-code": 12351, "lat": 52.42838, "lon": 13.45545, "planning-area-id": 8300934}}, {"type": "Feature", "geometry": {"type": "Point", "coordinates": [13.20909, 52.5604]}, "properties": {"id": "2867830690", "name": "Apostelamt Jesu Christi", "street": "Chamissostraße 4", "zip-code": 13587, "lat": 52.5604, "lon": 13.20909, "planning-area-id": 5100104}}, {"type": "Feature", "geometry": {"type": "Point", "coordinates": [13.15923, 52.39546]}, "properties": {"id": "2876493701", "name": "Weidenkirche", "street": "Kremnitzufer 9", "zip-code": 14109, "lat": 52.39546, "lon": 13.15923, "planning-area-id": 6400735}}, {"type": "Feature", "geometry": {"type": "Point", "coordinates": [13.28473, 52.5131]}, "properties": {"id": "3020434398", "name": "Ev. Kirchengemeinde Epiphanien", "street": "Knobelsdorffstraße 72", "zip-code": 14059, "lat": 52.5131, "lon": 13.28473, "planning-area-id": 4200311}}, {"type": "Feature", "geometry": {"type": "Point", "coordinates": [13.46667, 52.55684]}, "properties": {"id": "3039050111", "name": "Jagannatha Tempel Berlin", "street": "Berliner Allee 209", "zip-code": 13088, "lat": 52.55684, "lon": 13.46667, "planning-area-id": 3500933}}, {"type": "Feature", "geometry": {"type": "Point", "coordinates": [13.45685, 52.5486]}, "properties": {"id": "3039050989", "name": "Stadtmission Gemeinde Bizetstraße", "street": "Bizetstraße 75", "zip-code": 13088, "lat": 52.5486, "lon": 13.45685, "planning-area-id": 3500936}}, {"type": "Feature", "geometry": {"type": "Point", "coordinates": [13.33683, 52.4716]}, "properties": {"id": "3145126656", "name": "Valide Sultan Camii", "lat": 52.4716, "lon": 13.33683, "planning-area-id": 7300618}}, {"type": "Feature", "geometry": {"type": "Point", "coordinates": [13.41774, 52.4616]}, "properties": {"id": "3167606461", "name": "Serbisch-orthodoxe Christi-Auferstehungs-Kirche", "street": "Schwanheimer Straße 11", "lat": 52.4616, "lon": 13.41774, "planning-area-id": 7400928}}, {"type": "Feature", "geometry": {"type": "Point", "coordinates": [13.37464, 52.55876]}, "properties": {"id": "3332061408", "name": "Interkulturelles Zentrum für Dialog und Bildung e.V.", "street": "Drontheimer Straße 32A", "zip-code": 13359, "lat": 52.55876, "lon": 13.37464, "planning-area-id": 1300730}}, {"type": "Feature", "geometry": {"type": "Point", "coordinates": [13.34942, 52.48295]}, "properties": {"id": "3401492942", "name": "Alt-Katholische Gemeinde Berlin", "street": "Hauptstraße 48", "zip-code": 10827, "lat": 52.48295, "lon": 13.34942, "planning-area-id": 7200409}}, {"type": "Feature", "geometry": {"type": "Point", "coordinates": [13.41101, 52.51169]}, "properties": {"id": "3410334471", "name": "Gereja Bethel Indonesia Jemaat Bethany", "street": "Wallstraße 32", "zip-code": 10179, "lat": 52.51169, "lon": 13.41101, "planning-area-id": 1100312}}, {"type": "Feature", "geometry": {"type": "Point", "coordinates": [13.32111, 52.42787]}, "properties": {"id": "3411055106", "name": "Evangelisch-Freikirchliche Gemeinde Bethel", "street": "Schillerstraße 26", "zip-code": 12207, "lat": 52.42787, "lon": 13.32111, "planning-area-id": 6200421}}, {"type": "Feature", "geometry": {"type": "Point", "coordinates": [13.385, 52.43535]}, "properties": {"id": "3411066489", "name": "Evangelisch-Freikirchliche Gemeinde", "lat": 52.43535, "lon": 13.385, "planning-area-id": 7501133}}, {"type": "Feature", "geometry": {"type": "Point", "coordinates": [13.56561, 52.54554]}, "properties": {"id": "3411082818", "name": "Evangelisch-Freikirchliche Gemeinde", "lat": 52.54554, "lon": 13.56561, "planning-area-id": 10100209}}, {"type": "Feature", "geometry": {"type": "Point", "coordinates": [13.51059, 52.46703]}, "properties": {"id": "3411168898", "name": "Evangelisch-Freikirchliche Gemeinde", "lat": 52.46703, "lon": 13.51059, "planning-area-id": 9200510}}, {"type": "Feature", "geometry": {"type": "Point", "coordinates": [13.50989, 52.46673]}, "properties": {"id": "3411207173", "name": "Friedenskirche", "lat": 52.46673, "lon": 13.50989, "planning-area-id": 9200510}}, {"type": "Feature", "geometry": {"type": "Point", "coordinates": [13.52337, 52.46333]}, "properties": {"id": "3411265895", "name": "Evangelisch-Freikirchliche Neues Leben Gemeinde", "lat": 52.46333, "lon": 13.52337, "planning-area-id": 9200511}}, {"type": "Feature", "geometry": {"type": "Point", "coordinates": [13.4114, 52.54458]}, "properties": {"id": "3411369680", "name": "Evangelisch-Freikirchliche Gemeinde \"Zoar\"", "street": "Cantianstraße 9", "zip-code": 10437, "lat": 52.54458, "lon": 13.4114, "planning-area-id": 3601142}}, {"type": "Feature", "geometry": {"type": "Point", "coordinates": [13.35109, 52.4941]}, "properties": {"id": "3411476712", "name": "Evangelisch-Freikirchliche Gemeinde", "lat": 52.4941, "lon": 13.35109, "planning-area-id": 7100204}}, {"type": "Feature", "geometry": {"type": "Point", "coordinates": [13.20531, 52.54734]}, "properties": {"id": "3411527446", "name": "Evangelisch-Freikirchliche Gemeinde Berlin-Spandau", "lat": 52.54734, "lon": 13.20531, "planning-area-id": 5100314}}, {"type": "Feature", "geometry": {"type": "Point", "coordinates": [13.28743, 52.58723]}, "properties": {"id": "3411616993", "name": "Evangelisch-Freikirchliche Bethel-Gemeinde", "lat": 52.58723, "lon": 13.28743, "planning-area-id": 12200515}}, {"type": "Feature", "geometry": {"type": "Point", "coordinates": [13.37738, 52.55122]}, "properties": {"id": "3411706623", "name": "Evangelisch-Freikirchliche Gemeinde", "street": "Buttmannstraße 10", "zip-code": 13357, "lat": 52.55122, "lon": 13.37738, "planning-area-id": 1401044}}, {"type": "Feature", "geometry": {"type": "Point", "coordinates": [13.32251, 52.48101]}, "properties": {"id": "3411726933", "name": "Evangelisch-Freikirchliche Gemeinde", "street": "Hildegardstraße 20a", "zip-code": 10715, "lat": 52.48101, "lon": 13.32251, "planning-area-id": 4501151}}, {"type": "Feature", "geometry": {"type": "Point", "coordinates": [13.34714, 52.47891]}, "properties": {"id": "3448408580", "name": "Greater Grace Evangelische Freikirche", "lat": 52.47891, "lon": 13.34714, "planning-area-id": 7200308}}, {"type": "Feature", "geometry": {"type": "Point", "coordinates": [13.2071, 52.52764]}, "properties": {"id": "3667655313", "name": "Adventgemeinde Spandau", "street": "Tiefwerderweg 5", "zip-code": 13597, "lat": 52.52764, "lon": 13.2071, "planning-area-id": 5200632}}, {"type": "Feature", "geometry": {"type": "Point", "coordinates": [13.37722, 52.55947]}, "properties": {"id": "3737533306", "name": "Bilal Moschee", "street": "Drontheimer Straße 16", "zip-code": 13359, "lat": 52.55947, "lon": 13.37722, "planning-area-id": 1300730}}, {"type": "Feature", "geometry": {"type": "Point", "coordinates": [13.33106, 52.49746]}, "properties": {"id": "3786111363", "name": "Shaolin Tempel", "lat": 52.49746, "lon": 13.33106, "planning-area-id": 4501045}}, {"type": "Feature", "geometry": {"type": "Point", "coordinates": [13.29427, 52.51604]}, "properties": {"id": "3834064759", "name": "Osman Gazi Camii", "street": "Nehringstraße 27", "zip-code": 14059, "lat": 52.51604, "lon": 13.29427, "planning-area-id": 4300413}}, {"type": "Feature", "geometry": {"type": "Point", "coordinates": [13.42512, 52.4899]}, "properties": {"id": "3838822221", "name": "Kreuzbergprojekt", "street": "Lenaustraße 4", "zip-code": 12047, "lat": 52.4899, "lon": 13.42512, "planning-area-id": 8100311}}, {"type": "Feature", "geometry": {"type": "Point", "coordinates": [13.3828, 52.55192]}, "properties": {"id": "4009581509", "name": "Al-Iman-Moschee", "street": "Badstraße 21", "zip-code": 13357, "lat": 52.55192, "lon": 13.3828, "planning-area-id": 1300733}}, {"type": "Feature", "geometry": {"type": "Point", "coordinates": [13.52317, 52.51298]}, "properties": {"id": "4033002786", "name": "Stadtmission Gemeinde Friedrichsfelde Ost", "street": "Seddiner Straße 1", "zip-code": 10315, "lat": 52.51298, "lon": 13.52317, "planning-area-id": 11401033}}, {"type": "Feature", "geometry": {"type": "Point", "coordinates": [13.41238, 52.5606]}, "properties": {"id": "4033039485", "name": "Stadtmission Gemeinde Pankow", "street": "Berliner Straße 44", "zip-code": 13189, "lat": 52.5606, "lon": 13.41238, "planning-area-id": 3400826}}, {"type": "Feature", "geometry": {"type": "Point", "coordinates": [13.29573, 52.49714]}, "properties": {"id": "4033046356", "name": "Stadtmission Gemeinde Wilmersdorf", "street": "Joachim-Friedrich-Straße 46", "zip-code": 10711, "lat": 52.49714, "lon": 13.29573, "planning-area-id": 4500938}}, {"type": "Feature", "geometry": {"type": "Point", "coordinates": [13.50293, 52.52657]}, "properties": {"id": "4033054438", "name": "Junge Kirche Berlin - Lichtenberg", "street": "Herzbergstraße 84", "zip-code": 10365, "lat": 52.52657, "lon": 13.50293, "planning-area-id": 11300721}}, {"type": "Feature", "geometry": {"type": "Point", "coordinates": [13.41839, 52.50081]}, "properties": {"id": "4040784008", "name": "Islamisches Kulturzentrum der Bosniaken in Berlin", "lat": 52.50081, "lon": 13.41839, "planning-area-id": 2300314}}, {"type": "Feature", "geometry": {"type": "Point", "coordinates": [13.37864, 52.55907]}, "properties": {"id": "4061948098", "name": "Haci Bayram Moschee e.V.", "street": "Koloniestraße 129", "zip-code": 13359, "lat": 52.55907, "lon": 13.37864, "planning-area-id": 1300730}}, {"type": "Feature", "geometry": {"type": "Point", "coordinates": [13.39853, 52.53446]}, "properties": {"id": "4134251486", "name": "Studienkreis Allan Kardec", "lat": 52.53446, "lon": 13.39853, "planning-area-id": 1100416}}, {"type": "Feature", "geometry": {"type": "Point", "coordinates": [13.38555, 52.55411]}, "properties": {"id": "4139472262", "name": "Akşemseddin Camii", "street": "Bellermannstraße 90", "zip-code": 13357, "lat": 52.55411, "lon": 13.38555, "planning-area-id": 1300733}}, {"type": "Feature", "geometry": {"type": "Point", "coordinates": [13.30184, 52.51423]}, "properties": {"id": "4207499766", "name": "UMC English Language International Congregation Berlin", "street": "Kaiser-Friedrich-Straße 87", "zip-code": 10585, "lat": 52.51423, "lon": 13.30184, "planning-area-id": 4300621}}, {"type": "Feature", "geometry": {"type": "Point", "coordinates": [13.30189, 52.51426]}, "properties": {"id": "4207985891", "name": "Evangelisch-methodistische Kirchengemeinde Berlin-Charlottenburg", "street": "Kaiser-Friedrich-Straße 87", "zip-code": 10585, "lat": 52.51426, "lon": 13.30189, "planning-area-id": 4300621}}, {"type": "Feature", "geometry": {"type": "Point", "coordinates": [13.32253, 52.43295]}, "properties": {"id": "4252410793", "name": "Berliner Mennoniten-Gemeinde", "street": "Promenadenstraße 15b", "zip-code": 12207, "lat": 52.43295, "lon": 13.32253, "planning-area-id": 6200421}}, {"type": "Feature", "geometry": {"type": "Point", "coordinates": [13.36559, 52.43107]}, "properties": {"id": "4278114891", "name": "Friedensheim", "lat": 52.43107, "lon": 13.36559, "planning-area-id": 6200317}}, {"type": "Feature", "geometry": {"type": "Point", "coordinates": [13.20582, 52.54245]}, "properties": {"id": "4317329215", "name": "Hoca Ahmet Yesevi Camii", "lat": 52.54245, "lon": 13.20582, "planning-area-id": 5100315}}, {"type": "Feature", "geometry": {"type": "Point", "coordinates": [13.47997, 52.50206]}, "properties": {"id": "4331571609", "name": "Wat Sacca", "street": "Nöldnerstraße 19", "zip-code": 10317, "lat": 52.50206, "lon": 13.47997, "planning-area-id": 11400928}}, {"type": "Feature", "geometry": {"type": "Point", "coordinates": [13.44754, 52.59382]}, "properties": {"id": "4362191535", "name": "Friedhof von ehem. Insassen des NS-Zwangsarbeiterlagers Blankenburg", "lat": 52.59382, "lon": 13.44754, "planning-area-id": 3300514}}, {"type": "Feature", "geometry": {"type": "Point", "coordinates": [13.36631, 52.54361]}, "properties": {"id": "4381394730", "name": "Eyüp Sultan Moschee", "lat": 52.54361, "lon": 13.36631, "planning-area-id": 1300836}}, {"type": "Feature", "geometry": {"type": "Point", "coordinates": [13.36651, 52.49753]}, "properties": {"id": "4419026895", "name": "Lutherkirchengemeinde", "lat": 52.49753, "lon": 13.36651, "planning-area-id": 7100205}}, {"type": "Feature", "geometry": {"type": "Point", "coordinates": [13.35409, 52.48609]}, "properties": {"id": "4486714441", "name": "Kabbalah Center Berlin", "street": "Hauptstraße 27, Eingang E", "zip-code": 10827, "lat": 52.48609, "lon": 13.35409, "planning-area-id": 7200409}}, {"type": "Feature", "geometry": {"type": "Point", "coordinates": [13.36924, 52.54893]}, "properties": {"id": "4777467917", "name": "Yunus Emre Moschee", "street": "Reinickendorfer Straße 38-39", "zip-code": 13347, "lat": 52.54893, "lon": 13.36924, "planning-area-id": 1401044}}, {"type": "Feature", "geometry": {"type": "Point", "coordinates": [13.34155, 52.52799]}, "properties": {"id": "4817551642", "name": "LIFE e.V.", "street": "Wilhelmshavener Straße 4", "zip-code": 10551, "lat": 52.52799, "lon": 13.34155, "planning-area-id": 1200520}}, {"type": "Feature", "geometry": {"type": "Point", "coordinates": [13.42833, 52.49836]}, "properties": {"id": "4879970440", "name": "Zentralmoschee", "lat": 52.49836, "lon": 13.42833, "planning-area-id": 2300417}}, {"type": "Feature", "geometry": {"type": "Point", "coordinates": [13.38044, 52.5534]}, "properties": {"id": "4899779632", "name": "Redeemed Christian Church of God - Mount Zion Parish", "street": "Badstraße 34", "zip-code": 13357, "lat": 52.5534, "lon": 13.38044, "planning-area-id": 1401045}}, {"type": "Feature", "geometry": {"type": "Point", "coordinates": [13.33539, 52.52762]}, "properties": {"id": "4917235508", "name": "Dominikanerkloster Sankt Paulus", "street": "Oldenburger Straße 46", "zip-code": 10551, "lat": 52.52762, "lon": 13.33539, "planning-area-id": 1200519}}, {"type": "Feature", "geometry": {"type": "Point", "coordinates": [13.27756, 52.48858]}, "properties": {"id": "4926337191", "name": "Johannische Kirche", "lat": 52.48858, "lon": 13.27756, "planning-area-id": 4400726}}, {"type": "Feature", "geometry": {"type": "Point", "coordinates": [13.4124, 52.55211]}, "properties": {"id": "5034289021", "name": "Christliche Wissenschaft", "street": "Paul-Robeson-Straße 45", "zip-code": 10439, "lat": 52.55211, "lon": 13.4124, "planning-area-id": 3601141}}, {"type": "Feature", "geometry": {"type": "Point", "coordinates": [13.38956, 52.49401]}, "properties": {"id": "5057966521", "name": "Neuapostolische Kirche", "street": "Baruther Straße 4", "lat": 52.49401, "lon": 13.38956, "planning-area-id": 2200210}}, {"type": "Feature", "geometry": {"type": "Point", "coordinates": [13.45239, 52.48298]}, "properties": {"id": "5102322080", "name": "Al-Torath e.V.", "street": "Harzer Straße 51-52", "zip-code": 12059, "lat": 52.48298, "lon": 13.45239, "planning-area-id": 8100419}}, {"type": "Feature", "geometry": {"type": "Point", "coordinates": [13.44341, 52.50001]}, "properties": {"id": "5102337476", "name": "Deutsch-libanesische Al-Balagh e.V.", "street": "Falckensteinstraße 4", "zip-code": 10997, "lat": 52.50001, "lon": 13.44341, "planning-area-id": 2300419}}, {"type": "Feature", "geometry": {"type": "Point", "coordinates": [13.40561, 52.54993]}, "properties": {"id": "5354908060", "name": "Evangelische Gemeinschaft", "lat": 52.54993, "lon": 13.40561, "planning-area-id": 3601141}}, {"type": "Feature", "geometry": {"type": "Point", "coordinates": [13.28684, 52.50368]}, "properties": {"id": "5359144778", "name": "Synagoge Herbartstraße", "street": "Herbartstraße 26", "zip-code": 14057, "lat": 52.50368, "lon": 13.28684, "planning-area-id": 4300415}}, {"type": "Feature", "geometry": {"type": "Point", "coordinates": [13.30205, 52.59183]}, "properties": {"id": "5749586419", "name": "Erlöserkirche", "street": "Gorkistraße 127", "zip-code": 13509, "lat": 52.59183, "lon": 13.30205, "planning-area-id": 12500824}}, {"type": "Feature", "geometry": {"type": "Point", "coordinates": [13.35878, 52.48798]}, "properties": {"id": "5760441944", "name": "Emir Sultan", "lat": 52.48798, "lon": 13.35878, "planning-area-id": 7200411}}, {"type": "Feature", "geometry": {"type": "Point", "coordinates": [13.44052, 52.47428]}, "properties": {"id": "5969944136", "name": "Tekke-i Kadiriyye Mescidi", "street": "Karl-Marx-Straße 179", "lat": 52.47428, "lon": 13.44052, "planning-area-id": 8100416}}, {"type": "Feature", "geometry": {"type": "Point", "coordinates": [13.36015, 52.54892]}, "properties": {"id": "5969958074", "name": "Mehmed Zahid Kotku Tekkesi", "street": "Turiner Straße 6", "lat": 52.54892, "lon": 13.36015, "planning-area-id": 1401048}}, {"type": "Feature", "geometry": {"type": "Point", "coordinates": [13.28731, 52.51543]}, "properties": {"id": "5969997512", "name": "Seituna Moschee", "street": "Sophie-Charlotten-Straße 31", "lat": 52.51543, "lon": 13.28731, "planning-area-id": 4300413}}, {"type": "Feature", "geometry": {"type": "Point", "coordinates": [13.36911, 52.49173]}, "properties": {"id": "5970017362", "name": "Ditib Anadolu Camii", "street": "Katzlerstraße 15", "lat": 52.49173, "lon": 13.36911, "planning-area-id": 7100206}}, {"type": "Feature", "geometry": {"type": "Point", "coordinates": [13.3887, 52.53914]}, "properties": {"id": "5970060886", "name": "Ashab-i Kehf Camii", "street": "Jasmunder Straße 3", "lat": 52.53914, "lon": 13.3887, "planning-area-id": 1300835}}, {"type": "Feature", "geometry": {"type": "Point", "coordinates": [13.42118, 52.47879]}, "properties": {"id": "5970082401", "name": "Baitul Mukarram Masjid e.V.", "street": "Selchower Straße 12", "zip-code": 12049, "lat": 52.47879, "lon": 13.42118, "planning-area-id": 8100102}}, {"type": "Feature", "geometry": {"type": "Point", "coordinates": [13.43173, 52.48273]}, "properties": {"id": "5976073569", "name": "Xhamia Isa Beuy Moschee", "street": "Karl-Marx-Straße 58", "zip-code": 12043, "lat": 52.48273, "lon": 13.43173, "planning-area-id": 8100206}}, {"type": "Feature", "geometry": {"type": "Point", "coordinates": [13.20238, 52.54872]}, "properties": {"id": "5976087510", "name": "Spandau Yeni Camii", "street": "Lynarstraße 17", "zip-code": 13585, "lat": 52.54872, "lon": 13.20238, "planning-area-id": 5100314}}, {"type": "Feature", "geometry": {"type": "Point", "coordinates": [13.36082, 52.50048]}, "properties": {"id": "5976092238", "name": "Semerkant Moschee", "street": "Kurfürstenstraße 37", "lat": 52.50048, "lon": 13.36082, "planning-area-id": 1100103}}, {"type": "Feature", "geometry": {"type": "Point", "coordinates": [13.38509, 52.4965]}, "properties": {"id": "5976101318", "name": "Orhan Gazi Camii", "street": "Obentrautstraße 35", "zip-code": 10963, "lat": 52.4965, "lon": 13.38509, "planning-area-id": 2200208}}, {"type": "Feature", "geometry": {"type": "Point", "coordinates": [13.42938, 52.47159]}, "properties": {"id": "5976130396", "name": "Neukölln Camii", "street": "Hermannstraße 177", "zip-code": 12051, "lat": 52.47159, "lon": 13.42938, "planning-area-id": 8100208}}, {"type": "Feature", "geometry": {"type": "Point", "coordinates": [13.42402, 52.49051]}, "properties": {"id": "5980150601", "name": "Muradiye Camii - Türkisch-Islamischer Kulturverein e.V.", "lat": 52.49051, "lon": 13.42402, "planning-area-id": 8100311}}, {"type": "Feature", "geometry": {"type": "Point", "coordinates": [13.31322, 52.52471]}, "properties": {"id": "5980162241", "name": "Moschee Al-Salam", "street": "Goslarer Platz 5", "lat": 52.52471, "lon": 13.31322, "planning-area-id": 4300518}}, {"type": "Feature", "geometry": {"type": "Point", "coordinates": [13.43214, 52.46562]}, "properties": {"id": "5980184803", "name": "Mimar Sinan Camii", "street": "Hermannstraße 120", "lat": 52.46562, "lon": 13.43214, "planning-area-id": 8100105}}, {"type": "Feature", "geometry": {"type": "Point", "coordinates": [13.39505, 52.45752]}, "properties": {"id": "5988221849", "name": "Ibrahim-al-Khalil-Moschee", "lat": 52.45752, "lon": 13.39505, "planning-area-id": 7400927}}, {"type": "Feature", "geometry": {"type": "Point", "coordinates": [13.44524, 52.55254]}, "properties": {"id": "6147582386", "name": "Buddhistisches Zentrum Berlin der Karma Kagyü Linie", "street": "Charlottenburger Straße 28", "zip-code": 13086, "lat": 52.55254, "lon": 13.44524, "planning-area-id": 3500935}}, {"type": "Feature", "geometry": {"type": "Point", "coordinates": [13.36364, 52.56232]}, "properties": {"id": "6168035493", "name": "Ditib Koca Sinan Camii", "street": "Holländerstraße 128", "lat": 52.56232, "lon": 13.36364, "planning-area-id": 12100204}}, {"type": "Feature", "geometry": {"type": "Point", "coordinates": [13.38379, 52.52862]}, "properties": {"id": "6181021263", "name": "Kapelle", "lat": 52.52862, "lon": 13.38379, "planning-area-id": 1100308}}, {"type": "Feature", "geometry": {"type": "Point", "coordinates": [13.34952, 52.54653]}, "properties": {"id": "6288821537", "name": "Al Firdaus Moschee", "street": "Brüsseler Straße 39", "zip-code": 13353, "lat": 52.54653, "lon": 13.34952, "planning-area-id": 1400942}}, {"type": "Feature", "geometry": {"type": "Point", "coordinates": [13.27918, 52.51705]}, "properties": {"id": "6451805759", "name": "Dharma Mati", "street": "Soorstraße 85", "zip-code": 14050, "lat": 52.51705, "lon": 13.27918, "planning-area-id": 4200311}}, {"type": "Feature", "geometry": {"type": "Point", "coordinates": [13.36642, 52.49679]}, "properties": {"id": "6479789902", "name": "American Church in Berlin", "street": "Bülowstraße 71-72", "zip-code": 10783, "lat": 52.49679, "lon": 13.36642, "planning-area-id": 7100205}}, {"type": "Feature", "geometry": {"type": "Point", "coordinates": [13.33109, 52.56753]}, "properties": {"id": "6501792288", "name": "Sikh tempel", "lat": 52.56753, "lon": 13.33109, "planning-area-id": 12100205}}, {"type": "Feature", "geometry": {"type": "Point", "coordinates": [13.25895, 52.51365]}, "properties": {"id": "6573713854", "name": "Kirche Mariae Verkündigung", "lat": 52.51365, "lon": 13.25895, "planning-area-id": 4200309}}, {"type": "Feature", "geometry": {"type": "Point", "coordinates": [13.44609, 52.56935]}, "properties": {"id": "6587735838", "name": "Wat Buddhavihara Berlin", "lat": 52.56935, "lon": 13.44609, "planning-area-id": 3300516}}, {"type": "Feature", "geometry": {"type": "Point", "coordinates": [13.36988, 52.54985]}, "properties": {"id": "6609901764", "name": "Zen Zentrum Berlin", "street": "Gottschedstraße 4", "zip-code": 13357, "lat": 52.54985, "lon": 13.36988, "planning-area-id": 1401044}}, {"type": "Feature", "geometry": {"type": "Point", "coordinates": [13.42905, 52.48172]}, "properties": {"id": "6666493460", "name": "Imam Riza Moschee", "street": "Reuterstraße 93", "zip-code": 12053, "lat": 52.48172, "lon": 13.42905, "planning-area-id": 8100206}}, {"type": "Feature", "geometry": {"type": "Point", "coordinates": [13.36239, 52.43414]}, "properties": {"id": "6813621285", "name": "Äthiopisch-Orthodoxe Gemeinde Berlin", "lat": 52.43414, "lon": 13.36239, "planning-area-id": 6200316}}, {"type": "Feature", "geometry": {"type": "Point", "coordinates": [13.44131, 52.47271]}, "properties": {"id": "7239671339", "name": "Evangelische Kirchengemeinde Rixdorf", "street": "Karl-Marx-Straße 197", "lat": 52.47271, "lon": 13.44131, "planning-area-id": 8100416}}, {"type": "Feature", "geometry": {"type": "Point", "coordinates": [13.44274, 52.47594]}, "properties": {"id": "7245424102", "name": "Berlin Mesihin Kilisesi", "street": "Richardstraße 28", "zip-code": 12043, "lat": 52.47594, "lon": 13.44274, "planning-area-id": 8100416}}, {"type": "Feature", "geometry": {"type": "Point", "coordinates": [13.38212, 52.55966]}, "properties": {"id": "7305754087", "name": "Mescidi Aksa Camii", "street": "Soldiner Straße 72", "zip-code": 13359, "lat": 52.55966, "lon": 13.38212, "planning-area-id": 1300730}}, {"type": "Feature", "geometry": {"type": "Point", "coordinates": [13.2978, 52.49568]}, "properties": {"id": "7330188834", "name": "Reset Charlottenburg", "lat": 52.49568, "lon": 13.2978, "planning-area-id": 4500938}}, {"type": "Feature", "geometry": {"type": "Point", "coordinates": [13.38138, 52.56208]}, "properties": {"id": "7548667986", "name": "İmam Cafer Sadık Camii", "street": "Koloniestraße 106", "zip-code": 13359, "lat": 52.56208, "lon": 13.38138, "planning-area-id": 1300731}}, {"type": "Feature", "geometry": {"type": "Point", "coordinates": [13.37023, 52.56435]}, "properties": {"id": "7548668191", "name": "Turgut Alp Camii", "lat": 52.56435, "lon": 13.37023, "planning-area-id": 12100101}}, {"type": "Feature", "geometry": {"type": "Point", "coordinates": [13.3347, 52.47064]}, "properties": {"id": "7554137778", "name": "Happy Science", "street": "Rheinstraße 63", "zip-code": 12159, "lat": 52.47064, "lon": 13.3347, "planning-area-id": 7300618}}, {"type": "Feature", "geometry": {"type": "Point", "coordinates": [13.34444, 52.55446]}, "properties": {"id": "7601365299", "name": "Sülemaniye Camii", "street": "Müllerstraße 119", "zip-code": 13349, "lat": 52.55446, "lon": 13.34444, "planning-area-id": 1400937}}, {"type": "Feature", "geometry": {"type": "Point", "coordinates": [13.32044, 52.47494]}, "properties": {"id": "7695790045", "name": "Zentrum für Meditation und tibetischen Yoga", "street": "Laubacher Straße 21", "zip-code": 14197, "lat": 52.47494, "lon": 13.32044, "planning-area-id": 7300515}}, {"type": "Feature", "geometry": {"type": "Point", "coordinates": [13.34401, 52.4714]}, "properties": {"id": "7747350429", "name": "The Chapel of Prayer Christian Ministry", "lat": 52.4714, "lon": 13.34401, "planning-area-id": 7300619}}, {"type": "Feature", "geometry": {"type": "Point", "coordinates": [13.32215, 52.50904]}, "properties": {"id": "8044529220", "name": "Shiva-Ganesha-Tempel", "lat": 52.50904, "lon": 13.32215, "planning-area-id": 4300624}}, {"type": "Feature", "geometry": {"type": "Point", "coordinates": [13.33621, 52.42935]}, "properties": {"id": "8345888598", "name": "Kreuzkirche Lankwitz", "street": "Zietenstraße 11", "zip-code": 12249, "lat": 52.42935, "lon": 13.33621, "planning-area-id": 6200314}}, {"type": "Feature", "geometry": {"type": "Point", "coordinates": [13.39123, 52.46806]}, "properties": {"id": "8384940144", "name": "ICF Berlin Tempelhof", "street": "Ringbahnstraße 32-34", "zip-code": 12099, "lat": 52.46806, "lon": 13.39123, "planning-area-id": 7400927}}, {"type": "Feature", "geometry": {"type": "Point", "coordinates": [13.16591, 52.52237]}, "properties": {"id": "8435917976", "name": "Evangelische Kirchengemeinde Staaken", "street": "Obstallee 22E", "zip-code": 13593, "lat": 52.52237, "lon": 13.16591, "planning-area-id": 5200527}}, {"type": "Feature", "geometry": {"type": "Point", "coordinates": [13.43944, 52.47899]}, "properties": {"id": "8458615128", "name": "Ditib Berlin Yeni Cami", "street": "Richardstraße 112", "zip-code": 12043, "lat": 52.47899, "lon": 13.43944, "planning-area-id": 8100415}}, {"type": "Feature", "geometry": {"type": "Point", "coordinates": [13.34335, 52.59859]}, "properties": {"id": "8570055807", "name": "Al-Khayr Moschee", "street": "Eichhorster Weg 25", "zip-code": 13435, "lat": 52.59859, "lon": 13.34335, "planning-area-id": 12601134}}, {"type": "Feature", "geometry": {"type": "Point", "coordinates": [13.30238, 52.51423]}, "properties": {"id": "8594871395", "name": "Gemeinde Gierkezeile", "street": "Gierkezeile 13", "zip-code": 10585, "lat": 52.51423, "lon": 13.30238, "planning-area-id": 4300621}}, {"type": "Feature", "geometry": {"type": "Point", "coordinates": [13.29348, 52.58698]}, "properties": {"id": "8739849517", "name": "Tegel Selimiye Camii", "street": "Trettachzeile 7", "zip-code": 13509, "lat": 52.58698, "lon": 13.29348, "planning-area-id": 12500825}}, {"type": "Feature", "geometry": {"type": "Point", "coordinates": [13.39348, 52.38948]}, "properties": {"id": "8786525286", "name": "Evangelische Salem-Gemeinde", "street": "Wünsdorfer Straße 88", "zip-code": 12307, "lat": 52.38948, "lon": 13.39348, "planning-area-id": 7601546}}, {"type": "Feature", "geometry": {"type": "Point", "coordinates": [13.43134, 52.50919]}, "properties": {"id": "8976623075", "name": "Andreas-Kirchsaal", "lat": 52.50919, "lon": 13.43134, "planning-area-id": 2400623}}, {"type": "Feature", "geometry": {"type": "Point", "coordinates": [13.58183, 52.50475]}, "properties": {"id": "9354973732", "name": "Evangelische Freikirche Leuchtturm", "zip-code": 12621, "lat": 52.50475, "lon": 13.58183, "planning-area-id": 10400837}}, {"type": "Feature", "geometry": {"type": "Point", "coordinates": [13.57793, 52.53946]}, "properties": {"id": "9592974541", "lat": 52.53946, "lon": 13.57793, "planning-area-id": 10100316}}, {"type": "Feature", "geometry": {"type": "Point", "coordinates": [13.57774, 52.53947]}, "properties": {"id": "9592974542", "name": "Pura Tri Hita Karana", "lat": 52.53947, "lon": 13.57774, "planning-area-id": 10100316}}, {"type": "Feature", "geometry": {"type": "Point", "coordinates": [13.36719, 52.56802]}, "properties": {"id": "9610861154", "lat": 52.56802, "lon": 13.36719, "planning-area-id": 12100102}}, {"type": "Feature", "geometry": {"type": "Point", "coordinates": [13.43247, 52.48017]}, "properties": {"id": "9689643017", "name": "Buddhismus in Berlin e.V.", "street": "Neckarstraße 12", "zip-code": 12053, "lat": 52.48017, "lon": 13.43247, "planning-area-id": 8100206}}, {"type": "Feature", "geometry": {"type": "Point", "coordinates": [13.31077, 52.46557]}, "properties": {"id": "9794512245", "name": "Gemeinde Christi Breitenbachplatz", "street": "Forststraße 24", "zip-code": 12163, "lat": 52.46557, "lon": 13.31077, "planning-area-id": 6100101}}, {"type": "Feature", "geometry": {"type": "Point", "coordinates": [13.20848, 52.56015]}, "properties": {"id": "10027402644", "name": "Miao Fa Zentrum", "street": "Streitstraße 23", "zip-code": 13587, "lat": 52.56015, "lon": 13.20848, "planning-area-id": 5100104}}, {"type": "Feature", "geometry": {"type": "Point", "coordinates": [13.29076, 52.51927]}, "properties": {"id": "10599872965", "name": "Ensar Camii", "lat": 52.51927, "lon": 13.29076, "planning-area-id": 4300412}}, {"type": "Feature", "geometry": {"type": "Point", "coordinates": [13.33609, 52.58092]}, "properties": {"id": "10863033623", "name": "Berlin Full Gospel Church", "street": "Blunckstraße 14", "zip-code": 13437, "lat": 52.58092, "lon": 13.33609, "planning-area-id": 12500930}}, {"type": "Feature", "geometry": {"type": "Point", "coordinates": [13.28414, 52.51316]}, "properties": {"id": "10863195254", "name": "Centre Chrétien Agape e.V.", "street": "Knobelsdorffstraße 74", "zip-code": 14059, "lat": 52.51316, "lon": 13.28414, "planning-area-id": 4200311}}, {"type": "Feature", "geometry": {"type": "Point", "coordinates": [13.39686, 52.42269]}, "properties": {"id": "11072479451", "street": "Mariendorfer Damm 347", "zip-code": 12107, "lat": 52.42269, "lon": 13.39686, "planning-area-id": 7501134}}, {"type": "Feature", "geometry": {"type": "Point", "coordinates": [13.57125, 52.43741]}, "properties": {"id": "11078106301", "name": "Königreichssaal Jehovas Zeugen", "street": "Grünauer Straße 104", "zip-code": 12557, "lat": 52.43741, "lon": 13.57125, "planning-area-id": 9200819}}, {"type": "Feature", "geometry": {"type": "Point", "coordinates": [13.38391, 52.54985]}, "properties": {"id": "11078119221", "name": "Königreichsaal Jehovas Zeugen", "street": "Hochstraße 3", "zip-code": 13357, "lat": 52.54985, "lon": 13.38391, "planning-area-id": 1300836}}, {"type": "Feature", "geometry": {"type": "Point", "coordinates": [13.4746, 52.60882]}, "properties": {"id": "11078121906", "name": "Königreichssaal Jehovas Zeugen", "street": "Straße 34 3", "zip-code": 13125, "lat": 52.60882, "lon": 13.4746, "planning-area-id": 3300412}}, {"type": "Feature", "geometry": {"type": "Point", "coordinates": [13.46126, 52.56405]}, "properties": {"id": "11214170388", "name": "diekreative", "street": "An der Industriebahn 12", "zip-code": 13088, "lat": 52.56405, "lon": 13.46126, "planning-area-id": 3501037}}, {"type": "Feature", "geometry": {"type": "Point", "coordinates": [13.33945, 52.60122]}, "properties": {"id": "11379293585", "name": "Ev. Felsen-Kirchengemeinde", "street": "Eichhorster Weg 58", "lat": 52.60122, "lon": 13.33945, "planning-area-id": 12601031}}, {"type": "Feature", "geometry": {"type": "Point", "coordinates": [13.20056, 52.54369]}, "properties": {"id": "11618771802", "name": "Josua Gemeinde", "lat": 52.54369, "lon": 13.20056, "planning-area-id": 5100315}}, {"type": "Feature", "geometry": {"type": "Point", "coordinates": [13.57127, 52.5595]}, "properties": {"id": "11633789006", "name": "Evang-luth. Missionsgemeinde Marzahn", "zip-code": 12687, "lat": 52.5595, "lon": 13.57127, "planning-area-id": 10100206}}, {"type": "Feature", "geometry": {"type": "Point", "coordinates": [13.33381, 52.52987]}, "properties": {"id": "11642389897", "name": "Pak Muhammad Jama Moschee Berlin", "lat": 52.52987, "lon": 13.33381, "planning-area-id": 1200519}}, {"type": "Feature", "geometry": {"type": "Point", "coordinates": [13.53409, 52.49455]}, "properties": {"id": "11812277225", "name": "Friedhofskapelle", "lat": 52.49455, "lon": 13.53409, "planning-area-id": 11501340}}, {"type": "Feature", "geometry": {"type": "Point", "coordinates": [13.46488, 52.42994]}, "properties": {"id": "11879120263", "lat": 52.42994, "lon": 13.46488, "planning-area-id": 8401139}}, {"type": "Feature", "geometry": {"type": "Point", "coordinates": [13.41766, 52.52763]}, "properties": {"id": "11981816551", "name": "Kapelle", "lat": 52.52763, "lon": 13.41766, "planning-area-id": 3701659}}, {"type": "Feature", "geometry": {"type": "Point", "coordinates": [13.46989, 52.54886]}, "properties": {"id": "12092147346", "name": "Friedhofskapelle", "street": "Indira-Gandhi-Straße 110", "lat": 52.54886, "lon": 13.46989, "planning-area-id": 3501038}}, {"type": "Feature", "geometry": {"type": "Point", "coordinates": [13.46049, 52.51756]}, "properties": {"id": "12186708351", "name": "Jakob-Gemeinde", "lat": 52.51756, "lon": 13.46049, "planning-area-id": 2500727}}, {"type": "Feature", "geometry": {"type": "Point", "coordinates": [13.54329, 52.40187]}, "properties": {"id": "12186758915", "name": "Projekt A+", "lat": 52.40187, "lon": 13.54329, "planning-area-id": 9300923}}, {"type": "Feature", "geometry": {"type": "Point", "coordinates": [13.35187, 52.52403]}, "properties": {"id": "12369577318", "name": "Mabet Camii - Moschee", "street": "Alt-Moabit 112", "lat": 52.52403, "lon": 13.35187, "planning-area-id": 1200626}}, {"type": "Feature", "geometry": {"type": "Point", "coordinates": [13.36964, 52.54116]}, "properties": {"id": "12426851784", "name": "Syrisch-Orthodoxe Kirche von Antiochien St. Izozoel", "street": "Reinickendorfer Straße 123", "zip-code": 13347, "lat": 52.54116, "lon": 13.36964, "planning-area-id": 1300836}}, {"type": "Feature", "geometry": {"type": "Point", "coordinates": [13.39099, 52.50759]}, "properties": {"id": "12488412438", "name": "Saddleback Berlin", "street": "Zimmerstraße 23", "zip-code": 10969, "lat": 52.50759, "lon": 13.39099, "planning-area-id": 2100102}}, {"type": "Feature", "geometry": {"type": "Point", "coordinates": [13.32652, 52.47888]}, "properties": {"id": "12840337563", "name": "Reset Berlin", "street": "Detmolder Straße 4", "zip-code": 10715, "lat": 52.47888, "lon": 13.32652, "planning-area-id": 4501151}}, {"type": "Feature", "geometry": {"type": "Point", "coordinates": [13.55384, 52.43686]}, "properties": {"id": "13019514472", "name": "Neuapostolische Kirche Berlin-Adlershof", "street": "Handjerystraße 27", "zip-code": 12489, "lat": 52.43686, "lon": 13.55384, "planning-area-id": 9200717}}]}