id,lat,lon,name,street,zip_code,city,planning_area_id
262991419,52.42622,13.74206,"Jugendclub Erkner ""Haus am See""",,,,
266630320,52.51314,13.61206,Buergeramt Mahlsdorf,Hönower Straße 91,12623.0,Berlin,10400938
268915262,52.53100,13.34154,Karame e.V.,Wilhelmshavener Straße 22,10551.0,Berlin,01200520
268915306,52.48888,13.41930,Biberzahn,Jahnstraße 5,10967.0,Berlin,02200212
268915454,52.52388,13.34898,K3 Kiez-Kids-Klub,Kirchstraße 4,10557.0,Berlin,01200626
268916576,52.49570,13.35381,Katholische Pfarrei St. Matthias Schöneberg,Goltzstraße 29,10781.0,Berlin,07100102
268917395,52.50439,13.30967,Schwulenberatung Berlin,Niebuhrstraße 59/60,10629.0,Berlin,04501040
270742541,52.54262,13.37608,Max und Marek,Neue Hochstraße 24,13347.0,Berlin,01300836
302942536,52.55651,13.21923,Medienpoint Spandau,Hugo-Cassirer-Straße 4,13587.0,Berlin,05100104
313200688,52.39242,13.09139,AWO Kulturhaus Babelsberg,,,,
323241391,52.51860,13.42173,WG Solidarität Mitgliedertreff,Schillingstraße 12,,,01100311
352783755,52.54013,13.47887,BFC Dynamo Vereinsheim,,13053.0,Berlin,11200512
395708753,52.56455,13.39633,Evangelische Kirchengemeinde Martin Luther,Pradelstraße 11,13187.0,Berlin,03400721
401864244,52.40153,13.57048,Kulturküche Bohnsdorf,,,,09301025
411724432,52.48714,13.38964,DTK-Wasserturm,,,,02200211
534850918,52.45191,13.53209,Kulturzentrum Schöneweide,Schnellerstraße 81,12439.0,Berlin,09200613
573381068,52.51226,13.47014,einLaden,Weichselstraße 29,10247.0,Berlin,02500832
615607326,52.47980,13.45013,Open Tiny,,,,08100418
637834348,52.45524,13.58286,Cafe/Haus der Jugend Köpenick,,,,09501940
638750039,52.50097,13.46578,Jugendclub E-Lok,Laskerstraße 6-8,10245.0,Berlin,02500835
653797109,52.44773,13.44965,Seniorenfreizeitstätte Bruno-Taut,,,,08200726
660820001,52.54435,13.32734,Schwimm-Club Wedding,,,,01400937
665072785,52.49364,13.43970,Weltraum Kiezladen für nachhaltige Alltagskultur,Ratiborstraße 4,10999.0,Berlin,02300418
687038533,52.51483,13.49077,aufatmen,Schottstraße 2,10365.0,Berlin,11300724
775814877,52.50499,13.40709,Bona Peiser,Oranienstraße 72,10969.0,Berlin,02100104
791236061,52.51393,13.44992,Regenbogenhaus,,,,02400624
799000082,52.49861,13.41655,Aquarium,Skalitzer Straße 6,10999.0,Berlin,02100106
802697252,52.44391,13.31533,BENN Hindenburgdamm,Hindenburgdamm 89,12203.0,Berlin,06300633
803941786,52.51280,13.44981,xHain,Grünberger Straße 16,10243.0,Berlin,02400624
831742345,52.56441,13.09435,Saftladen,,,,
874307702,52.50196,13.41856,Ora 34,Oranienstraße 34,10999.0,Berlin,02300314
876244330,52.50169,13.42140,Naunyn 65,,,,02300314
876249655,52.50101,13.42274,Schokofabrik,Naunynstraße 72,10997.0,Berlin,02300314
930202350,52.46256,13.47079,Jugendtreff TheCorner,Neuköllnische Allee 129,12057.0,Berlin,08100521
990218933,52.47769,13.42407,Stadtteil- & Infoladen Lunte,Weisestraße 53,,,08100102
1092142199,52.49687,13.40781,Statthaus-Böcklerpark,Prinzenstraße 1,10969.0,Berlin,02100106
1172686632,52.51998,13.45086,Beatbox,Mühsamstraße 48,10249.0,Berlin,02400522
1252447304,52.54236,13.35934,Konfliktagentur im Sprengelkiez,Sparrstraße 19,,,01401047
1254190259,52.58743,13.27660,Seniorentreffpunkt Tegel,,,,12200515
1256403115,52.51475,13.44488,Begegnungszentrum INTEGRAL e.V.,,,,02400624
1293994860,52.50626,13.39225,Seniorenfreizeitstätte Charlottenstraße 85,Charlottenstraße 85,10969.0,Berlin,02100102
1307115303,52.46881,13.43026,Nagelneu,Hermannstraße 103,12051.0,Berlin,08100104
1363483913,52.49760,13.37927,KIMBAexpress,,,,02200207
1425304968,52.50156,13.36050,Nachbarschaftshaus,,,,01100103
1445349887,52.42536,13.46219,Gemeinschaftshaus Gropiusstadt,Bat-Yam-Platz 1,12353.0,Berlin,08300935
1471943097,52.54437,13.42496,BGFF,Ahlbecker Straße 17,10437.0,Berlin,03601348
1505584114,52.58410,13.27707,Ruder-Riege Turnverein Waidmannslust,Eisenhammerweg 22-24,13507.0,Berlin,12200515
1524950366,52.48995,13.52131,Kommunale Begegnungsstätte Karlshorst,Hönower Straße 30a,10318.0,Berlin,11501339
1555601455,52.52656,13.42740,Satellit,Weinstraße 11,10249.0,Berlin,02400520
1647185508,52.48237,13.43681,Altes Finanzamt,Schönstedtstraße 7,12043.0,Berlin,08100314
1650642850,52.53923,13.38810,Quartiersmanagement Brunnenviertel - Ackerstraße,Jasmunder Straße 16,13355.0,Berlin,01300835
1654365784,52.53824,13.20582,Gemeindesaal Ev. Kirchengemeinde St. Nikolai,,,,05100316
1681600329,52.52608,13.30575,Nachbarschaftsladen Mierendorffplatz,Mierendorffplatz 19,10589.0,Berlin,04300517
1703460022,52.57204,13.50242,Nachbarschaftshaus im Ostseeviertel,Ribnitzer Straße 1b,13051.0,Berlin,11100307
1707508678,52.44965,13.25553,Kieztreff in der Frisierkunst,Wilskistraße 34,14169.0,Berlin,06400840
1745568158,52.47097,13.43096,FAQ Infoladen,Jonasstraße 40,12053.0,Berlin,08100208
1762943006,52.50575,13.39367,Gloria Event Center,Markgrafenstraße 67,10969.0,Berlin,02100102
1791368627,52.47851,13.42122,Rad und Tat,Schillerpromenade 1,12049.0,Berlin,08100102
1874472286,52.58404,13.27719,Nordberliner Tauchverein,Eisenhammerweg 22,13507.0,Berlin,12200515
1891361728,52.47321,13.30721,InternetTreff Schlange,Schlangenbader Straße 25,14197.0,Berlin,04400833
1915697585,52.49980,13.35500,Mann-O-Meter e.V.,Bülowstraße 106,10783.0,Berlin,07100103
1923424966,52.52890,13.42506,Haus der Demokratie und Menschenrechte,Greifswalder Straße 4,10405.0,Berlin,03701660
1929519705,52.43744,13.37548,Quälgeist,Lankwitzer Straße 42/43,12107.0,Berlin,07501029
1979393516,52.47845,13.42463,H48,Hermannstraße 48,12049.0,Berlin,08100102
1984032061,52.49489,13.50733,Jugendclub Betonoase,,,,11401135
2058457544,52.53232,13.42435,Kaffee Immanet,Immanuelkirchstraße 8/I,10405.0,Berlin,03701659
2061641253,52.53351,13.35982,B-Laden,Lehrter Straße 30,10557.0,Berlin,01200624
2125027803,52.54685,13.36665,Quartiersmanagement Pankstraße,Prinz-Eugen-Straße 1,13347.0,Berlin,01401043
2135948949,52.60632,13.42111,Nachbarschaftszentrum Amtshaus Buchholz,Rosenthaler Weg 32,13127.0,Berlin,03200310
2285840288,52.55949,13.38262,Panke-Haus,Soldiner Straße 76,13359.0,Berlin,01300730
2301610385,52.55167,13.36560,Association des Jeunes Africains et Sympathisants en Allemagne e.V.,,,,01401049
2302170223,52.52392,13.34956,Polizeisportverein Delphin 1889,Kirchstraße 24,10557.0,Berlin,01200626
2349327403,52.51942,13.39449,Collegium Hungaricum Berlin,Dorotheenstraße 12,10117.0,Berlin,01100206
2424240176,52.49297,13.40759,Nachbarschaftshaus Urbanstraße,Urbanstraße 21,10961.0,Berlin,02200210
2453941446,52.50369,13.45667,"Kinderfreizeiteinrichtung ""Die Nische""",Rudolfstraße 14a,10245.0,Berlin,02500835
2466026757,52.51401,13.44987,Phantalisa Mädchentreff,Kadiner Straße 9,10243.0,Berlin,02400624
2477831959,52.53141,13.40802,Stadtteilzentrum Prenzlauer Berg,Fehrbelliner Straße 92,10119.0,Berlin,03701554
2502014632,52.51187,13.33032,Erdreich,Fasanenstraße 1,10623.0,Berlin,04300622
2502014633,52.51094,13.32873,Zwille,Straße des 17. Juni 135,10623.0,Berlin,04300622
2510436000,52.57411,13.49973,WB13,Am Berl 13,13051.0,Berlin,11100307
2510436108,52.57254,13.49994,"KiFaZ ""Leuchtturm""",Am Berl 8,13051.0,Berlin,11100307
2545211461,52.49194,13.35270,Nachbarschafts- und Familienzentrum Kiezoase,Barbarossastraße 65,10781.0,Berlin,07100204
2669875657,52.50955,13.29932,Kinder- und Familienzentrum Schillerstraße,Schillerstraße 61-62,10627.0,Berlin,04300416
2683167189,52.54816,13.36705,Infoladen Scherer 8,Schererstraße 8,13347.0,Berlin,01401043
2725091329,52.52309,13.31715,SpVgg Tiergarten 58,Neues Ufer 2,10553.0,Berlin,01200517
2733888750,52.51628,13.44216,Alte Feuerwache Kulturhaus Friedrichshain,,,,02400624
2742447826,52.52748,13.33491,DPSG Stamm St. Paulus,Oldenburger Straße 47,10551.0,Berlin,01200519
2746781111,52.44950,13.33846,Evangelische Markusgemeinde,Albrechtstraße 81a,12167.0,Berlin,06100205
2752211174,52.55606,13.39206,Lecker Wissen,Grüntaler Straße 72,13359.0,Berlin,01300732
2820325612,52.47727,13.43287,Haus der Begegnung,Morusstraße 18A,12053.0,Berlin,08100207
2820325661,52.47718,13.42920,MaDonna Mädchentreff,Falkstraße 26,12053.0,Berlin,08100207
2820325689,52.47475,13.43519,Kinder- und Jugendzentrum Lessinghöhe,Mittelweg 30,12053.0,Berlin,08100207
2849544101,52.59877,13.34400,Selbsthilfe-Stadtteilzentrum Reinickendorf,,,,12601134
2853431184,52.53886,13.20585,Gemeindebüro Ev. Kirchengemeinde St. Nikolai,,,,05100316
2865553329,52.57024,13.49536,Jugendclub Aublick,Ribnitzer Straße 24,13051.0,Berlin,11100308
2867830669,52.57130,13.21356,,Niederneuendorfer Allee 30,13587.0,Berlin,05100101
2872719794,52.51791,13.16890,Kulturzentrum Staaken,Sandstraße 41,13593.0,Berlin,05200528
2874686039,52.49687,13.36397,Nachbarschaftszentrum Steinmetzstraße,Steinmetzstraße 68,10783.0,Berlin,07100205
2886088366,52.47818,13.52310,Potpourri,Eginhardstraße 9,10318.0,Berlin,11501341
2894923665,52.48294,13.35344,Book Connections,Prinz-Georg-Straße 10,10827.0,Berlin,07200410
2925991302,52.49344,13.39513,Die Epilog e. V.,,,,02200210
2935650706,52.64207,13.28884,Pfadfinder Frohnau,Schönfließer Straße 11B,13465.0,Berlin,12400721
2935674208,52.64223,13.28683,Kinder und Jugendhaus Sonnenschein Haus 1,Gollanczstraße 58,13465.0,Berlin,12400721
2953839038,52.57135,13.34940,Die Arche,Romanshorner Weg 113,13407.0,Berlin,12100205
2960443362,52.42617,13.74272,Future e.V.,Zum Freibad 2,15537.0,Erkner,
2967364834,52.53772,13.28705,Jugendclub Halemweg,Halemweg 18,13627.0,Berlin,04100101
2967436533,52.51864,13.28790,LiSA Interkultureller Mädchentreff,Spandauer Damm 65,14059.0,Berlin,04300413
2968390833,52.49595,13.32549,D3 Mädchentreff,Düsseldorfer Straße 3,10719.0,Berlin,04501045
2968409133,52.49347,13.30693,"Jugend- und Kulturzentrum ""Spirale""",Westfälische Straße 16 A,10709.0,Berlin,04500939
2968412433,52.49488,13.31952,JugendTechnikSchule City - West - Motorwerkstatt,Emser Straße 52,10719.0,Berlin,04501044
2968414034,52.47461,13.30372,In Side Out Kinder- und Jugendzentrum,Rudolf-Mosse-Straße 11,14197.0,Berlin,04400833
2968518334,52.48635,13.28310,Seniorenclub,Herthastraße 25A,14193.0,Berlin,04400726
3021117606,52.53722,13.61887,Stadtteilzentrum Hellersdorf-Ost,Albert-Kuntz-Straße 42,12627.0,Berlin,10200524
3039474305,52.56786,13.72745,Gutshaus Altlandsberg,Krummenseestraße 1,15345.0,Altlandsberg,
3043349524,52.45654,13.40021,top lab,Schätzelbergstraße 1-3,12099.0,Berlin,07400927
3073274852,52.49861,13.44394,Kiezanker 36,Cuvrystraße 13-14,10997.0,Berlin,02300419
3149431449,52.54190,13.35485,Sprengelhaus,Sprengelstraße 15,13353.0,Berlin,01401046
3151470261,52.51309,13.46477,FamoX Familien- und Bildungszentrum,Scharnweberstraße 25,10247.0,Berlin,02500831
3222398571,52.55641,13.21952,Jugendtreff Havelspitze,,,,05100104
3222407468,52.56172,13.20930,Familienzentrum VillaNova,,,,05100103
3240152763,52.51199,13.40403,SeniorenComputerClub Berlin-Mitte,Fischerinsel 10,10179.0,Berlin,01100312
3269393584,52.54435,13.55831,KulturGut Alt-Marzahn,Alt-Marzahn 23,12685.0,Berlin,10100313
3275537568,52.51885,13.45816,Jugendclub Liebig 19,,,,02500727
3426756293,52.44189,13.58234,"Hauptmanns-Klub 103,5",Wendenschloßstraße 103-105,12557.0,Berlin,09401534
3494395181,52.50308,13.41057,Nachbarschaftsakademie Prinzessinnengarten,,,,02100104
3570845410,52.46880,13.32780,Holzklasse,Stubenrauchstraße 73,12161.0,Berlin,07300516
3576749846,52.44400,13.56587,Werner-Sylten-Saal,,,,09200819
3576905957,52.44383,13.56459,Familienzentrum Rudower Straße,,,,09200819
3576905958,52.44380,13.56446,Mehrgenerationenhaus Köpenick,,,,09200819
3633912243,52.43763,13.34493,Nachbarschaftszentrum Lankwitz,Leonorenstraße 85,12247.0,Berlin,06200313
3689275512,52.49144,13.44618,Projekt: Laden,Krüllsstraße 18,12435.0,Berlin,09100101
3722082431,52.47456,13.30371,Familien-Café „Emilie & Rudolf“,Rudolf-Mosse-Straße 11,14197.0,Berlin,04400833
3724606383,52.38147,13.21119,Königreichssaal Zeugen Jehovas,Güterfelder Damm 53,14532.0,Stahnsdorf,
3754876556,52.50779,13.39918,Kinder- und Jugendkulturzentrum,,,,02100103
3758833029,52.52684,13.33233,Club Tiergarten,Turmstraße 71,10551.0,Berlin,01200521
3795203173,52.52783,13.46428,Nachbarschaftstreff „Quatschtrommel“,Erich-Kuttner-Straße 31B,10369.0,Berlin,11300618
3828371639,52.51231,13.32423,EB 104,Straße des 17. Juni 145,10623.0,Berlin,04300622
3901335166,52.53805,13.40531,Freizeithaus am Mauerpark,Schwedter Straße 234,10435.0,Berlin,01100416
3953895252,52.54421,13.41206,FreiRaum,Schönhauser Allee 134a,10437.0,Berlin,03601142
3959782327,52.45992,13.36443,cooperativ Werkraum,Eythstraße 32,12105.0,Berlin,07400822
4003391556,52.36818,13.61832,Club Eichwalde,August-Bebel-Allee 34,15732.0,Eichwalde,
4006983305,52.52364,13.38543,Institutul Cultural Român Berlin,Reinhardtstraße 14,10117.0,Berlin,01100308
4061948096,52.55874,13.37875,Frisbee,Koloniestraße 129,13359.0,Berlin,01300730
4061948099,52.55904,13.37896,Bürgerladen,Koloniestraße 129,13359.0,Berlin,01300730
4061948100,52.55911,13.37900,Jugend Bildungs- und Freizeitzentrum,Koloniestraße 129,13359.0,Berlin,01300730
4062921843,52.47658,13.42048,offline,Lichtenrader Straße 49,12049.0,Berlin,08100102
4066657693,52.51201,13.52583,Falkenburg Lichtenberg,,,,11401033
4066657694,52.51203,13.52549,Orange Flip,,,,11401033
4118519689,52.49616,13.38078,Gemeindehaus Ev. Kirchengemeinde,Wartenburgstraße 7,,,02200208
4123949690,52.50074,13.41824,Mosaik JugendKulturEtage,Adalbertstraße 95a,,,02300314
4124084430,52.48539,13.43463,Forum Naturfreundejugend Berlin,Weichselstraße 13,12045.0,Berlin,08100312
4133751506,52.55201,13.37861,Nachbarschaftsladen Initiative Buttmann 16,Buttmannstraße 16,13357.0,Berlin,01401044
4139471189,52.55324,13.38692,Bereket Kulturgemeinschaft,Bellermannstraße 84,13357.0,Berlin,01300733
4192128590,52.43847,13.27871,Nachbarschaftshaus Wannseebahn,Mörchinger Straße 49,14169.0,Berlin,06300527
4192147089,52.41324,13.26622,Mehrgenerationenhaus Phönix (Mittelhof),Teltower Damm 228,14167.0,Berlin,06300528
4193676998,52.55249,13.37885,Rote Ella,Buttmannstraße 1A,13357.0,Berlin,01401044
4211371287,52.53567,13.26993,Familienzentrum Rohrdamm,Voltastraße 2,13629.0,Berlin,05300841
4223529190,52.51261,13.45083,attac-treff,Grünberger Straße 24,10243.0,Berlin,02400624
4261575764,52.52704,13.39079,Haba Digitalwerkstatt,Linienstraße 121,10115.0,Berlin,01100309
4309104290,52.54260,13.54485,Bürgeramt Marzahn-Hellersdorf,Marzahner Promenade 11,,,10100210
4367410106,52.44294,13.22928,Seniorentagespflegestätte,Limastraße 32,14163.0,Berlin,06400838
4384397295,52.49738,13.39456,Dersim Kulturgemeinde Berlin,Waterloo-Ufer 5-7,10961.0,Berlin,02200210
4403850411,52.39724,13.52913,CVJM Schönefeld,Bohnsdorfer Chaussee 38,12529.0,Schönefeld,
4408842100,52.50386,13.45700,Familienzentrum FUN,Modersohnstraße 46,10245.0,Berlin,02500835
4413733893,52.54748,13.35076,Lebenshilfe Berlin,,,,01400942
4415208386,52.53903,13.60371,LINKEN TREFF,Henny-Porten-Straße 10-12,12627.0,Berlin,10200421
4440236589,52.55091,13.35610,Abdul Hamid,Turiner Straße 41,13347.0,Berlin,01401048
4565595671,52.52104,13.45461,Die Arche,Mühsamstraße 74,10249.0,Berlin,02500726
4672096216,52.52893,13.33297,Offenes Wohnzimmer,Waldenserstraße 13,10551.0,Berlin,01200519
4755868012,52.52603,13.57272,Kinder- und Jugendhaus an der Wuhle,,,,10300732
4788813848,52.53132,13.33621,exPEERt Jugendhilfe gGmbH,,,,01200519
4821083847,52.51130,13.46596,Synergetik,Jungstraße 26,10247.0,,02500831
4841807515,52.56583,13.40032,JUP e.V.,Florastraße 84,13187.0,Berlin,03400721
4870100553,52.51065,13.41570,dialog 101,Köpenicker Straße 101,10179.0,Berlin,01100312
4901529234,52.39415,13.09314,Sproezl Babelsberg,Karl-Liebknecht-Straße 23,14482.0,Potsdam,
4910789091,52.54191,13.39623,Kinder- und Jugendbereich im Olof-Palme-Zentrum,Demminer Straße 28,13355.0,Berlin,01300834
4910789092,52.54187,13.39607,Nachbarschaftstreff im Olof-Palme-Zentrum,Demminer Straße 28,13355.0,Berlin,01300834
4937393975,52.50823,13.49611,Abteilung-für-Redundanz-Abteilung,Margaretenstraße 30,10317.0,Berlin,11400929
4948142722,52.51607,13.26280,Cantate Kinder-und Jugendchor,Ratzeburger Allee 4,,,04200308
4995422412,52.49839,13.31453,Schachschule,Bayerische Straße 32,10707.0,Berlin,04501043
4998526566,52.48874,13.41250,GraefeKids,Hasenheide 44,10967.0,Berlin,02200212
5051931215,52.50371,13.42354,Heart of Code,Mariannenplatz 2 A,10997.0,Berlin,02300314
5101437202,52.59859,13.33889,GESOBAU-Familientreff,,,,12601134
5115664021,52.51205,13.49345,Familienbegegnungsstätte Lichtenberger Brücke Berlin,Frankfurter Allee 219,10365.0,Berlin,11300725
5161686114,52.49604,13.26413,Haus Eichkamp,Zikadenweg 42A,14055.0,Berlin,04200207
5176100544,52.52900,13.39113,Evangelische Studierendengemeinde Berlin,Borsigstraße 5,10115.0,Berlin,01100415
5176130920,52.55003,13.40705,Katholische Studierendengemeinde Edith Stein Berlin,Dänenstraße 17-18,10439.0,Berlin,03601141
5211079182,52.48352,13.39025,Potse,,,,07400721
5216737648,52.56906,13.36816,Familien- und Bildungszentrum,,,,12100102
5216905596,52.57033,13.37388,Kinder- und Familienzentrum KreativFabrik,,,,12100102
5327404041,52.52811,13.39288,Begegnungsstätte „Mehr Mitte“,Torstraße 190,10115.0,Berlin,01100309
5328117936,52.55099,13.41165,Blaugold,,,,03601141
5406827106,52.50789,13.45386,Drop In,Revaler Straße 99,10245.0,Berlin,02500834
5433698122,52.56335,13.32161,Bosniakische Gemeinde IKRE Berlin e.V.,Meteorstraße 30,13405.0,Berlin,12200411
5457409366,52.52479,13.42757,Schülerladen O-35,Büschingstraße 4,10249.0,Berlin,02400520
5460524479,52.63250,13.49595,Familienzentrum im Bucher Bürgerhaus,Franz-Schmidt-Straße 8-10,13125.0,Berlin,03100103
5477481522,52.52235,13.54510,Bürgerhaus Südspitze,Marchwitzastraße 24-26,12681.0,Berlin,10100312
5503181815,52.52259,13.30129,DorfwerkStadt,,,,04300518
5540916960,52.60516,13.35243,Ribbeckhaus,,13435.0,Berlin,12601134
5541049583,52.60458,13.35422,comX,,,,12601134
5562025232,52.49853,13.36909,MediationsZentrum Berlin,Dennewitzstraße 34,10783.0,Berlin,07100205
5618342957,52.49721,13.45157,Alpha Nova-Kulturwerkstatt,Am Flutgraben 3,12435.0,Berlin,09100101
5638166422,52.52523,13.39927,Kieztreff Koepjohann,Große Hamburger Straße 29,10115.0,Berlin,01100309
5642587147,52.50879,13.46027,WühlischVierzig,Wühlischstraße 40,10245.0,Berlin,02500834
5650394474,52.49966,13.44757,Native Space,Schlesische Straße 30,10997.0,Berlin,02300419
5656522303,52.52495,13.41054,Alex-Treff,Rosa-Luxemburg-Straße 18,10178.0,Berlin,01100310
5656867079,52.54428,13.37236,Das Baumhaus,Gerichtstraße 23,13347.0,Berlin,01300836
5744960563,52.64436,13.29288,Verein für deutsche Schäferhunde,Senheimer Straße 63,13465.0,Berlin,12400721
5744960564,52.64482,13.29280,Nord-Berliner Schützengemeinschaft,Senheimer Straße 65,13465.0,Berlin,12400721
5776480383,52.54809,13.45268,FiPP-Nische & Freiraum,Mahlerstraße 6,13088.0,Berlin,03500936
5776480384,52.55241,13.44964,,Mirbachplatz 2,13086.0,Berlin,03500935
5822983332,52.57085,13.32308,Familienzentrum,,,,12200308
5926476438,52.46527,13.42416,Familienzentrum Vielfalt,Silbersteinstraße 129,12051.0,Berlin,08100105
5942608061,52.49995,13.40963,Kiezstube,Bergfriedstraße 24,10969.0,Berlin,02100105
5943612601,52.50044,13.40573,MehrGenerationenHaus Wassertor 48,Wassertorstraße 48,10969.0,Berlin,02100105
5965706613,52.46390,13.39134,Evangelisches Familienzentrum Tempelhof,Götzstraße 24A,12099.0,Berlin,07400927
5979153480,52.50068,13.41823,Kotti Nachbarschaftsladen,Adalbertstraße 95a,10999.0,Berlin,02300314
5997709682,52.54873,13.20364,Quartiersmanagement Spandauer Neustadt,Lynarstraße 13,13585.0,Berlin,05100314
5999836042,52.53313,13.33974,Schulgarten Moabit,Birkenstraße 35,10551.0,Berlin,01200520
6004791099,52.53297,13.43411,Jugendfreizeiteinrichtung TwentyTwo,Pasteurstraße 22,10407.0,Berlin,03701660
6009480985,52.43900,13.31644,Gutshaus Lichterfelde,Hindenburgdamm 28,12203.0,Berlin,06300630
6009529788,52.51486,13.29398,Interkulturelles Stadtteilzentrum Divan,Nehringstraße 8,14059.0,Berlin,04300413
6009713687,52.45414,13.38237,Nachbarschaftszentrum ufafabrik,Viktoriastraße 13,12105.0,Berlin,07400825
6010004388,52.55387,13.34655,Zukunftshaus Wedding,Müllerstraße 56-58,13349.0,Berlin,01400939
6047114973,52.51375,13.46056,Mieterladen,Kreutzigerstraße 23,10247.0,Berlin,02500830
6047505886,52.49155,13.42507,elele Nachbarschaftszentrum,Hobrechtstraße 55,12047.0,Berlin,08100310
6051508136,52.50160,13.49553,Piekfeiner Laden,,,,11400929
6053037463,52.48521,13.37194,HaiWays,,,,07200414
6121262957,52.49904,13.47991,,,,,11501238
6123185385,52.56495,13.50549,360 Grad – Raum für Kreativität,Prerower Platz 10,13051.0,,11100307
6170802013,52.50255,13.49145,Der Anker,,,,11400929
6220403128,52.58379,13.22567,Conrads,,,,12400616
6268474916,52.53241,13.42580,Ludothek,Immanuelkirchstraße 24,10405.0,Berlin,03701659
6274128110,52.51007,13.32556,Freiraum - Veranstaltungssaal,Hardenbergstraße 35,10623.0,Berlin,04300622
6278664678,52.56863,13.41388,Garage Pankow,Hadlichstraße 3,13187.0,Berlin,03400723
6278761424,52.37744,13.09766,Jugendclub Alpha,Schilfhof 28,14478.0,Potsdam,
6286848277,52.39986,13.53395,Adlershofer Füchse,Kirschweg 23,12524.0,Berlin,09300923
6345559414,52.46349,13.51406,Familienschutzwerk,Edisonstraße 14,12459.0,Berlin,09200511
6354892103,52.52229,13.33413,Dünja,Jagowstraße 12,10555.0,Berlin,01200522
6371252634,52.56664,13.51938,Begegnungsstätte Warnitzer Bogen,Warnitzer Straße 8,13057.0,Berlin,11100204
6371252637,52.56728,13.51880,Benn Hohenschönhausen Nord,Warnitzer Straße 14,13057.0,Berlin,11100204
6388113367,52.45551,13.62619,Spielhaus,Bölschestraße 65,12587.0,Berlin,09501737
6392594782,52.41797,13.14810,Jugendfreizeitheim Wannsee,,,,06400735
6401896135,52.50281,13.41409,Bilgisaray,Oranienstraße 45,,,02100104
6403695527,52.49470,13.50726,Berliner Familienfreunde e.V.,,,,11401135
6443850889,52.53630,13.26624,Stadtteilzentrum Siemensstadt,Wattstraße 13,13629.0,Berlin,05300841
6443877419,52.53799,13.26553,Schülerhaus Schule an der Jungfernheide,Jugendweg 15,13629.0,Berlin,05300841
6448302624,52.53595,13.26604,CharlotteTreff Siemensstadt,Wattstraße 14,13629.0,Berlin,05300841
6482938222,52.40306,13.52619,Kiezladen der Möglichkeiten - WAMA,Ortolfstraße 206 B,12524.0,Berlin,09300922
6488130826,52.50906,13.42433,WikiBär,Köpenicker Straße 45,,Berlin,01100313
6503739857,52.54292,13.42138,Kiezladen Zusammenhalt,Dunckerstraße 14,10437.0,Berlin,03601348
6545113859,52.52339,13.44874,Braufreunde Berlin,Petersburger Straße 30,10249.0,Berlin,02400522
6594012779,52.43941,13.34396,Spiel & Action,Leonorenstraße 65,12247.0,Berlin,06200313
6656962856,52.51796,13.26756,Ulme 35,Ulmenallee 35,14050.0,Berlin,04200308
6750045986,52.54367,13.49712,Bürgertreff Gemeinsam im Kiez leben,Schöneicher Straße 10a,13055.0,Berlin,11200513
6792898530,52.45469,13.57939,Rabenhaus,Puchanstraße 9,12555.0,Berlin,09501940
6792931312,52.41576,13.57806,BürgerZentrum Grünau,Wassersportallee 34,12527.0,Berlin,09301126
6815504528,52.48773,13.36199,diffrakt | zentrum für theoretische peripherie,Crellestraße 22,10827.0,Berlin,07200411
6873175597,52.50043,13.36193,Village.Berlin,Kurfürstenstraße 31-32,10785.0,Berlin,01100103
7016493154,52.53451,13.44405,SelbstHilfeInitiative Alleinerziehender,Rudolf-Schwarz-Straße 31,10407.0,Berlin,03601451
7040641834,52.49005,13.42655,HOPE Seniorenzentrum,Hobrechtstraße 23,12047.0,Berlin,08100311
7040812121,52.48804,13.36051,Stadtteilverein Schöneberg,,,,07200411
7044489003,52.54819,13.35282,Dock Nord,Genter Straße 56,13353.0,Berlin,01400942
7046289200,52.51113,13.45157,Stadtteilbüro Friedrichshain,Warschauer Straße 23,10243.0,Berlin,02400624
7051810628,52.48387,13.38857,CityLab Berlin,Platz der Luftbrücke 4,12101.0,Berlin,07400721
7093538188,52.47936,13.35019,Flipperklub,,,,07200308
7115476085,52.48616,13.35871,Neuraum,Herbertstraße 11,10827.0,Berlin,07200410
7137165620,52.55177,13.33801,Kiezhaus Agnes Reinhold,Afrikanische Straße 74,13351.0,Berlin,01400937
7166369049,52.53769,13.28738,Stadtteilzentrum Charlottenburg-Nord,Halemweg 18,13627.0,Berlin,04100101
7183484798,52.48252,13.43124,Studio 58,Karl-Marx-Straße 58,12043.0,Berlin,08100206
7217344299,52.48989,13.42493,Rückenwind,Lenaustraße 3,12047.0,Berlin,08100311
7272758325,52.54319,13.42165,Popel Bühne,Dunckerstraße 16,10437.0,Berlin,03601348
7274596652,52.54367,13.42156,Herbstlaube,Dunckerstraße 76,10437.0,Berlin,03601347
7280475195,52.54660,13.42047,SportJugendZentrum Lychi,Lychener Straße 75,10437.0,Berlin,03601347
7360170359,52.42573,13.31607,Kommunikationszentrum,Ostpreußendamm 52,12207.0,Berlin,06200421
7376750797,52.48897,13.40072,Schülerladen Knalltüten,Bergmannstraße 67,10961.0,Berlin,02200211
7426914624,52.54713,13.39143,TimeOut,Putbusser Straße 28,13355.0,Berlin,01300834
7528948673,52.48624,13.36766,Interkulturelles Haus Schöneberg,Geßlerstraße 11,10829.0,Berlin,07200414
7618474159,52.49598,13.32535,Groß & Klein,Düsseldorfer Straße 3,10719.0,Berlin,04501045
7660539096,52.48359,13.35039,Kinderfreizeiteinrichtung Lassenpark,Hauptstraße 37,10827.0,Berlin,07200409
7688108949,52.51887,13.45563,Das Haus,Weidenweg 62,10247.0,Berlin,02500727
7688108957,52.57225,13.56813,Jugendfreizeiteinrichtung UNO,,,,10100102
7690308472,52.5965,13.4263,Das MarmeLädchen,Schönhauser Straße 55,13127.0,Berlin,03200308
7714713086,52.39218,13.08983,Fanprojekt Babelsberg,Rudolf-Breitscheid-Straße 19,14482.0,Potsdam,
7721022118,52.59627,13.35327,Face Familienzentrum,Wilhelmsruher Damm 159,13439.0,Berlin,12601235
7731249038,52.44255,13.55183,Grimau-Club,,,,09200717
7746191787,52.58623,13.36759,Wilhelm gibt keine Ruh,,,,03400619
7747350430,52.47125,13.34448,Kulturetage,Vorarlberger Damm 1,12157.0,Berlin,07300619
7798570855,52.50430,13.32819,Jüdisches Gemeindehaus,,,,04501042
7803281608,52.45437,13.43866,Jugendclub Feuerwache,,,,08200623
7832844330,52.42872,13.73113,Kiezklub Rahnsdorf,Fürstenwalder Allee 362,12589.0,Berlin,09501838
7834977402,52.53093,13.40070,A-Laden,,,,01100416
7886797485,52.55104,13.38789,Kümmelküche,Heidebrinker Straße 10,13357.0,Berlin,01300733
7989989003,52.47149,13.43359,JoJu 23,Jonasstraße 23,12053.0,Berlin,08100208
8072617751,52.46757,13.34385,Rubens Ort für Familien,Rubensstraße 84,12157.0,Berlin,07300619
8118819079,52.47083,13.32802,Zum Guten Hirten,Bundesallee 76a,12161.0,Berlin,07300516
8255919139,52.54794,13.50364,oskar freiwilligenagentur lichtenberg,Hauptstraße 9-9D,13055.0,Berlin,11200411
8257275332,52.44350,13.50227,Kiezklub Rathaus Johannisthal,Sterndamm 102,12487.0,Berlin,09100407
8371142115,52.48065,13.45172,Quartiersmanagement Harzer Kiez,Treptower Straße 23,12059.0,Berlin,08100418
8422865854,52.48775,13.33489,Die schicke Ria,Babelsberger Straße 1,10715.0,Berlin,04501153
8435917975,52.52238,13.16561,Stadtteilzentrum Obstallee,Obstallee 22D,13593.0,Berlin,05200527
8730999914,52.56882,13.37962,Berliner Wasserratten,Granatenstraße 1,13409.0,Berlin,12100102
8796320344,52.46806,13.48387,KIEZKLUB Treptow-Kolleg,Kiefholzstraße 274,12437.0,Berlin,09100304
8796435608,52.44899,13.50796,Quartiersmanagement und Begegnungszentrum Johannisthal,Sterndamm 47,12487.0,Berlin,09100408
8809478391,52.45414,13.32345,DRK Kiezoase,,,,06100207
8845819668,52.41314,13.32782,Nachbarschaftshaus Lilienthal,Schütte-Lanz-Straße 43,12209.0,Berlin,06200423
8891156401,52.40163,13.57114,KIEZKLUB Bohnsdorf,Dahmestraße 33,12526.0,Berlin,09301025
8931210188,52.51506,13.33588,Meerbaumhaus,Siegmunds Hof 20,10555.0,Berlin,01200629
8999104601,52.59615,13.35222,BENN im Märkischen Viertel,Wilhelmsruher Damm 161,13439.0,Berlin,12601235
9052669580,52.47978,13.42374,Nachbarschaftsheim Neukölln,Mahlower Straße 27,,,08100102
9114813718,52.42478,13.46295,Familienzentrum Manna,Lipschitzallee 72,12353.0,Berlin,08300935
9118047010,52.46129,13.54971,orbitall - Raumfahrt im FEZ,,,,09200512
9137924053,52.63262,13.49564,Stadtteilzentrum Buch,,,,03100103
9178072009,52.49491,13.43044,Erreichbar,Reichenberger Straße 63a,,,02300418
9215910820,52.42138,13.53939,FamilienBegegnungsZentrum,Köpenicker Straße 42,12524.0,Berlin,09300920
9243487158,52.54430,13.37245,LebensMittelPunkt,,,,01300836
9243768379,52.52370,13.41899,LebensMittelPunkt,,,,01100310
9359321638,52.50379,13.36323,Nachbarschaftstreff Lützowstraße 27,Lützowstraße 27,10785.0,Berlin,01100103
9359321642,52.42199,13.45719,Kinder- und Jugendclub Wildhüterweg,Wildhüterweg 1,12353.0,Berlin,08200833
9359321644,52.57202,13.43791,Nachbarschaftshaus Alte Apotheke,Romain-Rolland-Straße 112,13089.0,Berlin,03300516
9450525778,52.53716,13.39656,Nachbarschaftszentrum Brunnentreff,Brunnenstraße 145,10115.0,Berlin,01100415
9507984545,52.45735,13.54085,Weiskopff Klub,Weiskopffstraße 14,12459.0,Berlin,09200512
9518513689,52.48918,13.52125,UJZ Karlshorst,Hönower Straße 30,10318.0,Berlin,11501339
9577332704,52.52152,13.40081,Polnisches Institut Berlin,Burgstraße 27,10178.0,Berlin,01100310
9615055690,52.43549,13.58657,Technischer Jugendbildungsverein in Praxis,,,,09401329
9649536394,52.49816,13.43443,CoLab im Görli,Görlitzer Straße 1,10997.0,Berlin,02300418
9723441190,52.48407,13.40558,floating berlin,Lilienthalstraße 32,10965.0,Berlin,02200211
9767155092,52.56586,13.51032,Kinderzirkus CABUWAZI,Wartenberger Straße 175,13053.0,Berlin,11100307
9767955446,52.62119,13.48527,Stadtteilzentrum Der Turm,Busonistraße 136,13125.0,Berlin,03300411
9784587252,52.56069,13.38029,,Koloniestraße 116,13359.0,Berlin,01300731
9792474233,52.49148,13.32214,Estnisches Haus in Berlin,Güntzelstraße 38,10717.0,Berlin,04501147
9831823870,52.51136,13.58699,WandelBAR,,,,10400836
9850418871,52.51236,13.49897,Kieztreff Undine,Hagenstraße 57,10365.0,Berlin,11300725
9873844185,52.51700,13.20348,Sportjugendclub Wildwuchs,Götelstraße 64,13595.0,Berlin,05200634
9879638297,52.44833,13.38222,Machon-Eck,,,,07501030
9879638299,52.45069,13.37898,Himapan Berlin,Rathausstraße 97,12105.0,Berlin,07501030
9901288465,52.47478,13.31071,Lindenkirchengemeinde,,,,04400834
9901349076,52.41673,13.36647,3D Medienhaus,,,,07601237
9901362100,52.41652,13.36715,3D Medienhaus,Domagkstraße 3,12277.0,Berlin,07601237
9917747173,52.44815,13.38589,BENN Mariendorf-Tempelhof,Eisenacher Straße 72,12109.0,Berlin,07501031
9917747174,52.54510,13.55077,BENN Blumberger Damm,Marzahner Promenade 36,12679.0,Berlin,10100210
9917944553,52.62026,13.31310,Seniorenfreizeitstätte Hermsdorf,Berliner Straße 105-107,13467.0,Berlin,12400723
9917944557,52.48715,13.60556,JFE am Hultschi,Hultschiner Damm 140,12623.0,Berlin,10400941
9928884893,52.43919,13.38675,Café Albrecht - Offener Jugendtreff,Friedenstraße 20,12107.0,Berlin,07501133
9961163457,52.51286,13.41242,Kinder- & Jugendzentrum Die OASE,Wallstraße 43,10179.0,Berlin,01100312
9966771336,52.50097,13.49069,SportJugendBildungsZentrum Lücke,Lückstraße 18,10317.0,Berlin,11400928
9969520511,52.46486,13.44218,MischMit,Glasower Straße 67,12051.0,Berlin,08100209
10049074180,52.51409,13.40734,Mitmach-Laden,Fischerinsel 1,10179.0,Berlin,01100312
10124204000,52.45470,13.32225,Nachbarschaftsladen Mittelhof,Berlinickestraße 9,,,06100207
10167187888,52.52172,13.58637,Kieztreff Kaulsdorf,Teterower Ring 43,12619.0,Berlin,10200629
10203705184,52.49478,13.38766,Kiezraum,,10961.0,Berlin,02200208
10271036121,52.49657,13.43381,Reforum Space Berlin,Wiener Straße 31,10999.0,Berlin,02300418
10290532629,52.48078,13.43364,Kultur und Solidaritätsverein Rize e.V.,Boddinstraße 63,12053.0,Berlin,08100206
10304833220,52.54814,13.41659,Evangelische Kirchengemeinde Prenzlauer Berg Nord,Gethsemanestraße 9,10437.0,Berlin,03601346
10582795722,52.57745,13.50926,BENN Wartenberg,Schweriner Ring 27,13059.0,Berlin,11100206
10587203434,52.46594,13.33176,Stadtteilzentrum Steglitz,Holsteinische Straße 40-39,,,07300618
10606008451,52.54704,13.45342,Jugendfreizeitstätte Berlin-Weissensee,,,,03500936
10690039994,52.56375,13.41237,Tivolotte,,,,03400826
10748103876,52.49665,13.42552,Jugendhaus Chip,Reichenberger Straße 44-45,10999.0,Berlin,02300417
10780038387,52.52045,13.17575,Mädchentreff Staachelbeeren,Blasewitzer Ring 28,13593.0,Berlin,05200527
10782028833,52.46885,13.45734,Musikfabrik.Berlin,,,,08100521
10978245703,52.48370,13.60265,AWO Stadtteiltreff „Haus der Begegnung” Mahlsdorf Süd,Hultschiner Damm 98,12623.0,Berlin,10400941
11022270676,52.55804,13.38916,Kiez Treff,,,,01300732
11047767185,52.47835,13.44639,Kiezladen Sonnenallee 154,Sonnenallee 154,12059.0,Berlin,08100415
11059487258,52.37418,13.62026,LilaTreff,Bahnhofstraße 75,15732.0,Eichwalde,
11076702545,52.57790,13.33312,BENN Wittenau Süd,Ollenhauerstraße 70,13403.0,Berlin,12100206
11076702559,52.54081,13.38950,Familienzentrum Wattstraße,Wattstraße 16,13355.0,Berlin,01300835
11112622489,52.55251,13.38808,Quartiersmanagement Badstraße,Bellermannstraße 81,13357.0,,01300733
11146201703,52.49496,13.38794,StadtWERKSTATT,,,,02200208
11191636900,52.50978,13.49026,Drugstore,,,,11300826
11244896950,52.52968,13.34551,Treffpunkt LebensTraum,,,,01200625
11244910388,52.53300,13.34790,Stephans - Der Nachbarschaftsladen,Stendaler Straße 9,10559.0,Berlin,01200623
11257213162,52.53246,13.35152,Karada House,Perleberger Straße 59,10559.0,Berlin,01200623
11266701131,52.46546,13.47270,mittendrin,Sonnenallee 319,12057.0,Berlin,08100521
11279352169,52.44124,13.26093,Der Divan,,,,06400841
11379989012,52.42851,13.45574,Ev. Kirchengemeinde in der Gropiusstadt Standort Martin Luther King,Martin-Luther-King-Weg 6,12351.0,Berlin,08300934
11381002618,52.55058,13.36236,Al Mougtaba,,,,01401048
11392494769,52.52961,13.35351,Zilleklub,,,,01200623
11392834385,52.49965,13.36914,Jugendtreff Pohl11,Pohlstraße 11,10785.0,Berlin,01100104
11413509638,52.49317,13.50575,Regenbogenfamilienzentrum Lichtenberg,Dolgenseestraße 21,10319.0,Berlin,11401135
11453939828,52.55296,13.33713,Begegnungsstätte Otawi-Treff,Otawistraße 46,13351.0,Berlin,01400937
11539903167,52.46807,13.34186,Stadtteiltreff Der Nachbar,Cranachstraße 7,12157.0,Berlin,07300619
11553506854,52.55637,13.38614,NachbarschaftsEtage,,,,01300732
11695177499,52.49618,13.30390,Hochmeistersaal,,,,04500939
11813386961,52.48203,13.29139,Hugo-Nehmiz-Saal,Forckenbeckstraße 49,14199.0,Berlin,04400830
11932995617,52.46077,13.38079,Spukvilla,,,,07400824
11975910835,52.52209,13.16972,Jugendzentrum STEIG,,,,05200527
12026718658,52.41903,13.44370,Jugendclub,Mollnerweg 31,12353.0,Berlin,08200833
12076038451,52.51730,13.41983,WBG Solidarität eG,Schillingstraße 30,,,01100311
12078225560,52.44055,13.50536,Jugendzentrum Johannisthal,Winckelmannstraße 56,12487.0,Berlin,09100408
12079007415,52.53386,13.47278,BENN Fennpfuhl,Otto-Marquardt-Straße 6,10369.0,Berlin,11300616
12079007416,52.47848,13.32004,BENN Wilmersdorf,Blissestraße 70,10713.0,Berlin,04501148
12079007417,52.43545,13.25687,Raum für Beteiligung Steglitz-Zehlendorf,Potsdamer Straße 50,14163.0,Berlin,06300526
12079007420,52.55109,13.50992,BENN Alt-Hohenschönhausen,Wartenberger Straße 24,13053.0,Berlin,11200410
12079007422,52.53437,13.55222,BENN Marzahn-Süd,Fichtelbergstraße 7,12685.0,Berlin,10100314
12079007427,52.55879,13.21792,BENN Hakenfelde,Hugo-Cassirer-Straße 43,13587.0,Berlin,05100104
12079007450,52.52333,13.31365,BENN Mierendorffinsel,Quedlinburger Straße 6,10589.0,Berlin,04300518
12168511022,52.47499,13.45316,KOR,Sonnenallee 200,12059.0,Berlin,08100417
12168570600,52.46430,13.44387,Daruma,Karl-Marx-Straße 275,12057.0,Berlin,08100209
12168600798,52.51169,13.42632,IKSK - Institut für Körperforschung und sexuelle Kultur,Holzmarktstraße 25,10243.0,Berlin,02400623
12188656438,52.49874,13.50244,KULTschule Soziokulturelles Stadtteilzentrum Lichtenberg-Mitte,Sewanstraße 43,10319.0,Berlin,11401136
12192722215,52.48348,13.60251,Bürgerstübchen,Hultschiner Damm 94,12623.0,Berlin,10400941
12279537476,52.51859,13.43668,Kleiner Frieder,,,,02400521
12367202480,52.50343,13.45455,Kulturraum Zwinglikirche,,,,02500835
12369502673,52.52637,13.33750,Zentrum Arresalah,Turmstraße 83,,,01200521
12395892398,52.50880,13.4724,Familienzentrum Juli,Gürtelstraße 20,10247.0,Berlin,02500832
12396794880,52.51430,13.44260,Familienzentrum Einhorn,Fredersdorfer Straße 10,10243.0,Berlin,02400624
12459705396,52.55793,13.38526,Kieztreff,Prinzenallee 58,,,01300730
12468943423,52.55793,13.38526,Kieztreff,Prinzenallee 58,,,01300730
12549339208,52.57226,13.39379,Evangelisches Jugend- und Fürsorgewerk,Heinrich-Mann-Straße 29,13156.0,Berlin,03400620
12549459890,52.51566,13.29442,KiezBüro,,,,04300413
12603714044,52.51623,13.46712,Familientreff RIGATONI,,,,02500728
12610567598,52.36633,13.13367,oskar,,,,
12623330434,52.61739,13.31171,Pastor-Ehlers-Haus,,,,12400723
12657186804,52.49379,13.38726,Haus Lebenskunst,Mehringdamm 32-34,10961.0,Berlin,02200208
12714331810,52.44014,13.40224,Familien- und Nachbarschaftstreff Britzer Straße,Britzer Straße 60e,12109.0,Berlin,07501032
12728885601,52.47845,13.44615,Rosa und Karl - Sozialistisches Lokal,Sonnenallee 152,12059.0,,08100415
12768541964,52.42430,13.59018,NachbarschaftsTreff Kietzer Feld,Am Wiesengraben 7A,12557.0,Berlin,09401329
12768541968,52.48577,13.52508,Stadtteilkoordination Lichtenberg-Süd,Gundelfinger Straße 11,10318.0,Berlin,11501339
12842086130,52.47807,13.47200,,,,,09100202
12873854783,52.52215,13.43450,"Leihpunkt ""Frieder""",,,,02400521
12873894203,52.52544,13.42185,Volkssolidarität Stadtteilzentrum Friedrichshain,Pauline-Staegemann-Straße 6,10249.0,Berlin,02400520
12956132310,52.54628,13.36963,Reinickendorfer 25 Sportclub e.V.,Reinickendorfer Straße 25,,,01401044
12966060286,52.54899,13.41072,Helle Panke e.V.,Kopenhagener Straße 9,10437.0,Berlin,03601142
12996973091,52.48503,13.32674,Schoeler Schlösschen,Wilhelmsaue 126,10715.0,Berlin,04501150
13002553297,52.41723,13.49488,Seniorenfreizeitstätte Alt-Rudow,,,,08401243
13008981139,52.55459,13.39250,Kieztreff Jüli 30,Jülicher Straße 30,,,01300733
13018270125,52.42726,13.42882,Waldgarten Britz e.V.,,,,08200729
13089016976,52.45371,13.14370,Kladow Forum,,,,05400943
