{"type": "FeatureCollection", "features": [{"type": "Feature", "geometry": {"type": "Point", "coordinates": [13.4866016, 52.5407412]}, "properties": {"id": "60775323", "name": "Reichenberger Apotheke", "street": "Reichenberger Straße 3", "zip-code": 13055.0, "city": "Berlin", "planning-area-id": 11200513}}, {"type": "Feature", "geometry": {"type": "Point", "coordinates": [13.4696536, 52.5318353]}, "properties": {"id": "60848447", "name": "Castello-Apotheke", "street": "", "zip-code": "", "city": "", "planning-area-id": 11300616}}, {"type": "Feature", "geometry": {"type": "Point", "coordinates": [13.4685134, 52.5275552]}, "properties": {"id": "60852928", "name": "Rosen Apotheke", "street": "Rudolf-Seiffert-Straße 11", "zip-code": 10369.0, "city": "Berlin", "planning-area-id": 11300618}}, {"type": "Feature", "geometry": {"type": "Point", "coordinates": [13.4505704, 52.4893898]}, "properties": {"id": "68437791", "name": "Margareten-Apotheke", "street": "Karl-Kunger-Straße 46", "zip-code": 12435.0, "city": "Berlin", "planning-area-id": 9100101}}, {"type": "Feature", "geometry": {"type": "Point", "coordinates": [13.3959459, 52.5105088]}, "properties": {"id": "69226035", "name": "Leipziger Apotheke", "street": "Leipziger Straße 43", "zip-code": 10117.0, "city": "Berlin", "planning-area-id": 1100207}}, {"type": "Feature", "geometry": {"type": "Point", "coordinates": [13.3190694, 52.4815485]}, "properties": {"id": "76507297", "name": "Preußen-Apotheke", "street": "Paretzer Straße 2", "zip-code": 10713.0, "city": "Berlin", "planning-area-id": 4501148}}, {"type": "Feature", "geometry": {"type": "Point", "coordinates": [13.3314064, 52.4865543]}, "properties": {"id": "76519952", "name": "Bundes-Apotheke", "street": "Bundesallee 177", "zip-code": 10715.0, "city": "Berlin", "planning-area-id": 4501153}}, {"type": "Feature", "geometry": {"type": "Point", "coordinates": [13.4423197, 52.5431994]}, "properties": {"id": "76596388", "name": "Mühlenberg-Apotheke", "street": "Thomas-Mann-Straße 1", "zip-code": 10409.0, "city": "Berlin", "planning-area-id": 3601449}}, {"type": "Feature", "geometry": {"type": "Point", "coordinates": [13.3947881, 52.5071247]}, "properties": {"id": "78244254", "name": "Axels Apotheke", "street": "Rudi-Dutschke-Straße 8", "zip-code": "", "city": "", "planning-area-id": 2100102}}, {"type": "Feature", "geometry": {"type": "Point", "coordinates": [13.3287743, 52.5633045]}, "properties": {"id": "79603436", "name": "Diamant Apotheke", "street": "Kurt-Schumacher-Damm 1-15", "zip-code": 13405.0, "city": "Berlin", "planning-area-id": 12200309}}, {"type": "Feature", "geometry": {"type": "Point", "coordinates": [13.3170343, 52.5668918]}, "properties": {"id": "79606682", "name": "Apotheke am Markt Reinickendorf", "street": "", "zip-code": 13405.0, "city": "Berlin", "planning-area-id": 12200309}}, {"type": "Feature", "geometry": {"type": "Point", "coordinates": [13.3213944, 52.5701291]}, "properties": {"id": "79624638", "name": "Barlach Apotheke", "street": "Auguste-Viktoria-Allee 81", "zip-code": 13403.0, "city": "Berlin", "planning-area-id": 12200309}}, {"type": "Feature", "geometry": {"type": "Point", "coordinates": [13.3289844, 52.4815398]}, "properties": {"id": "79688159", "name": "Park-Apotheke", "street": "Bundesallee 55", "zip-code": 10715.0, "city": "Berlin", "planning-area-id": 4501151}}, {"type": "Feature", "geometry": {"type": "Point", "coordinates": [13.2716035, 52.5104923]}, "properties": {"id": "81362602", "name": "Kranich-Apotheke", "street": "Lindenallee 28", "zip-code": 14050.0, "city": "Berlin", "planning-area-id": 4200310}}, {"type": "Feature", "geometry": {"type": "Point", "coordinates": [13.3841248, 52.5306975]}, "properties": {"id": "87036261", "name": "Nordland Apotheke", "street": "Invalidenstraße 114", "zip-code": 10115.0, "city": "Berlin", "planning-area-id": 1100415}}, {"type": "Feature", "geometry": {"type": "Point", "coordinates": [13.3868843, 52.5117692]}, "properties": {"id": "87040402", "name": "Friedrichstadt Apotheke", "street": "Glinkastraße 4", "zip-code": 10117.0, "city": "Berlin", "planning-area-id": 1100207}}, {"type": "Feature", "geometry": {"type": "Point", "coordinates": [13.4098188, 52.521847]}, "properties": {"id": "89274697", "name": "Panorama Apotheke", "street": "Panoramastraße 1", "zip-code": 10178.0, "city": "Berlin", "planning-area-id": 1100310}}, {"type": "Feature", "geometry": {"type": "Point", "coordinates": [13.4111159, 52.519834]}, "properties": {"id": "89274888", "name": "Bezirksapotheke am Roten Rathaus", "street": "Rathausstraße 5", "zip-code": 10178.0, "city": "Berlin", "planning-area-id": 1100310}}, {"type": "Feature", "geometry": {"type": "Point", "coordinates": [13.4053524, 52.5133809]}, "properties": {"id": "89275182", "name": "Fischerinsel-Apotheke", "street": "Gertraudenstraße 19", "zip-code": 10178.0, "city": "Berlin", "planning-area-id": 1100312}}, {"type": "Feature", "geometry": {"type": "Point", "coordinates": [13.5425973, 52.5268708]}, "properties": {"id": "203469159", "name": "Apotheke am Springpfuhl", "street": "Helene-Weigel-Platz 11", "zip-code": 12681.0, "city": "Berlin", "planning-area-id": 10100312}}, {"type": "Feature", "geometry": {"type": "Point", "coordinates": [13.5421939, 52.5276071]}, "properties": {"id": "203469194", "name": "Poseidon-Apotheke", "street": "Helene-Weigel-Platz 10", "zip-code": 12681.0, "city": "Berlin", "planning-area-id": 10100312}}, {"type": "Feature", "geometry": {"type": "Point", "coordinates": [13.5558118, 52.5204665]}, "properties": {"id": "203474469", "name": "Skarabäus-Apotheke", "street": "Oberfeldstraße 30", "zip-code": 12683.0, "city": "Berlin", "planning-area-id": 10300731}}, {"type": "Feature", "geometry": {"type": "Point", "coordinates": [13.3501221, 52.5264625]}, "properties": {"id": "250195921", "name": "Alte Roland-Apotheke", "street": "Turmstraße 15", "zip-code": 10559.0, "city": "Berlin", "planning-area-id": 1200625}}, {"type": "Feature", "geometry": {"type": "Point", "coordinates": [13.3498263, 52.54973]}, "properties": {"id": "251737915", "name": "Virchow Apotheke", "street": "Seestraße 99", "zip-code": 13353.0, "city": "Berlin", "planning-area-id": 1400938}}, {"type": "Feature", "geometry": {"type": "Point", "coordinates": [13.3218338, 52.5069033]}, "properties": {"id": "254307048", "name": "Wotan Apotheke", "street": "Grolmanstraße 51", "zip-code": 10623.0, "city": "Berlin", "planning-area-id": 4300624}}, {"type": "Feature", "geometry": {"type": "Point", "coordinates": [13.440147, 52.4818892]}, "properties": {"id": "255825174", "name": "Wildenbruch Apotheke", "street": "Sonnenallee 105", "zip-code": 12045.0, "city": "Berlin", "planning-area-id": 8100312}}, {"type": "Feature", "geometry": {"type": "Point", "coordinates": [13.4394937, 52.4803687]}, "properties": {"id": "255825368", "name": "Frühlicht-Apotheke", "street": "Anzengruberstraße 7", "zip-code": 12043.0, "city": "Berlin", "planning-area-id": 8100415}}, {"type": "Feature", "geometry": {"type": "Point", "coordinates": [13.4133047, 52.549263]}, "properties": {"id": "259081139", "name": "Nordring Apotheke", "street": "Schönhauser Allee 118", "zip-code": 10437.0, "city": "Berlin", "planning-area-id": 3601142}}, {"type": "Feature", "geometry": {"type": "Point", "coordinates": [13.4079077, 52.5509103]}, "properties": {"id": "259081143", "name": "Vita Apotheke", "street": "Schivelbeiner Straße 33", "zip-code": 10439.0, "city": "Berlin", "planning-area-id": 3601141}}, {"type": "Feature", "geometry": {"type": "Point", "coordinates": [13.5725477, 52.4123291]}, "properties": {"id": "260865620", "name": "Taut-Apotheke", "street": "", "zip-code": "", "city": "", "planning-area-id": 9301024}}, {"type": "Feature", "geometry": {"type": "Point", "coordinates": [13.456649, 52.4905931]}, "properties": {"id": "261963290", "name": "Grüne Apotheke", "street": "Elsenstraße 111", "zip-code": 12435.0, "city": "Berlin", "planning-area-id": 9100101}}, {"type": "Feature", "geometry": {"type": "Point", "coordinates": [13.4800051, 52.5241575]}, "properties": {"id": "262213475", "name": "Möllendorff-Apotheke", "street": "Möllendorffstraße 47", "zip-code": 10367.0, "city": "Berlin", "planning-area-id": 11300620}}, {"type": "Feature", "geometry": {"type": "Point", "coordinates": [13.5829, 52.517681]}, "properties": {"id": "263699380", "name": "Robinson Apotheke", "street": "Lion-Feuchtwanger-Straße 22", "zip-code": 12619.0, "city": "Berlin", "planning-area-id": 10200629}}, {"type": "Feature", "geometry": {"type": "Point", "coordinates": [13.6121832, 52.5111499]}, "properties": {"id": "266630604", "name": "Georginen-Apotheke", "street": "Treskowstraße 76", "zip-code": 12623.0, "city": "Berlin", "planning-area-id": 10400939}}, {"type": "Feature", "geometry": {"type": "Point", "coordinates": [13.6138214, 52.509361]}, "properties": {"id": "266632232", "name": "Mahlsdorfer Apotheke", "street": "Hönower Straße 54", "zip-code": 12623.0, "city": "Berlin", "planning-area-id": 10400939}}, {"type": "Feature", "geometry": {"type": "Point", "coordinates": [13.592044, 52.5071368]}, "properties": {"id": "266674656", "name": "Neue Medikus Apotheke", "street": "Myslowitzer Straße 49", "zip-code": 12621.0, "city": "Berlin", "planning-area-id": 10400836}}, {"type": "Feature", "geometry": {"type": "Point", "coordinates": [13.4270624, 52.5360082]}, "properties": {"id": "267366952", "name": "Wins-Apotheke", "street": "Winsstraße 45", "zip-code": 10405.0, "city": "Berlin", "planning-area-id": 3701658}}, {"type": "Feature", "geometry": {"type": "Point", "coordinates": [13.1879163, 52.5372848]}, "properties": {"id": "267860831", "name": "Seegefelder-Apotheke", "street": "Seegefelder Straße 63", "zip-code": 13583.0, "city": "Berlin", "planning-area-id": 5100316}}, {"type": "Feature", "geometry": {"type": "Point", "coordinates": [13.3071113, 52.4985391]}, "properties": {"id": "268636979", "name": "Brandenburg-Apotheke", "street": "Brandenburgische Straße 37", "zip-code": 10707.0, "city": "Berlin", "planning-area-id": 4500939}}, {"type": "Feature", "geometry": {"type": "Point", "coordinates": [13.4451781, 52.4789497]}, "properties": {"id": "268726812", "name": "Rosegger-Apotheke", "street": "Sonnenallee 144", "zip-code": 12059.0, "city": "Berlin", "planning-area-id": 8100415}}, {"type": "Feature", "geometry": {"type": "Point", "coordinates": [13.2315014, 52.6128103]}, "properties": {"id": "268844381", "name": "Storchen-Apotheke", "street": "Schulzendorfer Straße 70", "zip-code": 13503.0, "city": "Berlin", "planning-area-id": 12400617}}, {"type": "Feature", "geometry": {"type": "Point", "coordinates": [13.2348292, 52.607565]}, "properties": {"id": "268844523", "name": "Apotheke am Markt", "street": "Bekassinenweg 18", "zip-code": 13503.0, "city": "Berlin", "planning-area-id": 12400619}}, {"type": "Feature", "geometry": {"type": "Point", "coordinates": [13.4134932, 52.4935361]}, "properties": {"id": "268981834", "name": "Grimm-Apotheke", "street": "Grimmstraße 9", "zip-code": 10967.0, "city": "Berlin", "planning-area-id": 2200213}}, {"type": "Feature", "geometry": {"type": "Point", "coordinates": [13.414104, 52.507579]}, "properties": {"id": "269478054", "name": "Apotheke am Engelbecken", "street": "Heinrich-Heine-Straße 15", "zip-code": 10179.0, "city": "Berlin", "planning-area-id": 1100313}}, {"type": "Feature", "geometry": {"type": "Point", "coordinates": [13.2196207, 52.4322633]}, "properties": {"id": "270814718", "name": "Kur-Apotheke", "street": "Spanische Allee 37", "zip-code": 14129.0, "city": "Berlin", "planning-area-id": 6400838}}, {"type": "Feature", "geometry": {"type": "Point", "coordinates": [13.216597, 52.4271388]}, "properties": {"id": "270814721", "name": "Die Dorotheen Apotheke", "street": "Potsdamer Chaussee 80", "zip-code": 14129.0, "city": "Berlin", "planning-area-id": 6400736}}, {"type": "Feature", "geometry": {"type": "Point", "coordinates": [13.7098785, 52.4327628]}, "properties": {"id": "270906159", "name": "Rosen-Apotheke Berlin", "street": "Fürstenwalder Allee 266", "zip-code": 12589.0, "city": "Berlin", "planning-area-id": 9501838}}, {"type": "Feature", "geometry": {"type": "Point", "coordinates": [13.3735976, 52.543989]}, "properties": {"id": "271282692", "name": "Kolberger Apotheke", "street": "Gerichtstraße 18", "zip-code": 13347.0, "city": "Berlin", "planning-area-id": 1300836}}, {"type": "Feature", "geometry": {"type": "Point", "coordinates": [13.1981714, 52.5320913]}, "properties": {"id": "271405514", "name": "Hauptstadt Apotheke", "street": "Klosterstraße 34-35", "zip-code": 13581.0, "city": "Berlin", "planning-area-id": 5200629}}, {"type": "Feature", "geometry": {"type": "Point", "coordinates": [13.2052104, 52.5366282]}, "properties": {"id": "271708716", "name": "Altstadt Apotheke", "street": "", "zip-code": "", "city": "", "planning-area-id": 5100316}}, {"type": "Feature", "geometry": {"type": "Point", "coordinates": [13.2060246, 52.5376866]}, "properties": {"id": "271708914", "name": "Löwen-Apotheke", "street": "", "zip-code": "", "city": "", "planning-area-id": 5100316}}, {"type": "Feature", "geometry": {"type": "Point", "coordinates": [13.2036654, 52.5376635]}, "properties": {"id": "271710934", "name": "Adler-Apotheke", "street": "Carl-Schurz-Straße 39", "zip-code": 13597.0, "city": "Berlin", "planning-area-id": 5100316}}, {"type": "Feature", "geometry": {"type": "Point", "coordinates": [13.2059594, 52.542908]}, "properties": {"id": "271713876", "name": "Apotheke", "street": "", "zip-code": "", "city": "", "planning-area-id": 5100315}}, {"type": "Feature", "geometry": {"type": "Point", "coordinates": [13.1970215, 52.5211632]}, "properties": {"id": "272385616", "name": "Jäger Apotheke", "street": "Adamstraße 3", "zip-code": 13595.0, "city": "Berlin", "planning-area-id": 5200630}}, {"type": "Feature", "geometry": {"type": "Point", "coordinates": [13.1948184, 52.5208942]}, "properties": {"id": "272385919", "name": "Adam Apotheke", "street": "Adamstraße 41", "zip-code": 13595.0, "city": "Berlin", "planning-area-id": 5200630}}, {"type": "Feature", "geometry": {"type": "Point", "coordinates": [13.1971411, 52.5254705]}, "properties": {"id": "272386317", "name": "Pichelsdorf Apotheke", "street": "Pichelsdorfer Straße 120", "zip-code": 13595.0, "city": "Berlin", "planning-area-id": 5200631}}, {"type": "Feature", "geometry": {"type": "Point", "coordinates": [13.4421953, 52.4678648]}, "properties": {"id": "272499930", "name": "Ringbahn-Apotheke", "street": "Karl-Marx-Straße 239", "zip-code": 12055.0, "city": "Berlin", "planning-area-id": 8100209}}, {"type": "Feature", "geometry": {"type": "Point", "coordinates": [13.3939616, 52.4889422]}, "properties": {"id": "272662737", "name": "Kaiser Apotheke", "street": "Bergmannstraße 23", "zip-code": 10961.0, "city": "Berlin", "planning-area-id": 2200211}}, {"type": "Feature", "geometry": {"type": "Point", "coordinates": [13.1956671, 52.5356492]}, "properties": {"id": "273743446", "name": "Apotheke Bahnhof Spandau", "street": "Seegefelder Straße 16", "zip-code": 13597.0, "city": "Berlin", "planning-area-id": 5100316}}, {"type": "Feature", "geometry": {"type": "Point", "coordinates": [13.198061, 52.5217984]}, "properties": {"id": "274864546", "name": "Hansa Apotheke", "street": "", "zip-code": "", "city": "", "planning-area-id": 5200631}}, {"type": "Feature", "geometry": {"type": "Point", "coordinates": [13.6120014, 52.5133802]}, "properties": {"id": "275623282", "name": "gesundleben Apotheke Mahlsdorf", "street": "Hönower Straße 95A", "zip-code": 12623.0, "city": "Berlin", "planning-area-id": 10400938}}, {"type": "Feature", "geometry": {"type": "Point", "coordinates": [13.386715, 52.5236295]}, "properties": {"id": "275887592", "name": "Galenus-Apotheke", "street": "", "zip-code": "", "city": "", "planning-area-id": 1100308}}, {"type": "Feature", "geometry": {"type": "Point", "coordinates": [13.4886389, 52.4671189]}, "properties": {"id": "276145617", "name": "Stern Apotheke", "street": "Baumschulenstraße 96", "zip-code": 12437.0, "city": "Berlin", "planning-area-id": 9100304}}, {"type": "Feature", "geometry": {"type": "Point", "coordinates": [13.1833779, 52.512828]}, "properties": {"id": "276774391", "name": "Marien-Apotheke", "street": "Gatower Straße 85", "zip-code": 13595.0, "city": "Berlin", "planning-area-id": 5200634}}, {"type": "Feature", "geometry": {"type": "Point", "coordinates": [13.3464079, 52.4364093]}, "properties": {"id": "280296894", "name": "Thalia Apotheke", "street": "", "zip-code": "", "city": "", "planning-area-id": 6200313}}, {"type": "Feature", "geometry": {"type": "Point", "coordinates": [13.4686866, 52.517377]}, "properties": {"id": "282744493", "name": "Mirbach", "street": "", "zip-code": "", "city": "", "planning-area-id": 2500728}}, {"type": "Feature", "geometry": {"type": "Point", "coordinates": [13.4648596, 52.5144752]}, "properties": {"id": "282762536", "name": "Löwen-Apotheke", "street": "Frankfurter Allee 52", "zip-code": 10247.0, "city": "Berlin", "planning-area-id": 2500831}}, {"type": "Feature", "geometry": {"type": "Point", "coordinates": [13.526263, 52.4825451]}, "properties": {"id": "282836294", "name": "Treskow-Apotheke", "street": "Ehrenfelsstraße 46", "zip-code": 10318.0, "city": "Berlin", "planning-area-id": 11501340}}, {"type": "Feature", "geometry": {"type": "Point", "coordinates": [13.2094458, 52.5467539]}, "properties": {"id": "283346896", "name": "Uferpalais-Apotheke", "street": "", "zip-code": "", "city": "", "planning-area-id": 5100313}}, {"type": "Feature", "geometry": {"type": "Point", "coordinates": [13.5724583, 52.5678242]}, "properties": {"id": "287852225", "name": "Bärliner Apotheke", "street": "Havemannstraße 24", "zip-code": 12689.0, "city": "Berlin", "planning-area-id": 10100103}}, {"type": "Feature", "geometry": {"type": "Point", "coordinates": [13.4445534, 52.5643537]}, "properties": {"id": "287970707", "name": "Apotheke im Kaufland", "street": "Romain-Rolland-Straße 19", "zip-code": 13089.0, "city": "Berlin", "planning-area-id": 3300516}}, {"type": "Feature", "geometry": {"type": "Point", "coordinates": [13.3997542, 52.4163173]}, "properties": {"id": "291014069", "name": "Tulpen-Apotheke", "street": "Mariendorfer Damm 432", "zip-code": 12107.0, "city": "Berlin", "planning-area-id": 7601442}}, {"type": "Feature", "geometry": {"type": "Point", "coordinates": [13.1871238, 52.5473903]}, "properties": {"id": "291212713", "name": "Atlas-Apotheke", "street": "Falkenseer Chaussee 23", "zip-code": 13583.0, "city": "Berlin", "planning-area-id": 5100210}}, {"type": "Feature", "geometry": {"type": "Point", "coordinates": [13.3209201, 52.4564263]}, "properties": {"id": "291432407", "name": "Kreisel-Apotheke", "street": "Schloßstraße 82", "zip-code": 12165.0, "city": "Berlin", "planning-area-id": 6100102}}, {"type": "Feature", "geometry": {"type": "Point", "coordinates": [13.3351509, 52.5953568]}, "properties": {"id": "292699498", "name": "Birken-Apotheke", "street": "", "zip-code": "", "city": "", "planning-area-id": 12500926}}, {"type": "Feature", "geometry": {"type": "Point", "coordinates": [13.4969744, 52.4997043]}, "properties": {"id": "297410017", "name": "Pharmland-Apotheke", "street": "Sewanstraße 4", "zip-code": 10319.0, "city": "Berlin", "planning-area-id": 11400928}}, {"type": "Feature", "geometry": {"type": "Point", "coordinates": [13.359647, 52.4125676]}, "properties": {"id": "297489806", "name": "Helgoland Apotheke", "street": "", "zip-code": "", "city": "", "planning-area-id": 7601340}}, {"type": "Feature", "geometry": {"type": "Point", "coordinates": [13.3308517, 52.4675849]}, "properties": {"id": "297512115", "name": "Helianthus-Apotheke", "street": "Rheinstraße 27", "zip-code": 12161.0, "city": "Berlin", "planning-area-id": 7300516}}, {"type": "Feature", "geometry": {"type": "Point", "coordinates": [13.3279955, 52.4672318]}, "properties": {"id": "297512117", "name": "Burger Apotheke", "street": "Bundesallee 92", "zip-code": 12161.0, "city": "Berlin", "planning-area-id": 7300516}}, {"type": "Feature", "geometry": {"type": "Point", "coordinates": [13.1424401, 52.5249401]}, "properties": {"id": "304367397", "name": "Glückskind Apotheke", "street": "Heerstraße 560", "zip-code": 13591.0, "city": "Berlin", "planning-area-id": 5200524}}, {"type": "Feature", "geometry": {"type": "Point", "coordinates": [13.3586662, 52.5463569]}, "properties": {"id": "307983960", "name": "Leo Apotheke", "street": "Müllerstraße 152", "zip-code": 13353.0, "city": "Berlin", "planning-area-id": 1400942}}, {"type": "Feature", "geometry": {"type": "Point", "coordinates": [13.5142084, 52.5054076]}, "properties": {"id": "308019535", "name": "Apotheke 24", "street": "", "zip-code": "", "city": "", "planning-area-id": 11401137}}, {"type": "Feature", "geometry": {"type": "Point", "coordinates": [13.3262036, 52.4274299]}, "properties": {"id": "308719063", "name": "Hedwig-Apotheke", "street": "Oberhofer Weg 2", "zip-code": 12209.0, "city": "Berlin", "planning-area-id": 6200422}}, {"type": "Feature", "geometry": {"type": "Point", "coordinates": [13.3289561, 52.4286915]}, "properties": {"id": "308719064", "name": "Gertruden-Apotheke", "street": "Lankwitzer Straße 3", "zip-code": 12209.0, "city": "Berlin", "planning-area-id": 6200422}}, {"type": "Feature", "geometry": {"type": "Point", "coordinates": [13.4194693, 52.4920349]}, "properties": {"id": "310267634", "name": "Lazarus Apotheke", "street": "Dieffenbachstraße 40", "zip-code": 10967.0, "city": "Berlin", "planning-area-id": 2200213}}, {"type": "Feature", "geometry": {"type": "Point", "coordinates": [13.3428141, 52.4801897]}, "properties": {"id": "310377174", "name": "Ahorn Apotheke", "street": "Innsbrucker Straße 25", "zip-code": 10825.0, "city": "Berlin", "planning-area-id": 7200308}}, {"type": "Feature", "geometry": {"type": "Point", "coordinates": [13.5128096, 52.5057922]}, "properties": {"id": "310764887", "name": "Berliner Bär-Apotheke", "street": "", "zip-code": "", "city": "", "planning-area-id": 11400930}}, {"type": "Feature", "geometry": {"type": "Point", "coordinates": [13.3167347, 52.5028212]}, "properties": {"id": "311089081", "name": "M.C. Apotheke", "street": "Schlüterstraße 35", "zip-code": 10629.0, "city": "Berlin", "planning-area-id": 4501041}}, {"type": "Feature", "geometry": {"type": "Point", "coordinates": [13.3978849, 52.4236416]}, "properties": {"id": "312714262", "name": "Tauern-Apotheke", "street": "Albulaweg 29", "zip-code": 12107.0, "city": "Berlin", "planning-area-id": 7501134}}, {"type": "Feature", "geometry": {"type": "Point", "coordinates": [13.2899562, 52.4752159]}, "properties": {"id": "312956048", "name": "Alexandrinen-Apotheke", "street": "Warnemünder Straße 29", "zip-code": 14199.0, "city": "Berlin", "planning-area-id": 4400831}}, {"type": "Feature", "geometry": {"type": "Point", "coordinates": [13.4155075, 52.5667802]}, "properties": {"id": "313173921", "name": "Pankow-Apotheke", "street": "Stubnitzstraße 31", "zip-code": 13189.0, "city": "Berlin", "planning-area-id": 3400830}}, {"type": "Feature", "geometry": {"type": "Point", "coordinates": [13.2924415, 52.4578484]}, "properties": {"id": "313584459", "name": "Apotheke Dahlem-Dorf", "street": "Königin-Luise-Straße 38", "zip-code": 14195.0, "city": "Berlin", "planning-area-id": 6400843}}, {"type": "Feature", "geometry": {"type": "Point", "coordinates": [13.4063535, 52.5355836]}, "properties": {"id": "313933591", "name": "Arkona Apotheke", "street": "Kastanienallee 38", "zip-code": 10119.0, "city": "Berlin", "planning-area-id": 1100416}}, {"type": "Feature", "geometry": {"type": "Point", "coordinates": [13.3110277, 52.5015083]}, "properties": {"id": "314022672", "name": "Insel Apotheke", "street": "Giesebrechtstraße 13", "zip-code": 10629.0, "city": "Berlin", "planning-area-id": 4501040}}, {"type": "Feature", "geometry": {"type": "Point", "coordinates": [13.450092, 52.5235603]}, "properties": {"id": "314051024", "name": "Ahorn Apotheke", "street": "", "zip-code": "", "city": "", "planning-area-id": 2500726}}, {"type": "Feature", "geometry": {"type": "Point", "coordinates": [13.3988143, 52.5351745]}, "properties": {"id": "314752277", "name": "Adonis Apotheke", "street": "Anklamer Straße 39/40", "zip-code": 10115.0, "city": "Berlin", "planning-area-id": 1100416}}, {"type": "Feature", "geometry": {"type": "Point", "coordinates": [13.3849712, 52.4479601]}, "properties": {"id": "315234035", "name": "Preußenapotheke", "street": "Kurfürstenstraße 57", "zip-code": 12105.0, "city": "Berlin", "planning-area-id": 7501030}}, {"type": "Feature", "geometry": {"type": "Point", "coordinates": [13.3447676, 52.4912774]}, "properties": {"id": "315803527", "name": "Regina Apotheke", "street": "Martin-Luther-Straße 58", "zip-code": 10779.0, "city": "Berlin", "planning-area-id": 7200307}}, {"type": "Feature", "geometry": {"type": "Point", "coordinates": [13.3565305, 52.4866004]}, "properties": {"id": "315820338", "name": "Akazien-Apotheke", "street": "Hauptstraße 19", "zip-code": 10827.0, "city": "Berlin", "planning-area-id": 7200409}}, {"type": "Feature", "geometry": {"type": "Point", "coordinates": [13.2973176, 52.497907]}, "properties": {"id": "316533474", "name": "Waage Apotheke", "street": "Kurfürstendamm 142", "zip-code": 10709.0, "city": "Berlin", "planning-area-id": 4500938}}, {"type": "Feature", "geometry": {"type": "Point", "coordinates": [13.3022696, 52.5260065]}, "properties": {"id": "316704530", "name": "Aida Apotheke", "street": "Osnabrücker Straße 4", "zip-code": 10589.0, "city": "Berlin", "planning-area-id": 4300517}}, {"type": "Feature", "geometry": {"type": "Point", "coordinates": [13.4496352, 52.5214676]}, "properties": {"id": "317148496", "name": "Petersburger Apotheke", "street": "Petersburger Platz 3", "zip-code": 10249.0, "city": "Berlin", "planning-area-id": 2400522}}, {"type": "Feature", "geometry": {"type": "Point", "coordinates": [13.319862, 52.4565269]}, "properties": {"id": "317175755", "name": "Albrecht-Apotheke Steglitz", "street": "Schloßstraße 40", "zip-code": 12165.0, "city": "Berlin", "planning-area-id": 6100101}}, {"type": "Feature", "geometry": {"type": "Point", "coordinates": [13.5362695, 52.4332816]}, "properties": {"id": "317552407", "name": "Easy Apotheke", "street": "Rudower Chaussee 12", "zip-code": 12489.0, "city": "Berlin", "planning-area-id": 9200715}}, {"type": "Feature", "geometry": {"type": "Point", "coordinates": [13.5373807, 52.4317485]}, "properties": {"id": "317552408", "name": "Aesculap Apotheke", "street": "Albert-Einstein-Straße 2", "zip-code": 12489.0, "city": "Berlin", "planning-area-id": 9200715}}, {"type": "Feature", "geometry": {"type": "Point", "coordinates": [13.4428803, 52.5174584]}, "properties": {"id": "317614303", "name": "Fräulein Beckers Lieblingsapotheke", "street": "Karl-Marx-Allee 101", "zip-code": 10243.0, "city": "Berlin", "planning-area-id": 2400522}}, {"type": "Feature", "geometry": {"type": "Point", "coordinates": [13.4149448, 52.5267866]}, "properties": {"id": "319092509", "name": "Merlin-Apotheke", "street": "", "zip-code": "", "city": "", "planning-area-id": 1100310}}, {"type": "Feature", "geometry": {"type": "Point", "coordinates": [13.2754707, 52.5361217]}, "properties": {"id": "319494473", "name": "Apotheke im Kaufzentrum", "street": "Siemensdamm 43", "zip-code": 13629.0, "city": "Berlin", "planning-area-id": 5300841}}, {"type": "Feature", "geometry": {"type": "Point", "coordinates": [13.3978184, 52.5274856]}, "properties": {"id": "322151533", "name": "Apotheke am Koppenplatz", "street": "", "zip-code": "", "city": "", "planning-area-id": 1100309}}, {"type": "Feature", "geometry": {"type": "Point", "coordinates": [13.4155159, 52.5189866]}, "properties": {"id": "322490383", "name": "Alexa Apotheke", "street": "Grunerstraße 20", "zip-code": 10179.0, "city": "Berlin", "planning-area-id": 1100311}}, {"type": "Feature", "geometry": {"type": "Point", "coordinates": [13.4107221, 52.5218636]}, "properties": {"id": "322565363", "name": "Neptun Apotheke", "street": "Dircksenstraße 2", "zip-code": 10179.0, "city": "Berlin", "planning-area-id": 1100310}}, {"type": "Feature", "geometry": {"type": "Point", "coordinates": [13.5917073, 52.5207833]}, "properties": {"id": "324023598", "name": "Cecilien-Apotheke", "street": "", "zip-code": 12619.0, "city": "Berlin", "planning-area-id": 10200630}}, {"type": "Feature", "geometry": {"type": "Point", "coordinates": [13.4294411, 52.5178278]}, "properties": {"id": "324363717", "name": "Apotheke am Strausberger Platz", "street": "Strausberger Platz 11-12", "zip-code": 10243.0, "city": "Berlin", "planning-area-id": 2400623}}, {"type": "Feature", "geometry": {"type": "Point", "coordinates": [13.3638844, 52.4130862]}, "properties": {"id": "324789478", "name": "Anker Apotheke", "street": "Alt-Marienfelde 55", "zip-code": 12277.0, "city": "Berlin", "planning-area-id": 7601237}}, {"type": "Feature", "geometry": {"type": "Point", "coordinates": [13.3883155, 52.5031924]}, "properties": {"id": "330966646", "name": "Hölderlin-Apotheke", "street": "Wilhelmstraße 20", "zip-code": 10963.0, "city": "Berlin", "planning-area-id": 2100102}}, {"type": "Feature", "geometry": {"type": "Point", "coordinates": [13.4612497, 52.5088216]}, "properties": {"id": "332555438", "name": "Seume-Apotheke", "street": "Wühlischstraße 20", "zip-code": 10245.0, "city": "Berlin", "planning-area-id": 2500833}}, {"type": "Feature", "geometry": {"type": "Point", "coordinates": [13.4658756, 52.5062364]}, "properties": {"id": "332555440", "name": "Apotheke am Ostkreuz", "street": "Sonntagstraße 12", "zip-code": 10245.0, "city": "Berlin", "planning-area-id": 2500834}}, {"type": "Feature", "geometry": {"type": "Point", "coordinates": [13.3669194, 52.551654]}, "properties": {"id": "332961993", "name": "Apotheke am Nauener Platz", "street": "", "zip-code": "", "city": "", "planning-area-id": 1401049}}, {"type": "Feature", "geometry": {"type": "Point", "coordinates": [13.3686632, 52.5498675]}, "properties": {"id": "332964520", "name": "Dr. Gropler´s Apotheke", "street": "", "zip-code": 13347.0, "city": "", "planning-area-id": 1401044}}, {"type": "Feature", "geometry": {"type": "Point", "coordinates": [13.4258598, 52.4776537]}, "properties": {"id": "333408605", "name": "Werbellin-Apotheke", "street": "Hermannstraße 52", "zip-code": 12049.0, "city": "Berlin", "planning-area-id": 8100102}}, {"type": "Feature", "geometry": {"type": "Point", "coordinates": [13.4229686, 52.4773102]}, "properties": {"id": "333410692", "name": "Apotheke am Herrfurthplatz", "street": "Herrfurthstraße 9", "zip-code": 12049.0, "city": "Berlin", "planning-area-id": 8100102}}, {"type": "Feature", "geometry": {"type": "Point", "coordinates": [13.4058278, 52.5528911]}, "properties": {"id": "333909847", "name": "Driesener Apotheke", "street": "Driesener Straße 19", "zip-code": 10439.0, "city": "Berlin", "planning-area-id": 3601140}}, {"type": "Feature", "geometry": {"type": "Point", "coordinates": [13.3063256, 52.507096]}, "properties": {"id": "336117214", "name": "Grüne Apotheke 62", "street": "Wilmersdorfer Straße 62", "zip-code": 10627.0, "city": "Berlin", "planning-area-id": 4300623}}, {"type": "Feature", "geometry": {"type": "Point", "coordinates": [13.3234474, 52.5068886]}, "properties": {"id": "340129941", "name": "Apotheke Carmer-7", "street": "Carmerstraße 7", "zip-code": 10623.0, "city": "Berlin", "planning-area-id": 4300624}}, {"type": "Feature", "geometry": {"type": "Point", "coordinates": [13.5712888, 52.5433846]}, "properties": {"id": "343784476", "name": "Fasanen-Apotheke", "street": "Blumberger Damm 144", "zip-code": 12685.0, "city": "Berlin", "planning-area-id": 10100316}}, {"type": "Feature", "geometry": {"type": "Point", "coordinates": [13.3374668, 52.4317492]}, "properties": {"id": "347298415", "name": "Seydlitz-Apotheke", "street": "Kaiser-Wilhelm-Straße 30", "zip-code": 12247.0, "city": "Berlin", "planning-area-id": 6200314}}, {"type": "Feature", "geometry": {"type": "Point", "coordinates": [13.2986338, 52.4415204]}, "properties": {"id": "347422942", "name": "Eichen Apotheke", "street": "Drakestraße 29a", "zip-code": 12205.0, "city": "Berlin", "planning-area-id": 6300633}}, {"type": "Feature", "geometry": {"type": "Point", "coordinates": [13.233166, 52.4380311]}, "properties": {"id": "348052909", "name": "Augusta-Apotheke am Mexikoplatz", "street": "Argentinische Allee 1", "zip-code": 14163.0, "city": "Berlin", "planning-area-id": 6400839}}, {"type": "Feature", "geometry": {"type": "Point", "coordinates": [13.3140939, 52.5060889]}, "properties": {"id": "349301668", "name": "Leibniz Apotheke Berlin", "street": "Kantstraße 130b", "zip-code": 10625.0, "city": "Berlin", "planning-area-id": 4300624}}, {"type": "Feature", "geometry": {"type": "Point", "coordinates": [13.3238828, 52.4544874]}, "properties": {"id": "352983796", "name": "Kronen Apotheke", "street": "Schützenstraße 7", "zip-code": 12165.0, "city": "Berlin", "planning-area-id": 6100207}}, {"type": "Feature", "geometry": {"type": "Point", "coordinates": [13.3847889, 52.4845367]}, "properties": {"id": "353744167", "name": "Apotheke am Flughafen", "street": "Manfred-von-Richthofen-Straße 2", "zip-code": 12101.0, "city": "Berlin", "planning-area-id": 7400720}}, {"type": "Feature", "geometry": {"type": "Point", "coordinates": [13.4153133, 52.5495274]}, "properties": {"id": "356807869", "name": "Arcaden Apotheke", "street": "", "zip-code": "", "city": "", "planning-area-id": 3601243}}, {"type": "Feature", "geometry": {"type": "Point", "coordinates": [13.4559559, 52.5014402]}, "properties": {"id": "364363337", "name": "Stralauer Apotheke", "street": "Modersohnstraße 66", "zip-code": 10245.0, "city": "", "planning-area-id": 2500835}}, {"type": "Feature", "geometry": {"type": "Point", "coordinates": [13.3302792, 52.5270388]}, "properties": {"id": "366186442", "name": "Hutten-Apotheke", "street": "Gotzkowskystraße 1", "zip-code": 10555.0, "city": "Berlin", "planning-area-id": 1200521}}, {"type": "Feature", "geometry": {"type": "Point", "coordinates": [13.3343198, 52.5242051]}, "properties": {"id": "366536622", "name": "Jagow-Apotheke", "street": "Jagowstraße 24", "zip-code": 10555.0, "city": "Berlin", "planning-area-id": 1200522}}, {"type": "Feature", "geometry": {"type": "Point", "coordinates": [13.4146196, 52.547683]}, "properties": {"id": "371157962", "name": "Gethsemane-Apotheke", "street": "Stargarder Straße 79", "zip-code": 10437.0, "city": "Berlin", "planning-area-id": 3601346}}, {"type": "Feature", "geometry": {"type": "Point", "coordinates": [13.3879579, 52.5185603]}, "properties": {"id": "380498298", "name": "Dorotheenstadt Apotheke", "street": "Friedrichstraße 151", "zip-code": 10117.0, "city": "Berlin", "planning-area-id": 1100206}}, {"type": "Feature", "geometry": {"type": "Point", "coordinates": [13.3794578, 52.5247199]}, "properties": {"id": "380498345", "name": "MediosApotheke", "street": "Luisenstraße 54/55", "zip-code": 10117.0, "city": "Berlin", "planning-area-id": 1100308}}, {"type": "Feature", "geometry": {"type": "Point", "coordinates": [13.5255932, 52.4590312]}, "properties": {"id": "387491865", "name": "Wilhelminenhof Apotheke", "street": "Wilhelminenhofstraße 51", "zip-code": 12459.0, "city": "Berlin", "planning-area-id": 9200511}}, {"type": "Feature", "geometry": {"type": "Point", "coordinates": [13.2927797, 52.4977192]}, "properties": {"id": "393409421", "name": "easyApotheke", "street": "Kurfürstendamm 110", "zip-code": 10711.0, "city": "Berlin", "planning-area-id": 4500937}}, {"type": "Feature", "geometry": {"type": "Point", "coordinates": [13.2956562, 52.4976209]}, "properties": {"id": "393409422", "name": "Galenus Apotheke", "street": "Kurfürstendamm 139", "zip-code": 10711.0, "city": "Berlin", "planning-area-id": 4500938}}, {"type": "Feature", "geometry": {"type": "Point", "coordinates": [13.4953236, 52.5047368]}, "properties": {"id": "399348493", "name": "Elsen-Apotheke", "street": "Weitlingstraße 73", "zip-code": 10317.0, "city": "Berlin", "planning-area-id": 11400929}}, {"type": "Feature", "geometry": {"type": "Point", "coordinates": [13.4199092, 52.6066817]}, "properties": {"id": "400912055", "name": "Apotheke am Hugenottenplatz", "street": "Hugenottenplatz 1", "zip-code": 13127.0, "city": "Berlin", "planning-area-id": 3200310}}, {"type": "Feature", "geometry": {"type": "Point", "coordinates": [13.2976849, 52.4957099]}, "properties": {"id": "409760015", "name": "Apotheke am Hochmeisterplatz", "street": "", "zip-code": 10709.0, "city": "Berlin", "planning-area-id": 4500938}}, {"type": "Feature", "geometry": {"type": "Point", "coordinates": [13.2069484, 52.5618492]}, "properties": {"id": "409775548", "name": "Engel Apotheke", "street": "Michelstadter Weg 50", "zip-code": 13587.0, "city": "Berlin", "planning-area-id": 5100105}}, {"type": "Feature", "geometry": {"type": "Point", "coordinates": [13.5582606, 52.5053398]}, "properties": {"id": "409925337", "name": "Polimedica-Apotheke", "street": "Elsterwerdaer Platz 1", "zip-code": 12683.0, "city": "", "planning-area-id": 10300733}}, {"type": "Feature", "geometry": {"type": "Point", "coordinates": [13.5795409, 52.4592786]}, "properties": {"id": "409925350", "name": "Apotheke im Gesundheitsforum Köpenick", "street": "Mahlsdorfer Straße 110", "zip-code": 12555.0, "city": "Berlin", "planning-area-id": 9502043}}, {"type": "Feature", "geometry": {"type": "Point", "coordinates": [13.4356179, 52.4941966]}, "properties": {"id": "410135921", "name": "Reichenberger Apotheke", "street": "Reichenberger Straße 110", "zip-code": 10999.0, "city": "Berlin", "planning-area-id": 2300418}}, {"type": "Feature", "geometry": {"type": "Point", "coordinates": [13.5770672, 52.5495695]}, "properties": {"id": "410499179", "name": "Blumberger Apotheke", "street": "Hohensaatener Straße 18", "zip-code": 12679.0, "city": "Berlin", "planning-area-id": 10100207}}, {"type": "Feature", "geometry": {"type": "Point", "coordinates": [13.2082963, 52.5576682]}, "properties": {"id": "411273144", "name": "Askanier Apotheke", "street": "Streitstraße 11-14", "zip-code": 13587.0, "city": "Berlin", "planning-area-id": 5100104}}, {"type": "Feature", "geometry": {"type": "Point", "coordinates": [13.2088093, 52.5621448]}, "properties": {"id": "411273455", "name": "Hakenfelder Apotheke", "street": "Streitstraße 31", "zip-code": 13587.0, "city": "Berlin", "planning-area-id": 5100103}}, {"type": "Feature", "geometry": {"type": "Point", "coordinates": [13.3566766, 52.4860593]}, "properties": {"id": "412408145", "name": "Kaiser Wilhelm Apotheke", "street": "Richard-von-Weizsäcker-Platz 1-2", "zip-code": 10827.0, "city": "Berlin", "planning-area-id": 7200410}}, {"type": "Feature", "geometry": {"type": "Point", "coordinates": [13.4200711, 52.5420046]}, "properties": {"id": "415318053", "name": "Apotheke am Helmholtzplatz", "street": "Raumerstraße 14a", "zip-code": 10437.0, "city": "Berlin", "planning-area-id": 3601347}}, {"type": "Feature", "geometry": {"type": "Point", "coordinates": [13.3083188, 52.5114912]}, "properties": {"id": "416660118", "name": "Apotheke an der Oper", "street": "Bismarckstraße 89", "zip-code": 10627.0, "city": "Berlin", "planning-area-id": 4300621}}, {"type": "Feature", "geometry": {"type": "Point", "coordinates": [13.3055221, 52.5111671]}, "properties": {"id": "416660134", "name": "Minerva-Apotheke", "street": "Wilmersdorfer Straße 135", "zip-code": 10627.0, "city": "Berlin", "planning-area-id": 4300623}}, {"type": "Feature", "geometry": {"type": "Point", "coordinates": [13.3054736, 52.5096216]}, "properties": {"id": "416660138", "name": "Bong-Apotheke", "street": "Wilmersdorfer Straße 46", "zip-code": 10627.0, "city": "Berlin", "planning-area-id": 4300623}}, {"type": "Feature", "geometry": {"type": "Point", "coordinates": [13.3067193, 52.5090254]}, "properties": {"id": "416660142", "name": "Goethe Apotheke", "street": "Goethestraße 40", "zip-code": 10625.0, "city": "Berlin", "planning-area-id": 4300623}}, {"type": "Feature", "geometry": {"type": "Point", "coordinates": [13.3827993, 52.55144]}, "properties": {"id": "419545768", "name": "Herz Apotheke", "street": "Badstraße 57", "zip-code": 13357.0, "city": "Berlin", "planning-area-id": 1300836}}, {"type": "Feature", "geometry": {"type": "Point", "coordinates": [13.4967682, 52.5120353]}, "properties": {"id": "427670055", "name": "Aponeo", "street": "Frankfurter Allee 241", "zip-code": 10365.0, "city": "Berlin", "planning-area-id": 11300725}}, {"type": "Feature", "geometry": {"type": "Point", "coordinates": [13.3157131, 52.4414372]}, "properties": {"id": "428114271", "name": "Central-Apotheke", "street": "Hindenburgdamm 94a", "zip-code": 12203.0, "city": "Berlin", "planning-area-id": 6300633}}, {"type": "Feature", "geometry": {"type": "Point", "coordinates": [13.3150432, 52.4476658]}, "properties": {"id": "428114289", "name": "Laurentius-Apotheke", "street": "Hindenburgdamm 76C", "zip-code": 12203.0, "city": "Berlin", "planning-area-id": 6300633}}, {"type": "Feature", "geometry": {"type": "Point", "coordinates": [13.3050256, 52.5255288]}, "properties": {"id": "428293745", "name": "Apotheke am Mierendorffplatz", "street": "Mierendorffplatz 12-14", "zip-code": 10589.0, "city": "Berlin", "planning-area-id": 4300518}}, {"type": "Feature", "geometry": {"type": "Point", "coordinates": [13.5040553, 52.548636]}, "properties": {"id": "438089365", "name": "Apotheke im Storchenhof", "street": "", "zip-code": "", "city": "", "planning-area-id": 11200411}}, {"type": "Feature", "geometry": {"type": "Point", "coordinates": [13.441201, 52.4706903]}, "properties": {"id": "438098504", "name": "Euro-Apotheke", "street": "Karl-Marx-Straße 214", "zip-code": 12055.0, "city": "Berlin", "planning-area-id": 8100208}}, {"type": "Feature", "geometry": {"type": "Point", "coordinates": [13.624489, 52.4512997]}, "properties": {"id": "439234903", "name": "Kristinen-Apotheke", "street": "", "zip-code": "", "city": "", "planning-area-id": 9501737}}, {"type": "Feature", "geometry": {"type": "Point", "coordinates": [13.6249106, 52.4503297]}, "properties": {"id": "439234905", "name": "Anker-Apotheke", "street": "", "zip-code": "", "city": "", "planning-area-id": 9501737}}, {"type": "Feature", "geometry": {"type": "Point", "coordinates": [13.3912545, 52.499708]}, "properties": {"id": "440322354", "name": "Apotheke am Mehringplatz", "street": "Mehringplatz 12", "zip-code": 10969.0, "city": "Berlin", "planning-area-id": 2100102}}, {"type": "Feature", "geometry": {"type": "Point", "coordinates": [13.4363242, 52.480346]}, "properties": {"id": "440330654", "name": "Dafne Apotheke", "street": "", "zip-code": "", "city": "", "planning-area-id": 8100415}}, {"type": "Feature", "geometry": {"type": "Point", "coordinates": [13.435211, 52.4806677]}, "properties": {"id": "440332220", "name": "Neukölln-Apotheke", "street": "Karl-Marx-Straße 88", "zip-code": 12043.0, "city": "Berlin", "planning-area-id": 8100206}}, {"type": "Feature", "geometry": {"type": "Point", "coordinates": [13.4341084, 52.4814172]}, "properties": {"id": "440333191", "name": "Forum Apotheke", "street": "Karl-Marx-Straße 80", "zip-code": 12043.0, "city": "Berlin", "planning-area-id": 8100206}}, {"type": "Feature", "geometry": {"type": "Point", "coordinates": [13.4266376, 52.4850824]}, "properties": {"id": "440335563", "name": "Libertas Apotheke", "street": "Karl-Marx-Straße 16", "zip-code": 12043.0, "city": "Berlin", "planning-area-id": 8100206}}, {"type": "Feature", "geometry": {"type": "Point", "coordinates": [13.4336999, 52.4810205]}, "properties": {"id": "440337320", "name": "Hadrian Apotheke", "street": "", "zip-code": "", "city": "", "planning-area-id": 8100206}}, {"type": "Feature", "geometry": {"type": "Point", "coordinates": [13.4384935, 52.4773129]}, "properties": {"id": "440338666", "name": "Wilhelm Busch Apotheke", "street": "Karl-Marx-Straße 132", "zip-code": 12043.0, "city": "Berlin", "planning-area-id": 8100207}}, {"type": "Feature", "geometry": {"type": "Point", "coordinates": [13.4405484, 52.4734058]}, "properties": {"id": "440340785", "name": "Bären Apotheke", "street": "Karl-Marx-Straße 188", "zip-code": 12043.0, "city": "Berlin", "planning-area-id": 8100208}}, {"type": "Feature", "geometry": {"type": "Point", "coordinates": [13.4265886, 52.4759595]}, "properties": {"id": "441512663", "name": "Ulrich-Apotheke", "street": "", "zip-code": 12049.0, "city": "Berlin", "planning-area-id": 8100103}}, {"type": "Feature", "geometry": {"type": "Point", "coordinates": [13.4257606, 52.4794042]}, "properties": {"id": "441514950", "name": "Arminius Apotheke", "street": "", "zip-code": "", "city": "", "planning-area-id": 8100206}}, {"type": "Feature", "geometry": {"type": "Point", "coordinates": [13.4631867, 52.4699293]}, "properties": {"id": "441878984", "name": "Sonnenblumen Apotheke", "street": "", "zip-code": "", "city": "", "planning-area-id": 8100520}}, {"type": "Feature", "geometry": {"type": "Point", "coordinates": [13.4496732, 52.4740953]}, "properties": {"id": "441878991", "name": "Hindenburg-Apotheke", "street": "Schudomastraße 46", "zip-code": 12055.0, "city": "Berlin", "planning-area-id": 8100417}}, {"type": "Feature", "geometry": {"type": "Point", "coordinates": [13.3859911, 52.4669292]}, "properties": {"id": "442351144", "name": "Pelikan Apotheke", "street": "Tempelhofer Damm 139", "zip-code": 12099.0, "city": "Berlin", "planning-area-id": 7400927}}, {"type": "Feature", "geometry": {"type": "Point", "coordinates": [13.3844542, 52.4568204]}, "properties": {"id": "442390303", "name": "Hafen-Apotheke", "street": "Tempelhofer Damm 215", "zip-code": 12099.0, "city": "Berlin", "planning-area-id": 7400927}}, {"type": "Feature", "geometry": {"type": "Point", "coordinates": [13.3852622, 52.4466168]}, "properties": {"id": "442393071", "name": "Fortunatus Apotheke", "street": "Mariendorfer Damm 68", "zip-code": 12109.0, "city": "Berlin", "planning-area-id": 7501030}}, {"type": "Feature", "geometry": {"type": "Point", "coordinates": [13.385909, 52.4461252]}, "properties": {"id": "442394335", "name": "Akazien Apotheke", "street": "Mariendorfer Damm 73", "zip-code": 12109.0, "city": "Berlin", "planning-area-id": 7501031}}, {"type": "Feature", "geometry": {"type": "Point", "coordinates": [13.3856432, 52.4451968]}, "properties": {"id": "442394341", "name": "Markt Apotheke", "street": "Mariendorfer Damm 84", "zip-code": 12109.0, "city": "Berlin", "planning-area-id": 7501030}}, {"type": "Feature", "geometry": {"type": "Point", "coordinates": [13.4316536, 52.4665033]}, "properties": {"id": "442705525", "name": "Hermann Apotheke", "street": "Hermannstraße 116", "zip-code": 12051.0, "city": "Berlin", "planning-area-id": 8100105}}, {"type": "Feature", "geometry": {"type": "Point", "coordinates": [13.4336361, 52.4639518]}, "properties": {"id": "443464250", "name": "Glasow-Apotheke", "street": "Hermannstraße 144", "zip-code": 12051.0, "city": "Berlin", "planning-area-id": 8100209}}, {"type": "Feature", "geometry": {"type": "Point", "coordinates": [13.3942991, 52.4919031]}, "properties": {"id": "443604961", "name": "Apotheke zum Goldenen Einhorn", "street": "Gneisenaustraße 92", "zip-code": 10961.0, "city": "Berlin", "planning-area-id": 2200210}}, {"type": "Feature", "geometry": {"type": "Point", "coordinates": [13.2926384, 52.4971815]}, "properties": {"id": "444606367", "name": "Grunewald-Apotheke", "street": "Kurfürstendamm 132", "zip-code": 10711.0, "city": "Berlin", "planning-area-id": 4500938}}, {"type": "Feature", "geometry": {"type": "Point", "coordinates": [13.4372988, 52.4564405]}, "properties": {"id": "445821371", "name": "Orchideen-Apotheke", "street": "", "zip-code": "", "city": "", "planning-area-id": 8200623}}, {"type": "Feature", "geometry": {"type": "Point", "coordinates": [13.438621, 52.4533259]}, "properties": {"id": "445821378", "name": "Luisen-Apotheke", "street": "Britzer Damm 107", "zip-code": 12347.0, "city": "Berlin", "planning-area-id": 8200623}}, {"type": "Feature", "geometry": {"type": "Point", "coordinates": [13.3065427, 52.5001376]}, "properties": {"id": "446759637", "name": "Brillant Apotheke", "street": "Kurfürstendamm 71", "zip-code": 10709.0, "city": "Berlin", "planning-area-id": 4500936}}, {"type": "Feature", "geometry": {"type": "Point", "coordinates": [13.4448618, 52.4997229]}, "properties": {"id": "448591443", "name": "Palmen-Apotheke", "street": "Schlesische Straße 37", "zip-code": 10997.0, "city": "Berlin", "planning-area-id": 2300419}}, {"type": "Feature", "geometry": {"type": "Point", "coordinates": [13.4235773, 52.4901283]}, "properties": {"id": "448811294", "name": "Pasteur-Apotheke", "street": "", "zip-code": 10967.0, "city": "Berlin", "planning-area-id": 2200213}}, {"type": "Feature", "geometry": {"type": "Point", "coordinates": [13.4126429, 52.546825]}, "properties": {"id": "448913486", "name": "Cecilien-Apotheke", "street": "Gaudystraße 1", "zip-code": 10437.0, "city": "Berlin", "planning-area-id": 3601142}}, {"type": "Feature", "geometry": {"type": "Point", "coordinates": [13.4122894, 52.5329218]}, "properties": {"id": "448915579", "name": "Arminius-Apotheke", "street": "Schönhauser Allee 172A", "zip-code": "", "city": "", "planning-area-id": 3701554}}, {"type": "Feature", "geometry": {"type": "Point", "coordinates": [13.4743188, 52.5359237]}, "properties": {"id": "452946886", "name": "Koala-Apotheke", "street": "Weißenseer Weg 36", "zip-code": 13055.0, "city": "Berlin", "planning-area-id": 11200514}}, {"type": "Feature", "geometry": {"type": "Point", "coordinates": [13.2408947, 52.4421581]}, "properties": {"id": "452951395", "name": "Krumme Lanke Apotheke", "street": "Fischerhüttenstraße 64", "zip-code": 14163.0, "city": "Berlin", "planning-area-id": 6400839}}, {"type": "Feature", "geometry": {"type": "Point", "coordinates": [13.4679731, 52.5280106]}, "properties": {"id": "453013649", "name": "Apotheke am Fennpfuhl", "street": "Franz-Jacob-Straße 10", "zip-code": 10369.0, "city": "Berlin", "planning-area-id": 11300618}}, {"type": "Feature", "geometry": {"type": "Point", "coordinates": [13.413785, 52.558703]}, "properties": {"id": "454167250", "name": "Bartels Apotheke", "street": "", "zip-code": "", "city": "", "planning-area-id": 3400827}}, {"type": "Feature", "geometry": {"type": "Point", "coordinates": [13.4033014, 52.569669]}, "properties": {"id": "454216844", "name": "Koala Apotheke", "street": "Breite Straße 20", "zip-code": 13187.0, "city": "Berlin", "planning-area-id": 3400722}}, {"type": "Feature", "geometry": {"type": "Point", "coordinates": [13.4853643, 52.5152094]}, "properties": {"id": "454234943", "name": "Rusche-Apotheke", "street": "Ruschestraße 103", "zip-code": 10365.0, "city": "Berlin", "planning-area-id": 11300724}}, {"type": "Feature", "geometry": {"type": "Point", "coordinates": [13.5094857, 52.452556]}, "properties": {"id": "456388989", "name": "Sterndamm-Apotheke", "street": "Sterndamm 11", "zip-code": 12487.0, "city": "Berlin", "planning-area-id": 9100408}}, {"type": "Feature", "geometry": {"type": "Point", "coordinates": [13.5060772, 52.4458331]}, "properties": {"id": "456389100", "name": "Apotheke Johannisthal", "street": "", "zip-code": "", "city": "", "planning-area-id": 9100408}}, {"type": "Feature", "geometry": {"type": "Point", "coordinates": [13.4588411, 52.4412581]}, "properties": {"id": "456414245", "name": "Pfauen-Apotheke", "street": "", "zip-code": "", "city": "", "planning-area-id": 8401138}}, {"type": "Feature", "geometry": {"type": "Point", "coordinates": [13.4568396, 52.4426146]}, "properties": {"id": "456421034", "name": "Fontane-Apotheke", "street": "", "zip-code": 12351.0, "city": "Berlin", "planning-area-id": 8401138}}, {"type": "Feature", "geometry": {"type": "Point", "coordinates": [13.410343, 52.570789]}, "properties": {"id": "458915641", "name": "Adler Apotheke", "street": "Breite Straße 41", "zip-code": 13187.0, "city": "Berlin", "planning-area-id": 3400723}}, {"type": "Feature", "geometry": {"type": "Point", "coordinates": [13.3686333, 52.5449696]}, "properties": {"id": "459166572", "name": "Zieten Apotheke", "street": "Gerichtstraße 31", "zip-code": 13347.0, "city": "Berlin", "planning-area-id": 1401043}}, {"type": "Feature", "geometry": {"type": "Point", "coordinates": [13.4234937, 52.491228]}, "properties": {"id": "459650830", "name": "Easy Apotheke", "street": "", "zip-code": 10967.0, "city": "Berlin", "planning-area-id": 8100310}}, {"type": "Feature", "geometry": {"type": "Point", "coordinates": [13.4199367, 52.4966636]}, "properties": {"id": "459653935", "name": "Paul-Lincke-Apotheke", "street": "", "zip-code": "", "city": "", "planning-area-id": 2300417}}, {"type": "Feature", "geometry": {"type": "Point", "coordinates": [13.4045453, 52.5816372]}, "properties": {"id": "459673262", "name": "Lavendel Apotheke", "street": "Blankenburger Straße 1", "zip-code": 13156.0, "city": "", "planning-area-id": 3200207}}, {"type": "Feature", "geometry": {"type": "Point", "coordinates": [13.3354795, 52.5595433]}, "properties": {"id": "459785177", "name": "Steinbock-Apotheke", "street": "", "zip-code": "", "city": "", "planning-area-id": 1400937}}, {"type": "Feature", "geometry": {"type": "Point", "coordinates": [13.3608309, 52.545171]}, "properties": {"id": "459799715", "name": "Müller-Apotheke", "street": "Müllerstraße 156C", "zip-code": "", "city": "", "planning-area-id": 1401047}}, {"type": "Feature", "geometry": {"type": "Point", "coordinates": [13.1973279, 52.5241148]}, "properties": {"id": "460523245", "name": "Hohenzollern-Apotheke", "street": "Pichelsdorfer Straße 101", "zip-code": 13595.0, "city": "Berlin", "planning-area-id": 5200630}}, {"type": "Feature", "geometry": {"type": "Point", "coordinates": [13.4406999, 52.5164022]}, "properties": {"id": "461626277", "name": "Europa Apotheke", "street": "Karl-Marx-Allee 90a", "zip-code": 10243.0, "city": "Berlin", "planning-area-id": 2400624}}, {"type": "Feature", "geometry": {"type": "Point", "coordinates": [13.4168547, 52.5721364]}, "properties": {"id": "469201022", "name": "Ahorn Apotheke", "street": "Damerowstraße 7", "zip-code": 13187.0, "city": "Berlin", "planning-area-id": 3400723}}, {"type": "Feature", "geometry": {"type": "Point", "coordinates": [13.3796436, 52.4559146]}, "properties": {"id": "471136927", "name": "Konradin Apotheke", "street": "Friedrich-Karl-Straße 23", "zip-code": 12103.0, "city": "Berlin", "planning-area-id": 7400825}}, {"type": "Feature", "geometry": {"type": "Point", "coordinates": [13.603422, 52.5365149]}, "properties": {"id": "472371488", "name": "VivApotheke in Hellersdorf", "street": "Hellersdorfer Straße 237", "zip-code": 12627.0, "city": "Berlin", "planning-area-id": 10200421}}, {"type": "Feature", "geometry": {"type": "Point", "coordinates": [13.4305501, 52.468338]}, "properties": {"id": "475236781", "name": "Tasmania Apotheke", "street": "Emser Straße 105", "zip-code": 12051.0, "city": "Berlin", "planning-area-id": 8100104}}, {"type": "Feature", "geometry": {"type": "Point", "coordinates": [13.4290863, 52.502178]}, "properties": {"id": "475910087", "name": "Springers Apotheke", "street": "Manteuffelstraße 105", "zip-code": 10997.0, "city": "Berlin", "planning-area-id": 2300315}}, {"type": "Feature", "geometry": {"type": "Point", "coordinates": [13.4660642, 52.4857173]}, "properties": {"id": "476243460", "name": "Luna Apotheke", "street": "Am Treptower Park 40", "zip-code": 12435.0, "city": "Berlin", "planning-area-id": 9100202}}, {"type": "Feature", "geometry": {"type": "Point", "coordinates": [13.5617695, 52.4010732]}, "properties": {"id": "482797544", "name": "Sabelus XXL Apotheke", "street": "Buntzelstraße 117", "zip-code": 12526.0, "city": "Berlin", "planning-area-id": 9301025}}, {"type": "Feature", "geometry": {"type": "Point", "coordinates": [13.3830878, 52.5920493]}, "properties": {"id": "499046359", "name": "Kastanien-Apotheke", "street": "Kastanienallee 37-38", "zip-code": 13158.0, "city": "Berlin", "planning-area-id": 3400618}}, {"type": "Feature", "geometry": {"type": "Point", "coordinates": [13.1456517, 52.4157499]}, "properties": {"id": "499963012", "name": "Stolpe-Apotheke", "street": "Chausseestraße 13", "zip-code": 14109.0, "city": "Berlin", "planning-area-id": 6400735}}, {"type": "Feature", "geometry": {"type": "Point", "coordinates": [13.4857268, 52.4642316]}, "properties": {"id": "502409526", "name": "Baumschulen-Apotheke", "street": "Baumschulenstraße 29-31", "zip-code": 12437.0, "city": "Berlin", "planning-area-id": 9100304}}, {"type": "Feature", "geometry": {"type": "Point", "coordinates": [13.4346685, 52.4845855]}, "properties": {"id": "502558606", "name": "Helios-Apotheke", "street": "", "zip-code": "", "city": "", "planning-area-id": 8100312}}, {"type": "Feature", "geometry": {"type": "Point", "coordinates": [13.3835242, 52.4943559]}, "properties": {"id": "505990860", "name": "Rathaus Apotheke", "street": "Großbeerenstraße 26", "zip-code": 10963.0, "city": "Berlin", "planning-area-id": 2200208}}, {"type": "Feature", "geometry": {"type": "Point", "coordinates": [13.4350711, 52.46018]}, "properties": {"id": "506338850", "name": "farma-plus", "street": "Britzer Damm 30", "zip-code": 12347.0, "city": "Berlin", "planning-area-id": 8200624}}, {"type": "Feature", "geometry": {"type": "Point", "coordinates": [13.2811924, 52.4773766]}, "properties": {"id": "508423804", "name": "hagen apotheke", "street": "Hohenzollerndamm 94", "zip-code": 14199.0, "city": "Berlin", "planning-area-id": 4400727}}, {"type": "Feature", "geometry": {"type": "Point", "coordinates": [13.38514, 52.4609874]}, "properties": {"id": "510624102", "name": "Albrecht-Apotheke", "street": "Tempelhofer Damm 179", "zip-code": 12099.0, "city": "Berlin", "planning-area-id": 7400927}}, {"type": "Feature", "geometry": {"type": "Point", "coordinates": [13.2842663, 52.5898484]}, "properties": {"id": "516609077", "name": "Gorki-Apotheke", "street": "Gorkistraße 3", "zip-code": 13507.0, "city": "Berlin", "planning-area-id": 12200515}}, {"type": "Feature", "geometry": {"type": "Point", "coordinates": [13.2860212, 52.5876355]}, "properties": {"id": "518011179", "name": "Adler-Apotheke", "street": "Berliner Straße 91", "zip-code": 13507.0, "city": "Berlin", "planning-area-id": 12200515}}, {"type": "Feature", "geometry": {"type": "Point", "coordinates": [13.3105177, 52.5120981]}, "properties": {"id": "520518100", "name": "Opernviertel-Apotheke", "street": "Bismarckstraße 30", "zip-code": 10625.0, "city": "Berlin", "planning-area-id": 4300621}}, {"type": "Feature", "geometry": {"type": "Point", "coordinates": [13.3071455, 52.4728776]}, "properties": {"id": "527503229", "name": "Sankt Rochus Apotheke", "street": "Schlangenbader Straße 25", "zip-code": 14197.0, "city": "Berlin", "planning-area-id": 4400833}}, {"type": "Feature", "geometry": {"type": "Point", "coordinates": [13.3146434, 52.4745877]}, "properties": {"id": "527503232", "name": "Rheinland Apotheke", "street": "Spessartstraße 13", "zip-code": 14197.0, "city": "Berlin", "planning-area-id": 4400835}}, {"type": "Feature", "geometry": {"type": "Point", "coordinates": [13.5403651, 52.4195999]}, "properties": {"id": "527873296", "name": "Normannen-Apotheke", "street": "Grünauer Straße 7,8", "zip-code": 12524.0, "city": "Berlin", "planning-area-id": 9300920}}, {"type": "Feature", "geometry": {"type": "Point", "coordinates": [13.5276421, 52.4247473]}, "properties": {"id": "528643412", "name": "Elefanten Apotheke", "street": "", "zip-code": "", "city": "", "planning-area-id": 9300920}}, {"type": "Feature", "geometry": {"type": "Point", "coordinates": [13.5089986, 52.4565863]}, "properties": {"id": "529805424", "name": "Europa-Apotheke", "street": "Schnellerstraße 21", "zip-code": 12439.0, "city": "Berlin", "planning-area-id": 9200613}}, {"type": "Feature", "geometry": {"type": "Point", "coordinates": [13.5758981, 52.4473124]}, "properties": {"id": "530687969", "name": "Sano Apotheke", "street": "", "zip-code": "", "city": "", "planning-area-id": 9401534}}, {"type": "Feature", "geometry": {"type": "Point", "coordinates": [13.2975626, 52.4866689]}, "properties": {"id": "534879643", "name": "Hohenzollerndamm Apotheke", "street": "Hohenzollerndamm 56", "zip-code": 14199.0, "city": "Berlin", "planning-area-id": 4400727}}, {"type": "Feature", "geometry": {"type": "Point", "coordinates": [13.5786266, 52.4581201]}, "properties": {"id": "538057637", "name": "Apotheke im Forum Köpenick", "street": "Bahnhofstraße 33-38", "zip-code": 12555.0, "city": "Berlin", "planning-area-id": 9501939}}, {"type": "Feature", "geometry": {"type": "Point", "coordinates": [13.496335, 52.5181103]}, "properties": {"id": "564123162", "name": "Nibelungen-Apotheke", "street": "Gotlindestraße 49", "zip-code": 10365.0, "city": "Berlin", "planning-area-id": 11300725}}, {"type": "Feature", "geometry": {"type": "Point", "coordinates": [13.2917165, 52.5069259]}, "properties": {"id": "565034840", "name": "Lietzensee-Apotheke", "street": "Neue Kantstraße 7", "zip-code": 14057.0, "city": "Berlin", "planning-area-id": 4300415}}, {"type": "Feature", "geometry": {"type": "Point", "coordinates": [13.288557, 52.5106517]}, "properties": {"id": "565034853", "name": "Columbia Apotheke", "street": "Kaiserdamm 13", "zip-code": 14057.0, "city": "Berlin", "planning-area-id": 4300414}}, {"type": "Feature", "geometry": {"type": "Point", "coordinates": [13.3702571, 52.4215579]}, "properties": {"id": "571800623", "name": "St. Hubertus", "street": "Marienfelder Allee 47", "zip-code": 12277.0, "city": "Berlin", "planning-area-id": 7601237}}, {"type": "Feature", "geometry": {"type": "Point", "coordinates": [13.5073798, 52.499528]}, "properties": {"id": "573452398", "name": "Apotheke in der Volkradstraße", "street": "", "zip-code": "", "city": "", "planning-area-id": 11401136}}, {"type": "Feature", "geometry": {"type": "Point", "coordinates": [13.3891501, 52.5499687]}, "properties": {"id": "576608994", "name": "Center-Apotheke", "street": "", "zip-code": "", "city": "", "planning-area-id": 1300733}}, {"type": "Feature", "geometry": {"type": "Point", "coordinates": [13.384973, 52.5501264]}, "properties": {"id": "581322165", "name": "BadApotheke", "street": "Badstraße 67", "zip-code": 13357.0, "city": "Berlin", "planning-area-id": 1300836}}, {"type": "Feature", "geometry": {"type": "Point", "coordinates": [13.3855631, 52.5503414]}, "properties": {"id": "581322478", "name": "Brunnen Apotheke", "street": "Badstraße 11", "zip-code": 13357.0, "city": "Berlin", "planning-area-id": 1300733}}, {"type": "Feature", "geometry": {"type": "Point", "coordinates": [13.3684082, 52.4193408]}, "properties": {"id": "582854286", "name": "Ursus-Apotheke", "street": "Marienfelder Allee 75", "zip-code": 12277.0, "city": "Berlin", "planning-area-id": 7601237}}, {"type": "Feature", "geometry": {"type": "Point", "coordinates": [13.3954661, 52.386944]}, "properties": {"id": "585143218", "name": "Schwarze Adler Apotheke", "street": "Prinzessinnenstraße 2", "zip-code": 12307.0, "city": "Berlin", "planning-area-id": 7601546}}, {"type": "Feature", "geometry": {"type": "Point", "coordinates": [13.3997371, 52.3868901]}, "properties": {"id": "585144206", "name": "Bahnhof-Apotheke", "street": "Bahnhofstraße 26", "zip-code": 12305.0, "city": "Berlin", "planning-area-id": 7601544}}, {"type": "Feature", "geometry": {"type": "Point", "coordinates": [13.3701655, 52.5420876]}, "properties": {"id": "585473264", "name": "Lessing Apotheke", "street": "Reinickendorfer Straße 12", "zip-code": 13347.0, "city": "Berlin", "planning-area-id": 1300836}}, {"type": "Feature", "geometry": {"type": "Point", "coordinates": [13.404185, 52.3865399]}, "properties": {"id": "588141093", "name": "Linden Apotheke", "street": "Bahnhofstraße 52", "zip-code": 12305.0, "city": "Berlin", "planning-area-id": 7601544}}, {"type": "Feature", "geometry": {"type": "Point", "coordinates": [13.4552918, 52.549429]}, "properties": {"id": "588552725", "name": "Katharinen Apotheke", "street": "", "zip-code": "", "city": "", "planning-area-id": 3500935}}, {"type": "Feature", "geometry": {"type": "Point", "coordinates": [13.4562375, 52.549273]}, "properties": {"id": "588552733", "name": "Medicus Apotheke", "street": "Berliner Allee 82", "zip-code": 13088.0, "city": "Berlin", "planning-area-id": 3500936}}, {"type": "Feature", "geometry": {"type": "Point", "coordinates": [13.4506766, 52.5487495]}, "properties": {"id": "588557536", "name": "Apotheke am Antonplatz", "street": "Langhansstraße 1", "zip-code": 13086.0, "city": "Berlin", "planning-area-id": 3500935}}, {"type": "Feature", "geometry": {"type": "Point", "coordinates": [13.2155816, 52.4386509]}, "properties": {"id": "592122156", "name": "Schlachtensee Apotheke", "street": "Breisgauer Straße 7", "zip-code": 14129.0, "city": "Berlin", "planning-area-id": 6400838}}, {"type": "Feature", "geometry": {"type": "Point", "coordinates": [13.3437222, 52.4352813]}, "properties": {"id": "593781884", "name": "Lankwitz-Apotheke", "street": "Kaiser-Wilhelm-Straße 68", "zip-code": 12247.0, "city": "Berlin", "planning-area-id": 6200313}}, {"type": "Feature", "geometry": {"type": "Point", "coordinates": [13.4032424, 52.5245938]}, "properties": {"id": "595536654", "name": "MediosApotheke Hackescher Markt", "street": "Rosenthaler Straße 46-47", "zip-code": 10178.0, "city": "Berlin", "planning-area-id": 1100309}}, {"type": "Feature", "geometry": {"type": "Point", "coordinates": [13.353572, 52.5492948]}, "properties": {"id": "602531459", "name": "Wedding Apotheke", "street": "Müllerstraße 139", "zip-code": 13353.0, "city": "Berlin", "planning-area-id": 1400942}}, {"type": "Feature", "geometry": {"type": "Point", "coordinates": [13.4238942, 52.4874834]}, "properties": {"id": "604938266", "name": "Apotheke im Karstadt", "street": "", "zip-code": "", "city": "", "planning-area-id": 2200212}}, {"type": "Feature", "geometry": {"type": "Point", "coordinates": [13.4142615, 52.550241]}, "properties": {"id": "608524481", "name": "Prenz’l-Apotheke", "street": "Schönhauser Allee 81", "zip-code": 10439.0, "city": "Berlin", "planning-area-id": 3601243}}, {"type": "Feature", "geometry": {"type": "Point", "coordinates": [13.4536256, 52.4292565]}, "properties": {"id": "609142032", "name": "Elch Apotheke", "street": "Johannisthaler Chaussee 321", "zip-code": "", "city": "", "planning-area-id": 8300934}}, {"type": "Feature", "geometry": {"type": "Point", "coordinates": [13.4570794, 52.42958]}, "properties": {"id": "609146610", "name": "Gropius-Apotheke", "street": "Imbuschweg 40", "zip-code": 12353.0, "city": "Berlin", "planning-area-id": 8300934}}, {"type": "Feature", "geometry": {"type": "Point", "coordinates": [13.4066989, 52.3865161]}, "properties": {"id": "610199208", "name": "Tempelritter-Apotheke", "street": "Bahnhofstraße 60", "zip-code": 12305.0, "city": "Berlin", "planning-area-id": 7601544}}, {"type": "Feature", "geometry": {"type": "Point", "coordinates": [13.4793952, 52.5200009]}, "properties": {"id": "616284708", "name": "Apotheke am Stadtpark", "street": "Möllendorffstraße 88", "zip-code": 10367.0, "city": "Berlin", "planning-area-id": 11300722}}, {"type": "Feature", "geometry": {"type": "Point", "coordinates": [13.4787925, 52.5161624]}, "properties": {"id": "616284712", "name": "Apotheke am Rathaus", "street": "Möllendorffstraße 111", "zip-code": 10367.0, "city": "Berlin", "planning-area-id": 11300722}}, {"type": "Feature", "geometry": {"type": "Point", "coordinates": [13.4477689, 52.4373715]}, "properties": {"id": "621584928", "name": "Gerhart-Hauptmann-Apotheke", "street": "Fritz-Reuter-Allee 181", "zip-code": 12359.0, "city": "Berlin", "planning-area-id": 8200727}}, {"type": "Feature", "geometry": {"type": "Point", "coordinates": [13.3842488, 52.55057]}, "properties": {"id": "627415668", "name": "Gesundbrunnen- Apotheke", "street": "Badstraße 64", "zip-code": 13357.0, "city": "Berlin", "planning-area-id": 1300836}}, {"type": "Feature", "geometry": {"type": "Point", "coordinates": [13.5179566, 52.5136166]}, "properties": {"id": "630214264", "name": "Apotheke an der Rhinstraße", "street": "", "zip-code": "", "city": "", "planning-area-id": 11401032}}, {"type": "Feature", "geometry": {"type": "Point", "coordinates": [13.5198414, 52.5137587]}, "properties": {"id": "630214267", "name": "Bahnhof-Apotheke", "street": "", "zip-code": "", "city": "", "planning-area-id": 11401033}}, {"type": "Feature", "geometry": {"type": "Point", "coordinates": [13.2887685, 52.6331147]}, "properties": {"id": "631755396", "name": "Elch-Apotheke", "street": "Ludolfingerplatz 2", "zip-code": 13465.0, "city": "Berlin", "planning-area-id": 12400720}}, {"type": "Feature", "geometry": {"type": "Point", "coordinates": [13.3208889, 52.412393]}, "properties": {"id": "635821864", "name": "Pantherapotheke", "street": "Scheelestraße 140", "zip-code": 12209.0, "city": "Berlin", "planning-area-id": 6200423}}, {"type": "Feature", "geometry": {"type": "Point", "coordinates": [13.288994, 52.4767049]}, "properties": {"id": "636005023", "name": "Rathaus-Apotheke Schmargendorf", "street": "Berkaer Straße 6", "zip-code": 14199.0, "city": "Berlin", "planning-area-id": 4400830}}, {"type": "Feature", "geometry": {"type": "Point", "coordinates": [13.4957547, 52.5060983]}, "properties": {"id": "638953355", "name": "Weitling-Apotheke", "street": "Weitlingstraße 58", "zip-code": 10317.0, "city": "Berlin", "planning-area-id": 11400929}}, {"type": "Feature", "geometry": {"type": "Point", "coordinates": [13.3923404, 52.5539606]}, "properties": {"id": "644658975", "name": "Jülicher Apotheke", "street": "Jülicher Straße 27", "zip-code": 13357.0, "city": "Berlin", "planning-area-id": 1300733}}, {"type": "Feature", "geometry": {"type": "Point", "coordinates": [13.3357313, 52.5265328]}, "properties": {"id": "645677466", "name": "die Neue Apotheke", "street": "Turmstraße 77", "zip-code": 10551.0, "city": "Berlin", "planning-area-id": 1200521}}, {"type": "Feature", "geometry": {"type": "Point", "coordinates": [13.3365504, 52.5268142]}, "properties": {"id": "645677469", "name": "Arminius Apotheke", "street": "Turmstraße 38", "zip-code": 10551.0, "city": "Berlin", "planning-area-id": 1200520}}, {"type": "Feature", "geometry": {"type": "Point", "coordinates": [13.3429298, 52.5034922]}, "properties": {"id": "646579859", "name": "Ansbacher Apotheke", "street": "Ansbacher Straße 13", "zip-code": 10787.0, "city": "Berlin", "planning-area-id": 7100101}}, {"type": "Feature", "geometry": {"type": "Point", "coordinates": [13.3228681, 52.5183557]}, "properties": {"id": "647943536", "name": "Hubertus Apotheke am Salzufer", "street": "Salzufer 13/14", "zip-code": 10587.0, "city": "Berlin", "planning-area-id": 4300620}}, {"type": "Feature", "geometry": {"type": "Point", "coordinates": [13.3363347, 52.523569]}, "properties": {"id": "650633578", "name": "Ludwigs-Apotheke", "street": "Essener Straße 16", "zip-code": 10555.0, "city": "Berlin", "planning-area-id": 1200522}}, {"type": "Feature", "geometry": {"type": "Point", "coordinates": [13.3038018, 52.4488384]}, "properties": {"id": "653256888", "name": "Apotheke am Asternplatz", "street": "Asternplatz 3", "zip-code": 12203.0, "city": "Berlin", "planning-area-id": 6300629}}, {"type": "Feature", "geometry": {"type": "Point", "coordinates": [13.4403303, 52.5410448]}, "properties": {"id": "653289588", "name": "easyApotheke", "street": "Storkower Straße 5", "zip-code": 10409.0, "city": "Berlin", "planning-area-id": 3601449}}, {"type": "Feature", "geometry": {"type": "Point", "coordinates": [13.2659311, 52.4144688]}, "properties": {"id": "655975206", "name": "Friedrich Apotheke", "street": "Teltower Damm 216", "zip-code": 14167.0, "city": "Berlin", "planning-area-id": 6300528}}, {"type": "Feature", "geometry": {"type": "Point", "coordinates": [13.2419523, 52.4234139]}, "properties": {"id": "656006001", "name": "Düppel Apotheke", "street": "Ludwigsfelder Straße 53", "zip-code": 14165.0, "city": "Berlin", "planning-area-id": 6300524}}, {"type": "Feature", "geometry": {"type": "Point", "coordinates": [13.1556432, 52.5325457]}, "properties": {"id": "656210648", "name": "Mariannen-Apotheke", "street": "Brunsbütteler Damm 271", "zip-code": 13591.0, "city": "Berlin", "planning-area-id": 5200423}}, {"type": "Feature", "geometry": {"type": "Point", "coordinates": [13.3503744, 52.541849]}, "properties": {"id": "658444284", "name": "Apotheke am Augustenburger Platz", "street": "Triftstraße 37", "zip-code": 13353.0, "city": "Berlin", "planning-area-id": 1401046}}, {"type": "Feature", "geometry": {"type": "Point", "coordinates": [13.3241522, 52.4607968]}, "properties": {"id": "658612646", "name": "Schildhorn Apotheke", "street": "Schloßstraße 19", "zip-code": 12163.0, "city": "Berlin", "planning-area-id": 6100102}}, {"type": "Feature", "geometry": {"type": "Point", "coordinates": [13.3048087, 52.5130881]}, "properties": {"id": "661092195", "name": "Atlantis-Apotheke", "street": "Wilmersdorfer Straße 31", "zip-code": 10585.0, "city": "Berlin", "planning-area-id": 4300621}}, {"type": "Feature", "geometry": {"type": "Point", "coordinates": [13.3043479, 52.5172034]}, "properties": {"id": "661126965", "name": "Flora-Apotheke", "street": "", "zip-code": "", "city": "", "planning-area-id": 4300621}}, {"type": "Feature", "geometry": {"type": "Point", "coordinates": [13.2821088, 52.4780536]}, "properties": {"id": "663008203", "name": "Karlsbader Apotheke", "street": "Karlsbader Straße 18", "zip-code": 14193.0, "city": "Berlin", "planning-area-id": 4400727}}, {"type": "Feature", "geometry": {"type": "Point", "coordinates": [13.3018276, 52.5080757]}, "properties": {"id": "665535053", "name": "Pestalozzi Apotheke", "street": "Kaiser-Friedrich-Straße 45a", "zip-code": 10627.0, "city": "Berlin", "planning-area-id": 4300416}}, {"type": "Feature", "geometry": {"type": "Point", "coordinates": [13.3013735, 52.4886003]}, "properties": {"id": "666388871", "name": "Erasmus-Apotheke", "street": "Hohenzollerndamm 47a", "zip-code": 10713.0, "city": "Berlin", "planning-area-id": 4500939}}, {"type": "Feature", "geometry": {"type": "Point", "coordinates": [13.2799585, 52.5379148]}, "properties": {"id": "666961028", "name": "Siemensstadt Apotheke", "street": "Toeplerstraße 35", "zip-code": 13627.0, "city": "Berlin", "planning-area-id": 4100101}}, {"type": "Feature", "geometry": {"type": "Point", "coordinates": [13.2653691, 52.5123167]}, "properties": {"id": "667211329", "name": "Fürstenplatz-Apotheke", "street": "", "zip-code": "", "city": "", "planning-area-id": 4200310}}, {"type": "Feature", "geometry": {"type": "Point", "coordinates": [13.2679732, 52.5117263]}, "properties": {"id": "667211341", "name": "Apotheke Reichsstraße 100", "street": "Reichsstraße 100", "zip-code": 14052.0, "city": "Berlin", "planning-area-id": 4200310}}, {"type": "Feature", "geometry": {"type": "Point", "coordinates": [13.2698479, 52.510638]}, "properties": {"id": "667211352", "name": "Quant Apotheke", "street": "Reichsstraße 105", "zip-code": 14052.0, "city": "Berlin", "planning-area-id": 4200310}}, {"type": "Feature", "geometry": {"type": "Point", "coordinates": [13.2572734, 52.5191931]}, "properties": {"id": "667211375", "name": "Raphael-Apotheke", "street": "Reichsstraße 36", "zip-code": 14052.0, "city": "Berlin", "planning-area-id": 4200309}}, {"type": "Feature", "geometry": {"type": "Point", "coordinates": [13.2609904, 52.5158753]}, "properties": {"id": "667211386", "name": "Reichs-Apotheke", "street": "", "zip-code": "", "city": "", "planning-area-id": 4200310}}, {"type": "Feature", "geometry": {"type": "Point", "coordinates": [13.2616014, 52.5160655]}, "properties": {"id": "667211398", "name": "Apotheke am Steubenplatz", "street": "", "zip-code": "", "city": "", "planning-area-id": 4200308}}, {"type": "Feature", "geometry": {"type": "Point", "coordinates": [13.2530168, 52.4497045]}, "properties": {"id": "668246090", "name": "Barbara-Apotheke", "street": "Ladenstraße 9-10", "zip-code": 14169.0, "city": "Berlin", "planning-area-id": 6400840}}, {"type": "Feature", "geometry": {"type": "Point", "coordinates": [13.5124502, 52.504119]}, "properties": {"id": "668899440", "name": "Apotheke am Tierpark", "street": "Rummelsburger Straße 13", "zip-code": 10315.0, "city": "Berlin", "planning-area-id": 11401136}}, {"type": "Feature", "geometry": {"type": "Point", "coordinates": [13.3609228, 52.4977903]}, "properties": {"id": "670658040", "name": "Königin-Luise-Apotheke", "street": "Bülowstraße 23", "zip-code": 10783.0, "city": "", "planning-area-id": 7100103}}, {"type": "Feature", "geometry": {"type": "Point", "coordinates": [13.301616, 52.58365]}, "properties": {"id": "671210857", "name": "Annen-Apotheke", "street": "Ernststraße 62", "zip-code": 13509.0, "city": "Berlin", "planning-area-id": 12500825}}, {"type": "Feature", "geometry": {"type": "Point", "coordinates": [13.5438535, 52.5235741]}, "properties": {"id": "671390314", "name": "VitaCura-Apotheke", "street": "Marchwitzastraße 29 b", "zip-code": 12681.0, "city": "Berlin", "planning-area-id": 10100312}}, {"type": "Feature", "geometry": {"type": "Point", "coordinates": [13.4623091, 52.5239265]}, "properties": {"id": "671488820", "name": "Apotheke am S-Bahnhof Storkower Straße", "street": "Hermann-Blankenstein-Straße 38", "zip-code": 10249.0, "city": "Berlin", "planning-area-id": 3601453}}, {"type": "Feature", "geometry": {"type": "Point", "coordinates": [13.2787702, 52.5185444]}, "properties": {"id": "671696780", "name": "Westend - Apotheke", "street": "Spandauer Damm 130", "zip-code": 14050.0, "city": "Berlin", "planning-area-id": 4200308}}, {"type": "Feature", "geometry": {"type": "Point", "coordinates": [13.2013519, 52.5480636]}, "properties": {"id": "674086086", "name": "Kronen-Apotheke", "street": "Schönwalder Straße 29", "zip-code": 13585.0, "city": "Berlin", "planning-area-id": 5100314}}, {"type": "Feature", "geometry": {"type": "Point", "coordinates": [13.3075551, 52.5044892]}, "properties": {"id": "674316062", "name": "Gervinus-Apotheke", "street": "Wilmersdorfer Straße 106", "zip-code": 10629.0, "city": "Berlin", "planning-area-id": 4501040}}, {"type": "Feature", "geometry": {"type": "Point", "coordinates": [13.3136912, 52.6208593]}, "properties": {"id": "678295768", "name": "Waldsee-Apotheke", "street": "Berliner Straße 41", "zip-code": 13467.0, "city": "Berlin", "planning-area-id": 12400723}}, {"type": "Feature", "geometry": {"type": "Point", "coordinates": [13.3217071, 52.4576143]}, "properties": {"id": "689563385", "name": "Christophorus-Apotheke", "street": "Schloßstraße 88", "zip-code": 12163.0, "city": "Berlin", "planning-area-id": 6100102}}, {"type": "Feature", "geometry": {"type": "Point", "coordinates": [13.3299507, 52.4580136]}, "properties": {"id": "691484619", "name": "Althoff-Apotheke", "street": "Bergstraße 9", "zip-code": 12169.0, "city": "Berlin", "planning-area-id": 6100208}}, {"type": "Feature", "geometry": {"type": "Point", "coordinates": [13.3320271, 52.4681087]}, "properties": {"id": "691484670", "name": "Dr. Krachts Apotheke", "street": "Rheinstraße 52a", "zip-code": 12161.0, "city": "Berlin", "planning-area-id": 7300618}}, {"type": "Feature", "geometry": {"type": "Point", "coordinates": [13.5072138, 52.4041242]}, "properties": {"id": "699533239", "name": "Gartenstadt Apotheke", "street": "Lieselotte-Berger-Platz 9", "zip-code": 12355.0, "city": "Berlin", "planning-area-id": 8401245}}, {"type": "Feature", "geometry": {"type": "Point", "coordinates": [13.4920406, 52.4201063]}, "properties": {"id": "699538009", "name": "Apotheke Alt-Rudow", "street": "Alt-Rudow 26", "zip-code": 12357.0, "city": "Berlin", "planning-area-id": 8401243}}, {"type": "Feature", "geometry": {"type": "Point", "coordinates": [13.4779131, 52.4292698]}, "properties": {"id": "703042593", "name": "Paracelsus Apotheke", "street": "Neuköllner Straße 208", "zip-code": 12357.0, "city": "Berlin", "planning-area-id": 8401241}}, {"type": "Feature", "geometry": {"type": "Point", "coordinates": [13.3386726, 52.4866223]}, "properties": {"id": "703802174", "name": "Meraner Apotheke", "street": "Meraner Straße 16", "zip-code": 10825.0, "city": "Berlin", "planning-area-id": 7200307}}, {"type": "Feature", "geometry": {"type": "Point", "coordinates": [13.2991581, 52.4729719]}, "properties": {"id": "715203766", "name": "Möwen-Apotheke", "street": "Helgolandstraße 1", "zip-code": 14199.0, "city": "Berlin", "planning-area-id": 4400832}}, {"type": "Feature", "geometry": {"type": "Point", "coordinates": [13.3224732, 52.4888204]}, "properties": {"id": "715203882", "name": "Fortuna-Apotheke", "street": "Uhlandstraße 86", "zip-code": 10717.0, "city": "Berlin", "planning-area-id": 4501147}}, {"type": "Feature", "geometry": {"type": "Point", "coordinates": [13.3227162, 52.4901513]}, "properties": {"id": "715203887", "name": "Josephinen Apotheke", "street": "Uhlandstraße 79a", "zip-code": "", "city": "", "planning-area-id": 4501147}}, {"type": "Feature", "geometry": {"type": "Point", "coordinates": [13.2975749, 52.5103771]}, "properties": {"id": "715911607", "name": "Suarez-Apotheke", "street": "Suarezstraße 64", "zip-code": 14057.0, "city": "Berlin", "planning-area-id": 4300416}}, {"type": "Feature", "geometry": {"type": "Point", "coordinates": [13.2842068, 52.5063159]}, "properties": {"id": "718143915", "name": "Apotheke am Funkturm", "street": "Neue Kantstraße 18", "zip-code": 14057.0, "city": "Berlin", "planning-area-id": 4300415}}, {"type": "Feature", "geometry": {"type": "Point", "coordinates": [13.3667198, 52.4931996]}, "properties": {"id": "730172940", "name": "Goeben-Apotheke", "street": "Goebenstraße 15a", "zip-code": 10783.0, "city": "Berlin", "planning-area-id": 7100206}}, {"type": "Feature", "geometry": {"type": "Point", "coordinates": [13.4630198, 52.4254275]}, "properties": {"id": "733902771", "name": "Centrum Apotheke", "street": "Lipschitzallee 68", "zip-code": 12353.0, "city": "Berlin", "planning-area-id": 8300935}}, {"type": "Feature", "geometry": {"type": "Point", "coordinates": [13.478518, 52.5268005]}, "properties": {"id": "737199963", "name": "gesundLeben", "street": "", "zip-code": "", "city": "", "planning-area-id": 11300617}}, {"type": "Feature", "geometry": {"type": "Point", "coordinates": [13.3637956, 52.4994495]}, "properties": {"id": "738996191", "name": "Kurmark Apotheke", "street": "Kurfürstenstraße 154", "zip-code": 10785.0, "city": "Berlin", "planning-area-id": 7100205}}, {"type": "Feature", "geometry": {"type": "Point", "coordinates": [13.3598231, 52.4335093]}, "properties": {"id": "739897547", "name": "Sertürner", "street": "Wedellstraße 37", "zip-code": 12249.0, "city": "Berlin", "planning-area-id": 6200316}}, {"type": "Feature", "geometry": {"type": "Point", "coordinates": [13.3979998, 52.5802494]}, "properties": {"id": "746853027", "name": "Mariannen-Apotheke", "street": "", "zip-code": "", "city": "", "planning-area-id": 3200206}}, {"type": "Feature", "geometry": {"type": "Point", "coordinates": [13.4014334, 52.5894147]}, "properties": {"id": "747517159", "name": "Nordend-Apotheke", "street": "", "zip-code": "", "city": "", "planning-area-id": 3200205}}, {"type": "Feature", "geometry": {"type": "Point", "coordinates": [13.4108555, 52.5714517]}, "properties": {"id": "753467604", "name": "Mendel Apotheke", "street": "Breite Straße 6", "zip-code": 13187.0, "city": "Berlin", "planning-area-id": 3400724}}, {"type": "Feature", "geometry": {"type": "Point", "coordinates": [13.5749614, 52.4870402]}, "properties": {"id": "762002923", "name": "Heide-Apotheke", "street": "Chemnitzer Straße 203", "zip-code": 12621.0, "city": "Berlin", "planning-area-id": 10400837}}, {"type": "Feature", "geometry": {"type": "Point", "coordinates": [13.397257, 52.5657093]}, "properties": {"id": "765341424", "name": "Eulen Apotheke", "street": "Florastraße 4", "zip-code": 13187.0, "city": "Berlin", "planning-area-id": 3400721}}, {"type": "Feature", "geometry": {"type": "Point", "coordinates": [13.2591411, 52.4321449]}, "properties": {"id": "765566778", "name": "Adler-Apotheke", "street": "Teltower Damm 31", "zip-code": 14169.0, "city": "Berlin", "planning-area-id": 6300526}}, {"type": "Feature", "geometry": {"type": "Point", "coordinates": [13.4094009, 52.4904307]}, "properties": {"id": "766742178", "name": "Sternlicht Apotheke", "street": "Körtestraße 22", "zip-code": 10967.0, "city": "Berlin", "planning-area-id": 2200212}}, {"type": "Feature", "geometry": {"type": "Point", "coordinates": [13.5480046, 52.4382284]}, "properties": {"id": "766875155", "name": "Elefanten-Apotheke", "street": "Dörpfeldstraße 46", "zip-code": 12489.0, "city": "Berlin", "planning-area-id": 9200717}}, {"type": "Feature", "geometry": {"type": "Point", "coordinates": [13.543222, 52.4360165]}, "properties": {"id": "766875188", "name": "Adler Apotheke", "street": "Dörpfeldstraße 7", "zip-code": 12489.0, "city": "Berlin", "planning-area-id": 9200716}}, {"type": "Feature", "geometry": {"type": "Point", "coordinates": [13.3595153, 52.5743966]}, "properties": {"id": "769270129", "name": "Kopenhagener Apotheke", "street": "Kopenhagener Straße 2", "zip-code": 13407.0, "city": "Berlin", "planning-area-id": 12100103}}, {"type": "Feature", "geometry": {"type": "Point", "coordinates": [13.3594452, 52.573665]}, "properties": {"id": "769318454", "name": "Lindauer-Apotheke", "street": "Residenzstraße 154", "zip-code": 13409.0, "city": "Berlin", "planning-area-id": 12100103}}, {"type": "Feature", "geometry": {"type": "Point", "coordinates": [13.4129908, 52.5028987]}, "properties": {"id": "769365479", "name": "Apotheke am Moritzplatz", "street": "Oranienstraße 158", "zip-code": 10969.0, "city": "Berlin", "planning-area-id": 2100104}}, {"type": "Feature", "geometry": {"type": "Point", "coordinates": [13.4158532, 52.4908644]}, "properties": {"id": "769847926", "name": "Urban-Apotheke", "street": "Urbanstraße 39", "zip-code": 10967.0, "city": "Berlin", "planning-area-id": 2200212}}, {"type": "Feature", "geometry": {"type": "Point", "coordinates": [13.4137912, 52.4919934]}, "properties": {"id": "769847931", "name": "Körte-Apotheke", "street": "Grimmstraße 17", "zip-code": 10967.0, "city": "Berlin", "planning-area-id": 2200213}}, {"type": "Feature", "geometry": {"type": "Point", "coordinates": [13.4317943, 52.5544002]}, "properties": {"id": "770651959", "name": "Sonnen Apotheke", "street": "Langhansstraße 82", "zip-code": 13086.0, "city": "Berlin", "planning-area-id": 3500934}}, {"type": "Feature", "geometry": {"type": "Point", "coordinates": [13.340083, 52.4979101]}, "properties": {"id": "771332595", "name": "Bavaria-Apotheke", "street": "Ansbacher Straße 53", "zip-code": 10777.0, "city": "Berlin", "planning-area-id": 7100101}}, {"type": "Feature", "geometry": {"type": "Point", "coordinates": [13.3223417, 52.4589046]}, "properties": {"id": "775342929", "name": "Germania Apotheke", "street": "Schloßstraße 29", "zip-code": 12163.0, "city": "Berlin", "planning-area-id": 6100102}}, {"type": "Feature", "geometry": {"type": "Point", "coordinates": [13.4218153, 52.5359441]}, "properties": {"id": "775578347", "name": "Prenzlauer Apotheke", "street": "Prenzlauer Allee 214", "zip-code": 10405.0, "city": "Berlin", "planning-area-id": 3701555}}, {"type": "Feature", "geometry": {"type": "Point", "coordinates": [13.3409295, 52.4509538]}, "properties": {"id": "795255878", "name": "Brigitten-Apotheke", "street": "Steglitzer Damm 29", "zip-code": 12169.0, "city": "Berlin", "planning-area-id": 6100204}}, {"type": "Feature", "geometry": {"type": "Point", "coordinates": [13.5256044, 52.5678366]}, "properties": {"id": "808390982", "name": "Brunnen-Apotheke", "street": "Falkenberger Chaussee 134", "zip-code": 13057.0, "city": "Berlin", "planning-area-id": 11100203}}, {"type": "Feature", "geometry": {"type": "Point", "coordinates": [13.5075743, 52.5648301]}, "properties": {"id": "808390994", "name": "Auxilia-Apotheke", "street": "Prerower Platz 4", "zip-code": 13051.0, "city": "Berlin", "planning-area-id": 11100307}}, {"type": "Feature", "geometry": {"type": "Point", "coordinates": [13.5180117, 52.5673914]}, "properties": {"id": "808391031", "name": "Falken-Apotheke", "street": "Warnitzer Straße 20", "zip-code": 13057.0, "city": "Berlin", "planning-area-id": 11100204}}, {"type": "Feature", "geometry": {"type": "Point", "coordinates": [13.3509335, 52.5323547]}, "properties": {"id": "811187886", "name": "Nord-West-Apotheke", "street": "Rathenower Straße 26", "zip-code": 10559.0, "city": "Berlin", "planning-area-id": 1200623}}, {"type": "Feature", "geometry": {"type": "Point", "coordinates": [13.2960084, 52.4429005]}, "properties": {"id": "813811847", "name": "Curtius-Apotheke", "street": "Curtiusstraße 4", "zip-code": 12205.0, "city": "Berlin", "planning-area-id": 6300634}}, {"type": "Feature", "geometry": {"type": "Point", "coordinates": [13.342953, 52.5187383]}, "properties": {"id": "816598789", "name": "Apotheke am Hansaplatz", "street": "Bartningallee 5", "zip-code": 10557.0, "city": "Berlin", "planning-area-id": 1200629}}, {"type": "Feature", "geometry": {"type": "Point", "coordinates": [13.3261851, 52.4646654]}, "properties": {"id": "833390882", "name": "easyApotheke", "street": "Schloßstraße 1", "zip-code": 12163.0, "city": "Berlin", "planning-area-id": 6100103}}, {"type": "Feature", "geometry": {"type": "Point", "coordinates": [13.4196742, 52.4992782]}, "properties": {"id": "848509143", "name": "Apotheke Berg", "street": "Skalitzer Straße 133", "zip-code": 10999.0, "city": "Berlin", "planning-area-id": 2300314}}, {"type": "Feature", "geometry": {"type": "Point", "coordinates": [13.5873859, 52.4414305]}, "properties": {"id": "849520185", "name": "Wilhelm-Voigt-Apotheke", "street": "Pablo-Neruda-Straße 2-4", "zip-code": 12559.0, "city": "Berlin", "planning-area-id": 9401431}}, {"type": "Feature", "geometry": {"type": "Point", "coordinates": [13.4022416, 52.4119945]}, "properties": {"id": "853806321", "name": "Grüne Apotheke Lichtenrade", "street": "Lichtenrader Damm 24", "zip-code": 12305.0, "city": "Berlin", "planning-area-id": 7601442}}, {"type": "Feature", "geometry": {"type": "Point", "coordinates": [13.3630015, 52.5506076]}, "properties": {"id": "854996274", "name": "Utrechter Apotheke", "street": "Maxstraße 13", "zip-code": 13347.0, "city": "Berlin", "planning-area-id": 1401049}}, {"type": "Feature", "geometry": {"type": "Point", "coordinates": [13.2863661, 52.5353861]}, "properties": {"id": "858380325", "name": "Apotheke Charlottenburg-Nord", "street": "", "zip-code": "", "city": "", "planning-area-id": 4100101}}, {"type": "Feature", "geometry": {"type": "Point", "coordinates": [13.5592685, 52.5555383]}, "properties": {"id": "858382391", "name": "Klee-Apotheke", "street": "Mehrower Allee 20", "zip-code": 12687.0, "city": "Berlin", "planning-area-id": 10100208}}, {"type": "Feature", "geometry": {"type": "Point", "coordinates": [13.4551452, 52.5121401]}, "properties": {"id": "876479038", "name": "Grünberger Apotheke", "street": "Grünberger Straße 43-45", "zip-code": 10245.0, "city": "Berlin", "planning-area-id": 2500833}}, {"type": "Feature", "geometry": {"type": "Point", "coordinates": [13.33413, 52.5270341]}, "properties": {"id": "895721097", "name": "Apollo-Apotheke", "street": "Turmstraße 46", "zip-code": 10551.0, "city": "Berlin", "planning-area-id": 1200519}}, {"type": "Feature", "geometry": {"type": "Point", "coordinates": [13.384792, 52.4981158]}, "properties": {"id": "928338769", "name": "Zieten Apotheke", "street": "Großbeerenstraße 11", "zip-code": 10963.0, "city": "Berlin", "planning-area-id": 2200208}}, {"type": "Feature", "geometry": {"type": "Point", "coordinates": [13.2975184, 52.511747]}, "properties": {"id": "931645314", "name": "Apotheke am Sophie-Charlotte-Platz", "street": "Schloßstraße 30", "zip-code": 14059.0, "city": "Berlin", "planning-area-id": 4300414}}, {"type": "Feature", "geometry": {"type": "Point", "coordinates": [13.4434517, 52.484367]}, "properties": {"id": "931658983", "name": "Lucia", "street": "", "zip-code": "", "city": "", "planning-area-id": 8100312}}, {"type": "Feature", "geometry": {"type": "Point", "coordinates": [13.2153565, 52.4391125]}, "properties": {"id": "933513518", "name": "Neue Apotheke am See", "street": "Breisgauer Straße 1A", "zip-code": 14129.0, "city": "Berlin", "planning-area-id": 6400838}}, {"type": "Feature", "geometry": {"type": "Point", "coordinates": [13.3903812, 52.5122639]}, "properties": {"id": "956306643", "name": "Apotheke Q205", "street": "Friedrichstraße 68", "zip-code": 10117.0, "city": "Berlin", "planning-area-id": 1100206}}, {"type": "Feature", "geometry": {"type": "Point", "coordinates": [13.4903858, 52.6171891]}, "properties": {"id": "977657079", "name": "Achilles Apotheke", "street": "Achillesstraße 69", "zip-code": 13125.0, "city": "Berlin", "planning-area-id": 3300411}}, {"type": "Feature", "geometry": {"type": "Point", "coordinates": [13.4731765, 52.5136594]}, "properties": {"id": "983454566", "name": "Friedrich-Apotheke", "street": "Frankfurter Allee 100", "zip-code": 10247.0, "city": "Berlin", "planning-area-id": 2500832}}, {"type": "Feature", "geometry": {"type": "Point", "coordinates": [13.3451962, 52.4372593]}, "properties": {"id": "992805862", "name": "Flora-Apotheke", "street": "Leonorenstraße 91", "zip-code": 12247.0, "city": "Berlin", "planning-area-id": 6200313}}, {"type": "Feature", "geometry": {"type": "Point", "coordinates": [13.1575816, 52.4196142]}, "properties": {"id": "998713196", "name": "Wannsee Apotheke", "street": "Königstraße 18", "zip-code": 14109.0, "city": "Berlin", "planning-area-id": 6400735}}, {"type": "Feature", "geometry": {"type": "Point", "coordinates": [13.436734, 52.4180116]}, "properties": {"id": "1008402120", "name": "Punkt Apotheke", "street": "", "zip-code": "", "city": "", "planning-area-id": 8200832}}, {"type": "Feature", "geometry": {"type": "Point", "coordinates": [13.4306508, 52.4976442]}, "properties": {"id": "1018833559", "name": "Mozart Apotheke", "street": "Wiener Straße 18", "zip-code": 10999.0, "city": "Berlin", "planning-area-id": 2300417}}, {"type": "Feature", "geometry": {"type": "Point", "coordinates": [13.2944008, 52.4743541]}, "properties": {"id": "1020532583", "name": "Schmargendorfer Apotheke", "street": "Breite Straße 13", "zip-code": 14199.0, "city": "Berlin", "planning-area-id": 4400832}}, {"type": "Feature", "geometry": {"type": "Point", "coordinates": [13.4961485, 52.535795]}, "properties": {"id": "1032978552", "name": "Stern-Apotheke", "street": "Landsberger Allee 277", "zip-code": 13055.0, "city": "Berlin", "planning-area-id": 11200514}}, {"type": "Feature", "geometry": {"type": "Point", "coordinates": [13.163271, 52.5511687]}, "properties": {"id": "1037241970", "name": "Damian Apotheke", "street": "Falkenseer Chaussee 196", "zip-code": 13589.0, "city": "Berlin", "planning-area-id": 5100208}}, {"type": "Feature", "geometry": {"type": "Point", "coordinates": [13.1771981, 52.5475503]}, "properties": {"id": "1038217551", "name": "Falken-Apotheke", "street": "Siegener Straße 59", "zip-code": 13583.0, "city": "Berlin", "planning-area-id": 5100211}}, {"type": "Feature", "geometry": {"type": "Point", "coordinates": [13.2608479, 52.4363152]}, "properties": {"id": "1042258380", "name": "Berolina Apotheke", "street": "Clayallee 345", "zip-code": 14169.0, "city": "Berlin", "planning-area-id": 6400841}}, {"type": "Feature", "geometry": {"type": "Point", "coordinates": [13.2617669, 52.4107881]}, "properties": {"id": "1051174903", "name": "Süd-Apotheke", "street": "Ladiusstraße 31", "zip-code": 14165.0, "city": "Berlin", "planning-area-id": 6300525}}, {"type": "Feature", "geometry": {"type": "Point", "coordinates": [13.2604293, 52.4344191]}, "properties": {"id": "1075295993", "name": "Stadt Apotheke", "street": "Teltower Damm 5", "zip-code": 14169.0, "city": "Berlin", "planning-area-id": 6300526}}, {"type": "Feature", "geometry": {"type": "Point", "coordinates": [13.2615692, 52.4375339]}, "properties": {"id": "1082750111", "name": "Staufen-Apotheke", "street": "Clayallee 331", "zip-code": 14169.0, "city": "Berlin", "planning-area-id": 6400841}}, {"type": "Feature", "geometry": {"type": "Point", "coordinates": [13.4083406, 52.5010849]}, "properties": {"id": "1083676123", "name": "Prinzen Apotheke", "street": "Prinzenstraße 96", "zip-code": 10969.0, "city": "Berlin", "planning-area-id": 2100105}}, {"type": "Feature", "geometry": {"type": "Point", "coordinates": [13.5386173, 52.5277137]}, "properties": {"id": "1094105653", "name": "Baba Jaga", "street": "", "zip-code": "", "city": "", "planning-area-id": 10100312}}, {"type": "Feature", "geometry": {"type": "Point", "coordinates": [13.4277648, 52.4903456]}, "properties": {"id": "1110626664", "name": "Apotheke zum goldenen Anker", "street": "", "zip-code": "", "city": "", "planning-area-id": 8100311}}, {"type": "Feature", "geometry": {"type": "Point", "coordinates": [13.2896726, 52.6339256]}, "properties": {"id": "1124601226", "name": "Park-Apotheke", "street": "Zeltinger Platz 7", "zip-code": 13465.0, "city": "Berlin", "planning-area-id": 12400721}}, {"type": "Feature", "geometry": {"type": "Point", "coordinates": [13.2869838, 52.6325774]}, "properties": {"id": "1124612201", "name": "Ludolfinger-Apotheke", "street": "", "zip-code": "", "city": "", "planning-area-id": 12400720}}, {"type": "Feature", "geometry": {"type": "Point", "coordinates": [13.4416805, 52.5440277]}, "properties": {"id": "1143798306", "name": "pro-samed Apotheke", "street": "Greifswalder Straße 155", "zip-code": 10409.0, "city": "Berlin", "planning-area-id": 3601245}}, {"type": "Feature", "geometry": {"type": "Point", "coordinates": [13.2791669, 52.5774369]}, "properties": {"id": "1145597661", "name": "Apotheke am Tegeler See", "street": "Namslaustraße 83", "zip-code": 13507.0, "city": "Berlin", "planning-area-id": 12200413}}, {"type": "Feature", "geometry": {"type": "Point", "coordinates": [13.2956492, 52.5136253]}, "properties": {"id": "1163265616", "name": "Borussia-Apotheke", "street": "Knobelsdorffstraße 4", "zip-code": 14059.0, "city": "Berlin", "planning-area-id": 4300413}}, {"type": "Feature", "geometry": {"type": "Point", "coordinates": [13.380108, 52.4388221]}, "properties": {"id": "1169920988", "name": "easyApotheke", "street": "Großbeerenstraße 2", "zip-code": 12107.0, "city": "Berlin", "planning-area-id": 7501029}}, {"type": "Feature", "geometry": {"type": "Point", "coordinates": [13.2826523, 52.5103045]}, "properties": {"id": "1200964445", "name": "Witzleben Apotheke", "street": "Kaiserdamm 24", "zip-code": 14057.0, "city": "Berlin", "planning-area-id": 4200311}}, {"type": "Feature", "geometry": {"type": "Point", "coordinates": [13.2814283, 52.5102306]}, "properties": {"id": "1200964491", "name": "apotheke26", "street": "Kaiserdamm 26", "zip-code": 14057.0, "city": "Berlin", "planning-area-id": 4200311}}, {"type": "Feature", "geometry": {"type": "Point", "coordinates": [13.5243036, 52.4787595]}, "properties": {"id": "1212618057", "name": "Sonnenschein-Apotheke", "street": "", "zip-code": "", "city": "", "planning-area-id": 11501341}}, {"type": "Feature", "geometry": {"type": "Point", "coordinates": [13.3456342, 52.5543245]}, "properties": {"id": "1234501223", "name": "Paul Gerhardt Apotheke", "street": "", "zip-code": "", "city": "", "planning-area-id": 1400939}}, {"type": "Feature", "geometry": {"type": "Point", "coordinates": [13.6013424, 52.4805013]}, "properties": {"id": "1235266856", "name": "Sonnen-Apotheke", "street": "", "zip-code": 12623.0, "city": "Berlin", "planning-area-id": 10400941}}, {"type": "Feature", "geometry": {"type": "Point", "coordinates": [13.3530389, 52.5501219]}, "properties": {"id": "1236581643", "name": "Doc+ Apotheke", "street": "Müllerstraße 40", "zip-code": 13353.0, "city": "Berlin", "planning-area-id": 1401048}}, {"type": "Feature", "geometry": {"type": "Point", "coordinates": [13.4096148, 52.5043326]}, "properties": {"id": "1246989790", "name": "Apotheke zum Schwan", "street": "Oranienstraße 64", "zip-code": 10969.0, "city": "Berlin", "planning-area-id": 2100104}}, {"type": "Feature", "geometry": {"type": "Point", "coordinates": [13.2843949, 52.5885653]}, "properties": {"id": "1252777062", "name": "Schloss-Apotheke Tegel", "street": "Berliner Straße 6", "zip-code": 13507.0, "city": "Berlin", "planning-area-id": 12200515}}, {"type": "Feature", "geometry": {"type": "Point", "coordinates": [13.2826806, 52.5895474]}, "properties": {"id": "1252944782", "name": "Alte Spree Apotheke", "street": "", "zip-code": "", "city": "", "planning-area-id": 12200515}}, {"type": "Feature", "geometry": {"type": "Point", "coordinates": [13.4398917, 52.5237553]}, "properties": {"id": "1257075697", "name": "Apotheke am Friedrichshain", "street": "", "zip-code": "", "city": "", "planning-area-id": 2400521}}, {"type": "Feature", "geometry": {"type": "Point", "coordinates": [13.3938688, 52.5405418]}, "properties": {"id": "1298246171", "name": "Vineta Apotheke", "street": "Brunnenstraße 121", "zip-code": 13355.0, "city": "Berlin", "planning-area-id": 1300835}}, {"type": "Feature", "geometry": {"type": "Point", "coordinates": [13.3854708, 52.5380192]}, "properties": {"id": "1298511709", "name": "Apotheke am Gartenplatz", "street": "", "zip-code": "", "city": "", "planning-area-id": 1300835}}, {"type": "Feature", "geometry": {"type": "Point", "coordinates": [13.3869021, 52.4920432]}, "properties": {"id": "1315650095", "name": "Kur-Apotheke", "street": "Mehringdamm 50", "zip-code": 10961.0, "city": "Berlin", "planning-area-id": 2200209}}, {"type": "Feature", "geometry": {"type": "Point", "coordinates": [13.5770429, 52.4553026]}, "properties": {"id": "1336599080", "name": "Dr. Rothes Apotheke", "street": "Bahnhofstraße 10", "zip-code": 12555.0, "city": "Berlin", "planning-area-id": 9501939}}, {"type": "Feature", "geometry": {"type": "Point", "coordinates": [13.5747201, 52.444918]}, "properties": {"id": "1336725194", "name": "Stadt-Apotheke", "street": "Grünstraße 24", "zip-code": 12555.0, "city": "Berlin", "planning-area-id": 9401534}}, {"type": "Feature", "geometry": {"type": "Point", "coordinates": [13.5848235, 52.427899]}, "properties": {"id": "1336788980", "name": "Süd-Apotheke", "street": "Wendenschloßstraße 324a", "zip-code": 12557.0, "city": "Berlin", "planning-area-id": 9401329}}, {"type": "Feature", "geometry": {"type": "Point", "coordinates": [13.5217595, 52.4973391]}, "properties": {"id": "1338226878", "name": "Jumbo Apotheke", "street": "Otto-Schmirgal-Straße 3", "zip-code": 10319.0, "city": "Berlin", "planning-area-id": 11401137}}, {"type": "Feature", "geometry": {"type": "Point", "coordinates": [13.2388868, 52.5424964]}, "properties": {"id": "1365702036", "name": "Haselhorster Apotheke", "street": "Gartenfelder Straße 109", "zip-code": 13599.0, "city": "Berlin", "planning-area-id": 5300737}}, {"type": "Feature", "geometry": {"type": "Point", "coordinates": [13.4221508, 52.533075]}, "properties": {"id": "1374215630", "name": "Immanuel Apotheke", "street": "Immanuelkirchstraße 2", "zip-code": 10405.0, "city": "Berlin", "planning-area-id": 3701659}}, {"type": "Feature", "geometry": {"type": "Point", "coordinates": [13.2189479, 52.557697]}, "properties": {"id": "1375170411", "name": "Kiwi Apotheke", "street": "Hugo-Cassirer-Straße 26", "zip-code": 13587.0, "city": "Berlin", "planning-area-id": 5100104}}, {"type": "Feature", "geometry": {"type": "Point", "coordinates": [13.3497166, 52.4824434]}, "properties": {"id": "1397070332", "name": "Dominicus Apotheke", "street": "Hauptstraße 117", "zip-code": 10827.0, "city": "Berlin", "planning-area-id": 7200410}}, {"type": "Feature", "geometry": {"type": "Point", "coordinates": [13.388732, 52.4370757]}, "properties": {"id": "1400224784", "name": "Fritz Apotheke", "street": "Mariendorfer Damm 165", "zip-code": 12107.0, "city": "Berlin", "planning-area-id": 7501134}}, {"type": "Feature", "geometry": {"type": "Point", "coordinates": [13.2672695, 52.5369189]}, "properties": {"id": "1413247085", "name": "Apotheke 97", "street": "Nonnendammallee 97", "zip-code": 13629.0, "city": "Berlin", "planning-area-id": 5300841}}, {"type": "Feature", "geometry": {"type": "Point", "coordinates": [13.2684032, 52.5369057]}, "properties": {"id": "1419134521", "name": "Central Apotheke", "street": "Nonnendammallee 94", "zip-code": 13629.0, "city": "Berlin", "planning-area-id": 5300841}}, {"type": "Feature", "geometry": {"type": "Point", "coordinates": [13.3390663, 52.4885983]}, "properties": {"id": "1434256844", "name": "Apotheke am Bayerischen Platz", "street": "Bayerischer Platz 6", "zip-code": 10779.0, "city": "Berlin", "planning-area-id": 7200307}}, {"type": "Feature", "geometry": {"type": "Point", "coordinates": [13.431803, 52.532136]}, "properties": {"id": "1492336686", "name": "Esmarch Apotheke", "street": "Hufelandstraße 15", "zip-code": 10407.0, "city": "Berlin", "planning-area-id": 3701660}}, {"type": "Feature", "geometry": {"type": "Point", "coordinates": [13.5582187, 52.5060706]}, "properties": {"id": "1498608858", "name": "Apotheke Biesdorf-Süd", "street": "Weißenhöher Straße 88", "zip-code": 12683.0, "city": "", "planning-area-id": 10300733}}, {"type": "Feature", "geometry": {"type": "Point", "coordinates": [13.451441, 52.5090106]}, "properties": {"id": "1504564883", "name": "Warschauer Apotheke", "street": "Warschauer Straße 56", "zip-code": 10243.0, "city": "Berlin", "planning-area-id": 2500834}}, {"type": "Feature", "geometry": {"type": "Point", "coordinates": [13.4285441, 52.4846388]}, "properties": {"id": "1527942471", "name": "Apotheke Impuls", "street": "Karl-Marx-Straße 29", "zip-code": 12043.0, "city": "Berlin", "planning-area-id": 8100314}}, {"type": "Feature", "geometry": {"type": "Point", "coordinates": [13.3875545, 52.5260899]}, "properties": {"id": "1552051348", "name": "MediosApotheke", "street": "Friedrichstraße 113A", "zip-code": 10117.0, "city": "Berlin", "planning-area-id": 1100309}}, {"type": "Feature", "geometry": {"type": "Point", "coordinates": [13.372337, 52.4460352]}, "properties": {"id": "1554257377", "name": "St.Hildegard Apotheke", "street": "Gersdorfstraße 50", "zip-code": 12105.0, "city": "Berlin", "planning-area-id": 7501029}}, {"type": "Feature", "geometry": {"type": "Point", "coordinates": [13.329341, 52.4460263]}, "properties": {"id": "1575512027", "name": "Tannenberg Apotheke", "street": "Birkbuschstraße 59", "zip-code": 12167.0, "city": "Berlin", "planning-area-id": 6100206}}, {"type": "Feature", "geometry": {"type": "Point", "coordinates": [13.269836, 52.4513152]}, "properties": {"id": "1577132742", "name": "Oskar Helene Apotheke", "street": "Clayallee 177", "zip-code": 14195.0, "city": "Berlin", "planning-area-id": 6400842}}, {"type": "Feature", "geometry": {"type": "Point", "coordinates": [13.3294059, 52.6097315]}, "properties": {"id": "1585171546", "name": "Fleming Apotheke", "street": "Zabel-Krüger-Damm 31", "zip-code": 13469.0, "city": "Berlin", "planning-area-id": 12500928}}, {"type": "Feature", "geometry": {"type": "Point", "coordinates": [13.4024597, 52.581118]}, "properties": {"id": "1597559553", "name": "Apotheke am Schlosspark", "street": "Hermann-Hesse-Straße 4a", "zip-code": 13156.0, "city": "Berlin", "planning-area-id": 3200206}}, {"type": "Feature", "geometry": {"type": "Point", "coordinates": [13.3137602, 52.4231693]}, "properties": {"id": "1617416107", "name": "aktiv Apotheke", "street": "Ostpreußendamm 139", "zip-code": 12207.0, "city": "Berlin", "planning-area-id": 6200421}}, {"type": "Feature", "geometry": {"type": "Point", "coordinates": [13.3036661, 52.4268932]}, "properties": {"id": "1617419904", "name": "Apotheke im Schweizer Viertel", "street": "Lausanner Straße 83", "zip-code": 12205.0, "city": "Berlin", "planning-area-id": 6300632}}, {"type": "Feature", "geometry": {"type": "Point", "coordinates": [13.4203076, 52.4988803]}, "properties": {"id": "1624585364", "name": "Vital-Apotheke", "street": "Skalitzer Straße 15", "zip-code": 10999.0, "city": "Berlin", "planning-area-id": 2300417}}, {"type": "Feature", "geometry": {"type": "Point", "coordinates": [13.4282736, 52.5881829]}, "properties": {"id": "1628927163", "name": "Apotheke im Pankeviertel", "street": "Blankenburger Straße 153", "zip-code": 13127.0, "city": "Berlin", "planning-area-id": 3200207}}, {"type": "Feature", "geometry": {"type": "Point", "coordinates": [13.3059616, 52.4174336]}, "properties": {"id": "1632227368", "name": "Linden Apotheke", "street": "Lindenstraße 1a", "zip-code": 12207.0, "city": "Berlin", "planning-area-id": 6200420}}, {"type": "Feature", "geometry": {"type": "Point", "coordinates": [13.4601281, 52.4939436]}, "properties": {"id": "1636830086", "name": "Blaue Apotheke", "street": "", "zip-code": "", "city": "", "planning-area-id": 9100101}}, {"type": "Feature", "geometry": {"type": "Point", "coordinates": [13.3333432, 52.595082]}, "properties": {"id": "1640616159", "name": "Bären-Apotheke", "street": "Oranienburger Straße 85-86", "zip-code": 13437.0, "city": "Berlin", "planning-area-id": 12500926}}, {"type": "Feature", "geometry": {"type": "Point", "coordinates": [13.4564982, 52.4367426]}, "properties": {"id": "1654832841", "name": "Hausapotheke - Vivantes Klinikum Neukölln", "street": "Kormoranweg 45", "zip-code": 12351.0, "city": "Berlin", "planning-area-id": 8401139}}, {"type": "Feature", "geometry": {"type": "Point", "coordinates": [13.2707693, 52.4385108]}, "properties": {"id": "1655132802", "name": "Sundgauer Apotheke", "street": "Berliner Straße 43b", "zip-code": "", "city": "Berlin", "planning-area-id": 6400841}}, {"type": "Feature", "geometry": {"type": "Point", "coordinates": [13.3562137, 52.5483468]}, "properties": {"id": "1659884034", "name": "Märkische Apotheke", "street": "Müllerstraße 33", "zip-code": 13353.0, "city": "Berlin", "planning-area-id": 1401048}}, {"type": "Feature", "geometry": {"type": "Point", "coordinates": [13.4511485, 52.5101873]}, "properties": {"id": "1663350357", "name": "BEZIRKSapotheke", "street": "Warschauer Straße 27", "zip-code": 10243.0, "city": "Berlin", "planning-area-id": 2400624}}, {"type": "Feature", "geometry": {"type": "Point", "coordinates": [13.3104944, 52.4652856]}, "properties": {"id": "1678448395", "name": "Forst Apotheke", "street": "Forststraße 31", "zip-code": 12163.0, "city": "Berlin", "planning-area-id": 6100101}}, {"type": "Feature", "geometry": {"type": "Point", "coordinates": [13.3235696, 52.471767]}, "properties": {"id": "1703401473", "name": "Apotheke am Schillerplatz", "street": "Stubenrauchstraße 58", "zip-code": 12161.0, "city": "Berlin", "planning-area-id": 7300515}}, {"type": "Feature", "geometry": {"type": "Point", "coordinates": [13.3914745, 52.3981287]}, "properties": {"id": "1704256871", "name": "Lichtenrader Apotheke", "street": "Barnetstraße 41-42", "zip-code": 12305.0, "city": "Berlin", "planning-area-id": 7601544}}, {"type": "Feature", "geometry": {"type": "Point", "coordinates": [13.4714754, 52.5286228]}, "properties": {"id": "1719664188", "name": "Apotheke am Anton-Saefkow-Platz", "street": "Anton-Saefkow-Platz 8", "zip-code": 10369.0, "city": "Berlin", "planning-area-id": 11300617}}, {"type": "Feature", "geometry": {"type": "Point", "coordinates": [13.1949978, 52.4300081]}, "properties": {"id": "1721061596", "name": "Apotheke in Nikolassee", "street": "Prinz-Friedrich-Leopold-Straße 3", "zip-code": 14129.0, "city": "Berlin", "planning-area-id": 6400737}}, {"type": "Feature", "geometry": {"type": "Point", "coordinates": [13.5635073, 52.5708343]}, "properties": {"id": "1777151508", "name": "Apotheke am Stadtrand", "street": "Ahrensfelder Chaussee 141", "zip-code": 12689.0, "city": "Berlin", "planning-area-id": 10100101}}, {"type": "Feature", "geometry": {"type": "Point", "coordinates": [13.496804, 52.4184421]}, "properties": {"id": "1782386007", "name": "Neue Apotheke", "street": "Köpenicker Straße 184", "zip-code": 12355.0, "city": "Berlin", "planning-area-id": 8401243}}, {"type": "Feature", "geometry": {"type": "Point", "coordinates": [13.4591942, 52.5603111]}, "properties": {"id": "1828707071", "name": "Rennbahn Apotheke", "street": "Rennbahnstraße 22-23", "zip-code": 13086.0, "city": "Berlin", "planning-area-id": 3501037}}, {"type": "Feature", "geometry": {"type": "Point", "coordinates": [13.2640301, 52.4870726]}, "properties": {"id": "1833509167", "name": "Apotheke am Bahnhof Grunewald", "street": "Fontanestraße 4", "zip-code": 14193.0, "city": "Berlin", "planning-area-id": 4400728}}, {"type": "Feature", "geometry": {"type": "Point", "coordinates": [13.3910866, 52.5636023]}, "properties": {"id": "1845158730", "name": "Wollank Apotheke", "street": "Wollankstraße 30", "zip-code": 13359.0, "city": "Berlin", "planning-area-id": 1300731}}, {"type": "Feature", "geometry": {"type": "Point", "coordinates": [13.43824, 52.532715]}, "properties": {"id": "1863567226", "name": "Schwanen Apotheke", "street": "Hans-Otto-Straße 42", "zip-code": 10407.0, "city": "Berlin", "planning-area-id": 3701660}}, {"type": "Feature", "geometry": {"type": "Point", "coordinates": [13.4455087, 52.5461931]}, "properties": {"id": "1866461768", "name": "Ostsee-Apotheke", "street": "Greifswalder Straße 137", "zip-code": 10409.0, "city": "Berlin", "planning-area-id": 3601245}}, {"type": "Feature", "geometry": {"type": "Point", "coordinates": [13.3248652, 52.4987789]}, "properties": {"id": "1905963630", "name": "Fasanen-Apotheke", "street": "Uhlandstraße 158", "zip-code": 10719.0, "city": "Berlin", "planning-area-id": 4501045}}, {"type": "Feature", "geometry": {"type": "Point", "coordinates": [13.3198452, 52.4967633]}, "properties": {"id": "1906515104", "name": "Emser Apotheke", "street": "Emser Straße 44", "zip-code": 10719.0, "city": "Berlin", "planning-area-id": 4501044}}, {"type": "Feature", "geometry": {"type": "Point", "coordinates": [13.3305311, 52.5000244]}, "properties": {"id": "1914403852", "name": "Ranke-Apotheke", "street": "Joachimsthaler Straße 24", "zip-code": 10719.0, "city": "Berlin", "planning-area-id": 4501045}}, {"type": "Feature", "geometry": {"type": "Point", "coordinates": [13.3234022, 52.4970403]}, "properties": {"id": "1914552632", "name": "Apotheke am Ludwigkirchplatz", "street": "Pariser Straße 47", "zip-code": 10719.0, "city": "Berlin", "planning-area-id": 4501044}}, {"type": "Feature", "geometry": {"type": "Point", "coordinates": [13.4934176, 52.6360319]}, "properties": {"id": "1933362462", "name": "Viereck Apotheke", "street": "Wiltbergstraße 25", "zip-code": 13125.0, "city": "Berlin", "planning-area-id": 3100103}}, {"type": "Feature", "geometry": {"type": "Point", "coordinates": [13.2898547, 52.518856]}, "properties": {"id": "1948961324", "name": "Charlotten-Apotheke", "street": "", "zip-code": "", "city": "", "planning-area-id": 4300413}}, {"type": "Feature", "geometry": {"type": "Point", "coordinates": [13.290931, 52.5152489]}, "properties": {"id": "1948961329", "name": "Falken-Apotheke", "street": "Danckelmannstraße 51", "zip-code": 14059.0, "city": "Berlin", "planning-area-id": 4300413}}, {"type": "Feature", "geometry": {"type": "Point", "coordinates": [13.4318149, 52.4674061]}, "properties": {"id": "1963129662", "name": "Atoll-Apotheke", "street": "Hermannstraße 158A", "zip-code": 12051.0, "city": "Berlin", "planning-area-id": 8100209}}, {"type": "Feature", "geometry": {"type": "Point", "coordinates": [13.4204287, 52.4951332]}, "properties": {"id": "2013009698", "name": "Cottbusserdamm Apotheke", "street": "", "zip-code": "", "city": "", "planning-area-id": 2200213}}, {"type": "Feature", "geometry": {"type": "Point", "coordinates": [13.4838189, 52.4257157]}, "properties": {"id": "2018710520", "name": "Ibis Apotheke", "street": "Neuköllner Straße 261", "zip-code": 12357.0, "city": "Berlin", "planning-area-id": 8401241}}, {"type": "Feature", "geometry": {"type": "Point", "coordinates": [13.5581377, 52.5249854]}, "properties": {"id": "2026247343", "name": "Adler Apotheke", "street": "", "zip-code": "", "city": "", "planning-area-id": 10300731}}, {"type": "Feature", "geometry": {"type": "Point", "coordinates": [13.5521929, 52.5345031]}, "properties": {"id": "2026466974", "name": "Abacus Apotheke", "street": "", "zip-code": "", "city": "", "planning-area-id": 10100314}}, {"type": "Feature", "geometry": {"type": "Point", "coordinates": [13.5874121, 52.5211516]}, "properties": {"id": "2038240175", "name": "Spree Center Apotheke", "street": "Hellersdorfer Straße 77", "zip-code": 12619.0, "city": "Berlin", "planning-area-id": 10200629}}, {"type": "Feature", "geometry": {"type": "Point", "coordinates": [13.4754642, 52.4227979]}, "properties": {"id": "2039162001", "name": "Apotheke Wutzky-Center", "street": "", "zip-code": "", "city": "", "planning-area-id": 8301037}}, {"type": "Feature", "geometry": {"type": "Point", "coordinates": [13.5049041, 52.5730689]}, "properties": {"id": "2046807703", "name": "Wartenberger Apotheke", "street": "Egon-Erwin-Kisch-Straße 32", "zip-code": 13059.0, "city": "Berlin", "planning-area-id": 11100206}}, {"type": "Feature", "geometry": {"type": "Point", "coordinates": [13.3418127, 52.4467545]}, "properties": {"id": "2098147261", "name": "Doc Maier", "street": "Siemensstraße 2", "zip-code": 12247.0, "city": "Berlin", "planning-area-id": 6100206}}, {"type": "Feature", "geometry": {"type": "Point", "coordinates": [13.3397351, 52.4481027]}, "properties": {"id": "2098221272", "name": "Markus Apotheke", "street": "Albrechtstraße 51", "zip-code": 12167.0, "city": "Berlin", "planning-area-id": 6100206}}, {"type": "Feature", "geometry": {"type": "Point", "coordinates": [13.3359327, 52.5302571]}, "properties": {"id": "2110613369", "name": "Oldenburger Apotheke", "street": "Oldenburger Straße 37", "zip-code": 10551.0, "city": "Berlin", "planning-area-id": 1200519}}, {"type": "Feature", "geometry": {"type": "Point", "coordinates": [13.3125891, 52.4996926]}, "properties": {"id": "2139861333", "name": "Apotheke am Olivaer Platz", "street": "Olivaer Platz 17", "zip-code": 10707.0, "city": "Berlin", "planning-area-id": 4501043}}, {"type": "Feature", "geometry": {"type": "Point", "coordinates": [13.311957, 52.4983773]}, "properties": {"id": "2139861379", "name": "Cornelia-Apotheke", "street": "Konstanzer Straße 4", "zip-code": 10707.0, "city": "Berlin", "planning-area-id": 4501043}}, {"type": "Feature", "geometry": {"type": "Point", "coordinates": [13.3110344, 52.4963688]}, "properties": {"id": "2139861396", "name": "Konstanzer Apotheke", "street": "Konstanzer Straße 9", "zip-code": 10707.0, "city": "Berlin", "planning-area-id": 4501043}}, {"type": "Feature", "geometry": {"type": "Point", "coordinates": [13.2024674, 52.5368301]}, "properties": {"id": "2169170618", "name": "Preussen Apotheke Spandau", "street": "Carl-Schurz-Straße 29", "zip-code": 13597.0, "city": "Berlin", "planning-area-id": 5100316}}, {"type": "Feature", "geometry": {"type": "Point", "coordinates": [13.398262, 52.506761]}, "properties": {"id": "2181178545", "name": "Linden Apotheke", "street": "", "zip-code": "", "city": "", "planning-area-id": 2100103}}, {"type": "Feature", "geometry": {"type": "Point", "coordinates": [13.2223693, 52.5094033]}, "properties": {"id": "2251295178", "name": "Masuren-Apotheke", "street": "Angerburger Allee 45", "zip-code": 14055.0, "city": "Berlin", "planning-area-id": 4200204}}, {"type": "Feature", "geometry": {"type": "Point", "coordinates": [13.5108472, 52.56849]}, "properties": {"id": "2273462199", "name": "easyApotheke", "street": "Egon-Erwin-Kisch-Straße 80", "zip-code": 13059.0, "city": "Berlin", "planning-area-id": 11100206}}, {"type": "Feature", "geometry": {"type": "Point", "coordinates": [13.5162437, 52.5688682]}, "properties": {"id": "2274239284", "name": "Vitalis Apotheke", "street": "", "zip-code": "", "city": "", "planning-area-id": 11100205}}, {"type": "Feature", "geometry": {"type": "Point", "coordinates": [13.3522408, 52.5243574]}, "properties": {"id": "2288127751", "name": "Moabiter Apotheke", "street": "Alt-Moabit 18", "zip-code": 10559.0, "city": "Berlin", "planning-area-id": 1200626}}, {"type": "Feature", "geometry": {"type": "Point", "coordinates": [13.1422529, 52.4531286]}, "properties": {"id": "2320532525", "name": "Havelland-Apotheke", "street": "Sakrower Landstraße 6", "zip-code": 14089.0, "city": "Berlin", "planning-area-id": 5400943}}, {"type": "Feature", "geometry": {"type": "Point", "coordinates": [13.3444884, 52.5035594]}, "properties": {"id": "2320629344", "name": "Apotheke am Wittenbergplatz", "street": "Bayreuther Straße 44", "zip-code": 10787.0, "city": "Berlin", "planning-area-id": 7100101}}, {"type": "Feature", "geometry": {"type": "Point", "coordinates": [13.4427459, 52.4684978]}, "properties": {"id": "2325407968", "name": "Dafne-Apotheke", "street": "Karl-Marx-Straße 231-235", "zip-code": 12055.0, "city": "Berlin", "planning-area-id": 8100209}}, {"type": "Feature", "geometry": {"type": "Point", "coordinates": [13.3492398, 52.498265]}, "properties": {"id": "2365398263", "name": "Quartier Apotheke Motzstraße", "street": "Motzstraße 20", "zip-code": 10777.0, "city": "Berlin", "planning-area-id": 7100102}}, {"type": "Feature", "geometry": {"type": "Point", "coordinates": [13.3192004, 52.6065358]}, "properties": {"id": "2423122288", "name": "Octopus Apotheke", "street": "Waidmannsluster Damm 176", "zip-code": 13469.0, "city": "Berlin", "planning-area-id": 12500928}}, {"type": "Feature", "geometry": {"type": "Point", "coordinates": [13.6007627, 52.4766287]}, "properties": {"id": "2424327600", "name": "Süd-Apotheke", "street": "Hultschiner Damm 24", "zip-code": 12623.0, "city": "Berlin", "planning-area-id": 10400941}}, {"type": "Feature", "geometry": {"type": "Point", "coordinates": [13.3297842, 52.5696336]}, "properties": {"id": "2429162139", "name": "Löwen Apotheke", "street": "Ollenhauerstraße 110a", "zip-code": 13403.0, "city": "Berlin", "planning-area-id": 12200307}}, {"type": "Feature", "geometry": {"type": "Point", "coordinates": [13.2724807, 52.5101677]}, "properties": {"id": "2439759182", "name": "Lilien-Apotheke", "street": "Theodor-Heuss-Platz 6", "zip-code": 14052.0, "city": "Berlin", "planning-area-id": 4200310}}, {"type": "Feature", "geometry": {"type": "Point", "coordinates": [13.3215081, 52.4866571]}, "properties": {"id": "2445456645", "name": "Sylter Apotheke", "street": "Berliner Straße 37", "zip-code": 10715.0, "city": "Berlin", "planning-area-id": 4501147}}, {"type": "Feature", "geometry": {"type": "Point", "coordinates": [13.3299374, 52.478841]}, "properties": {"id": "2476268050", "name": "Blitz Apotheke", "street": "Wexstraße 30", "zip-code": 10715.0, "city": "Berlin", "planning-area-id": 4501153}}, {"type": "Feature", "geometry": {"type": "Point", "coordinates": [13.4358446, 52.4835661]}, "properties": {"id": "2484338009", "name": "Sonnenapotheke", "street": "Sonnenallee 76", "zip-code": 12045.0, "city": "Berlin", "planning-area-id": 8100314}}, {"type": "Feature", "geometry": {"type": "Point", "coordinates": [13.3870554, 52.4902187]}, "properties": {"id": "2496651331", "name": "Kreuzberg Apotheke", "street": "Mehringdamm 69", "zip-code": 10961.0, "city": "Berlin", "planning-area-id": 2200211}}, {"type": "Feature", "geometry": {"type": "Point", "coordinates": [13.4597629, 52.5504319]}, "properties": {"id": "2516120286", "name": "Flora-Apotheke", "street": "Berliner Allee 109", "zip-code": 13088.0, "city": "Berlin", "planning-area-id": 3500933}}, {"type": "Feature", "geometry": {"type": "Point", "coordinates": [13.4391375, 52.4762082]}, "properties": {"id": "2541179150", "name": "Apotheke Zum Elefanten", "street": "Karl-Marx-Straße 150", "zip-code": 12043.0, "city": "Berlin", "planning-area-id": 8100207}}, {"type": "Feature", "geometry": {"type": "Point", "coordinates": [13.3064648, 52.5065338]}, "properties": {"id": "2541258991", "name": "easyApotheke", "street": "Wilmersdorfer Straße 64", "zip-code": 10627.0, "city": "Berlin", "planning-area-id": 4300623}}, {"type": "Feature", "geometry": {"type": "Point", "coordinates": [13.3436227, 52.5251385]}, "properties": {"id": "2557710789", "name": "Spree-Apotheke", "street": "Alt-Moabit 89", "zip-code": 10559.0, "city": "Berlin", "planning-area-id": 1200626}}, {"type": "Feature", "geometry": {"type": "Point", "coordinates": [13.3826359, 52.4831066]}, "properties": {"id": "2638963983", "name": "Richthofen-Apotheke", "street": "Manfred-von-Richthofen-Straße 15", "zip-code": 12101.0, "city": "Berlin", "planning-area-id": 7400720}}, {"type": "Feature", "geometry": {"type": "Point", "coordinates": [13.3070112, 52.4663151]}, "properties": {"id": "2672518799", "name": "Korso-Apotheke", "street": "Schorlemerallee 1", "zip-code": 14195.0, "city": "Berlin", "planning-area-id": 6400844}}, {"type": "Feature", "geometry": {"type": "Point", "coordinates": [13.3046182, 52.5117094]}, "properties": {"id": "2713665583", "name": "Apotheke im Bismarck-Karree", "street": "Bismarckstraße 45-47", "zip-code": 10627.0, "city": "Berlin", "planning-area-id": 4300621}}, {"type": "Feature", "geometry": {"type": "Point", "coordinates": [13.3335365, 52.4523689]}, "properties": {"id": "2717366804", "name": "Stadtpark-Apotheke", "street": "Albrechtstraße 94", "zip-code": 12167.0, "city": "Berlin", "planning-area-id": 6100208}}, {"type": "Feature", "geometry": {"type": "Point", "coordinates": [13.317788, 52.4985147]}, "properties": {"id": "2779341569", "name": "Saint Charles Apotheke", "street": "Pariser Straße 20", "zip-code": 10707.0, "city": "Berlin", "planning-area-id": 4501043}}, {"type": "Feature", "geometry": {"type": "Point", "coordinates": [13.3255639, 52.6078978]}, "properties": {"id": "2782835460", "name": "Sanitas Apotheke", "street": "Oraniendamm 6-10", "zip-code": 13469.0, "city": "Berlin", "planning-area-id": 12601032}}, {"type": "Feature", "geometry": {"type": "Point", "coordinates": [13.4024813, 52.5221812]}, "properties": {"id": "2796710201", "name": "Apotheke Hackesches Quartier", "street": "Henriette-Herz-Platz 3", "zip-code": 10178.0, "city": "Berlin", "planning-area-id": 1100310}}, {"type": "Feature", "geometry": {"type": "Point", "coordinates": [13.5506904, 52.4387416]}, "properties": {"id": "2820029176", "name": "Apotheke an der Alten Schule", "street": "Dörpfeldstraße 55", "zip-code": 12489.0, "city": "Berlin", "planning-area-id": 9200717}}, {"type": "Feature", "geometry": {"type": "Point", "coordinates": [13.3593736, 52.5537834]}, "properties": {"id": "2829271312", "name": "Regenbogen Apotheke Berlin", "street": "", "zip-code": "", "city": "", "planning-area-id": 1401048}}, {"type": "Feature", "geometry": {"type": "Point", "coordinates": [13.3977794, 52.5347618]}, "properties": {"id": "2857712871", "name": "Achat Apotheke", "street": "Brunnenstraße 160", "zip-code": 10115.0, "city": "Berlin", "planning-area-id": 1100415}}, {"type": "Feature", "geometry": {"type": "Point", "coordinates": [13.4360037, 52.4245859]}, "properties": {"id": "2864467602", "name": "Post-Apotheke Buckow", "street": "", "zip-code": "", "city": "", "planning-area-id": 8200730}}, {"type": "Feature", "geometry": {"type": "Point", "coordinates": [13.4356893, 52.4231003]}, "properties": {"id": "2864491450", "name": "Apotheke Alt-Buckow", "street": "", "zip-code": "", "city": "", "planning-area-id": 8200832}}, {"type": "Feature", "geometry": {"type": "Point", "coordinates": [13.4273954, 52.4205157]}, "properties": {"id": "2867498526", "name": "Gertrauden Apotheke", "street": "", "zip-code": "", "city": "", "planning-area-id": 8200832}}, {"type": "Feature", "geometry": {"type": "Point", "coordinates": [13.1975405, 52.5323649]}, "properties": {"id": "2872185601", "name": "Kloster-Apotheke", "street": "Klosterstraße 6/7", "zip-code": 13581.0, "city": "Berlin", "planning-area-id": 5200629}}, {"type": "Feature", "geometry": {"type": "Point", "coordinates": [13.3612245, 52.5703596]}, "properties": {"id": "2952546845", "name": "Neue Apotheke", "street": "Residenzstraße 137", "zip-code": "", "city": "Berlin", "planning-area-id": 12100103}}, {"type": "Feature", "geometry": {"type": "Point", "coordinates": [13.3630766, 52.5667626]}, "properties": {"id": "2952573359", "name": "Residenz Apotheke", "street": "", "zip-code": "", "city": "", "planning-area-id": 12100102}}, {"type": "Feature", "geometry": {"type": "Point", "coordinates": [13.1446817, 52.4549833]}, "properties": {"id": "2969309057", "name": "Märkische Apotheke Kladow", "street": "Kladower Damm 366", "zip-code": 14089.0, "city": "Berlin", "planning-area-id": 5400944}}, {"type": "Feature", "geometry": {"type": "Point", "coordinates": [13.5939645, 52.4405588]}, "properties": {"id": "2998135448", "name": "Amtsfeld-Apotheke", "street": "Salvador-Allende-Straße 2–8", "zip-code": 12559.0, "city": "Berlin", "planning-area-id": 9401433}}, {"type": "Feature", "geometry": {"type": "Point", "coordinates": [13.5138972, 52.464407]}, "properties": {"id": "3012143573", "name": "Falken-Apotheke", "street": "Edisonstraße 18", "zip-code": 12459.0, "city": "Berlin", "planning-area-id": 9200511}}, {"type": "Feature", "geometry": {"type": "Point", "coordinates": [13.3763073, 52.4604721]}, "properties": {"id": "3041745938", "name": "Manteuffel-Apotheke", "street": "Manteuffelstraße 19", "zip-code": 12103.0, "city": "Berlin", "planning-area-id": 7400823}}, {"type": "Feature", "geometry": {"type": "Point", "coordinates": [13.5094017, 52.5745184]}, "properties": {"id": "3045761935", "name": "Amsel-Apotheke", "street": "Rostocker Straße 15", "zip-code": 13059.0, "city": "Berlin", "planning-area-id": 11100206}}, {"type": "Feature", "geometry": {"type": "Point", "coordinates": [13.3410681, 52.4952479]}, "properties": {"id": "3072343433", "name": "Apotheke am Viktoria-Luise-Platz", "street": "Viktoria-Luise-Platz 9", "zip-code": 10777.0, "city": "Berlin", "planning-area-id": 7100101}}, {"type": "Feature", "geometry": {"type": "Point", "coordinates": [13.3667283, 52.585693]}, "properties": {"id": "3074964331", "name": "Wilhelmsruher Apotheke", "street": "Hauptstraße 16", "zip-code": 13158.0, "city": "Berlin", "planning-area-id": 3400619}}, {"type": "Feature", "geometry": {"type": "Point", "coordinates": [13.4943853, 52.6343256]}, "properties": {"id": "3080747241", "name": "Ginkko-Apotheke", "street": "Walter-Friedrich-Straße 6", "zip-code": 13125.0, "city": "Berlin", "planning-area-id": 3100103}}, {"type": "Feature", "geometry": {"type": "Point", "coordinates": [13.3070697, 52.6169159]}, "properties": {"id": "3089158088", "name": "Leuchtturm Apotheke", "street": "Heinsestraße 32-34", "zip-code": 13467.0, "city": "Berlin", "planning-area-id": 12400722}}, {"type": "Feature", "geometry": {"type": "Point", "coordinates": [13.4955488, 52.6348377]}, "properties": {"id": "3112851447", "name": "Schlosspark-Apotheke", "street": "Walter-Friedrich-Straße 4A", "zip-code": 13125.0, "city": "Berlin", "planning-area-id": 3100103}}, {"type": "Feature", "geometry": {"type": "Point", "coordinates": [13.5645435, 52.5191748]}, "properties": {"id": "3118107216", "name": "Apotheke am ukb", "street": "", "zip-code": "", "city": "", "planning-area-id": 10300732}}, {"type": "Feature", "geometry": {"type": "Point", "coordinates": [13.342445, 52.4672036]}, "properties": {"id": "3157838594", "name": "Apotheke zum Zirkel", "street": "Beckerstraße 4", "zip-code": 12157.0, "city": "Berlin", "planning-area-id": 7300619}}, {"type": "Feature", "geometry": {"type": "Point", "coordinates": [13.3347336, 52.4713396]}, "properties": {"id": "3157917186", "name": "Lauter Apotheke", "street": "Rheinstraße 2", "zip-code": 12159.0, "city": "Berlin", "planning-area-id": 7300517}}, {"type": "Feature", "geometry": {"type": "Point", "coordinates": [13.4256151, 52.4875333]}, "properties": {"id": "3167654650", "name": "Apotheke am Hermannplatz", "street": "", "zip-code": "", "city": "", "planning-area-id": 8100314}}, {"type": "Feature", "geometry": {"type": "Point", "coordinates": [13.28343, 52.5912527]}, "properties": {"id": "3206454429", "name": "Karolinen Apotheke", "street": "Schloßstraße 5", "zip-code": 13507.0, "city": "Berlin", "planning-area-id": 12200515}}, {"type": "Feature", "geometry": {"type": "Point", "coordinates": [13.4247979, 52.4998605]}, "properties": {"id": "3216711374", "name": "Eick Apotheke", "street": "Oranienstraße 7", "zip-code": 10997.0, "city": "Berlin", "planning-area-id": 2300315}}, {"type": "Feature", "geometry": {"type": "Point", "coordinates": [13.3262168, 52.4622982]}, "properties": {"id": "3229138232", "name": "Diana Apotheke", "street": "Schloßstraße 116", "zip-code": 12163.0, "city": "Berlin", "planning-area-id": 6100103}}, {"type": "Feature", "geometry": {"type": "Point", "coordinates": [13.4855923, 52.616322]}, "properties": {"id": "3300157792", "name": "Karow Apotheke", "street": "Bucher Chaussee 1-3", "zip-code": 13125.0, "city": "Berlin", "planning-area-id": 3300411}}, {"type": "Feature", "geometry": {"type": "Point", "coordinates": [13.4258787, 52.5426874]}, "properties": {"id": "3307700070", "name": "Elisabeth Apotheke", "street": "Prenzlauer Allee 184", "zip-code": 10405.0, "city": "Berlin", "planning-area-id": 3601348}}, {"type": "Feature", "geometry": {"type": "Point", "coordinates": [13.4017313, 52.5299308]}, "properties": {"id": "3310052861", "name": "Sanimedius Apotheke", "street": "Weinbergsweg 1", "zip-code": 10119.0, "city": "Berlin", "planning-area-id": 1100416}}, {"type": "Feature", "geometry": {"type": "Point", "coordinates": [13.4237469, 52.5806283]}, "properties": {"id": "3310698935", "name": "Apotheke an der Galenusstraße", "street": "Galenusstraße 59", "zip-code": 13187.0, "city": "Berlin", "planning-area-id": 3400725}}, {"type": "Feature", "geometry": {"type": "Point", "coordinates": [13.4742827, 52.6119717]}, "properties": {"id": "3328474346", "name": "Birken-Apotheke Karow", "street": "Bahnhofstraße 17A", "zip-code": 13125.0, "city": "Berlin", "planning-area-id": 3300412}}, {"type": "Feature", "geometry": {"type": "Point", "coordinates": [13.3874475, 52.5196854]}, "properties": {"id": "3331787468", "name": "Aschenbachs Apotheke", "street": "Georgenstraße 25", "zip-code": 10117.0, "city": "Berlin", "planning-area-id": 1100206}}, {"type": "Feature", "geometry": {"type": "Point", "coordinates": [13.3417528, 52.526505]}, "properties": {"id": "3334327193", "name": "Apotheke 4.0", "street": "Turmstraße 29", "zip-code": 10551.0, "city": "Berlin", "planning-area-id": 1200520}}, {"type": "Feature", "geometry": {"type": "Point", "coordinates": [13.299693, 52.5233862]}, "properties": {"id": "3337674441", "name": "Kristall Apotheke", "street": "Tegeler Weg 3", "zip-code": 10589.0, "city": "Berlin", "planning-area-id": 4300517}}, {"type": "Feature", "geometry": {"type": "Point", "coordinates": [13.2994523, 52.5390832]}, "properties": {"id": "3337738729", "name": "Apotheke am Heckerdamm", "street": "Heckerdamm 225", "zip-code": 13627.0, "city": "Berlin", "planning-area-id": 4100102}}, {"type": "Feature", "geometry": {"type": "Point", "coordinates": [13.2003621, 52.5492831]}, "properties": {"id": "3337776414", "name": "Eva-Apotheke", "street": "Schönwalder Straße 78-79", "zip-code": 13585.0, "city": "Berlin", "planning-area-id": 5100312}}, {"type": "Feature", "geometry": {"type": "Point", "coordinates": [13.1854103, 52.5212776]}, "properties": {"id": "3338623569", "name": "Apotheke Wilhelmstraße", "street": "Wilhelmstraße 24B", "zip-code": 13593.0, "city": "Berlin", "planning-area-id": 5200527}}, {"type": "Feature", "geometry": {"type": "Point", "coordinates": [13.5237454, 52.4030313]}, "properties": {"id": "3338651114", "name": "Gesundheits-Apotheke", "street": "Schönefelder Chaussee 233", "zip-code": 12524.0, "city": "Berlin", "planning-area-id": 9300922}}, {"type": "Feature", "geometry": {"type": "Point", "coordinates": [13.335399, 52.6092923]}, "properties": {"id": "3339491292", "name": "Titisee Apotheke", "street": "Titiseestraße 5", "zip-code": 13469.0, "city": "Berlin", "planning-area-id": 12601032}}, {"type": "Feature", "geometry": {"type": "Point", "coordinates": [13.3346308, 52.5894338]}, "properties": {"id": "3340079413", "name": "Oran-Apotheke", "street": "Oranienburger Straße 60", "zip-code": 13437.0, "city": "Berlin", "planning-area-id": 12500926}}, {"type": "Feature", "geometry": {"type": "Point", "coordinates": [13.3787231, 52.5578575]}, "properties": {"id": "3341588831", "name": "Kolonie-Apotheke", "street": "Koloniestraße 22", "zip-code": 13359.0, "city": "Berlin", "planning-area-id": 1300730}}, {"type": "Feature", "geometry": {"type": "Point", "coordinates": [13.3621019, 52.4986655]}, "properties": {"id": "3343659161", "name": "Bülow Apotheke", "street": "Potsdamer Straße 134/136", "zip-code": 10783.0, "city": "Berlin", "planning-area-id": 7100103}}, {"type": "Feature", "geometry": {"type": "Point", "coordinates": [13.3887526, 52.548374]}, "properties": {"id": "3350477701", "name": "Nordkreuz Apotheke", "street": "", "zip-code": 13357.0, "city": "", "planning-area-id": 1300834}}, {"type": "Feature", "geometry": {"type": "Point", "coordinates": [13.3197716, 52.4576052]}, "properties": {"id": "3353191483", "name": "Berlinda Apotheke", "street": "Schloßstraße 34", "zip-code": 12163.0, "city": "Berlin", "planning-area-id": 6100102}}, {"type": "Feature", "geometry": {"type": "Point", "coordinates": [13.4108465, 52.567326]}, "properties": {"id": "3353229504", "name": "MediosApotheke", "street": "", "zip-code": 13187.0, "city": "Berlin", "planning-area-id": 3400723}}, {"type": "Feature", "geometry": {"type": "Point", "coordinates": [13.1977213, 52.5333159]}, "properties": {"id": "3353236089", "name": "Arcaden-Apotheke", "street": "", "zip-code": "", "city": "", "planning-area-id": 5200629}}, {"type": "Feature", "geometry": {"type": "Point", "coordinates": [13.3865318, 52.4561207]}, "properties": {"id": "3353252595", "name": "Arcaden-Apotheke", "street": "Tempelhofer Damm 227", "zip-code": 12099.0, "city": "Berlin", "planning-area-id": 7400927}}, {"type": "Feature", "geometry": {"type": "Point", "coordinates": [13.3275938, 52.4721004]}, "properties": {"id": "3354050334", "name": "Dr. Rudes Apotheke", "street": "Friedrich-Wilhelm-Platz 6", "zip-code": 12161.0, "city": "Berlin", "planning-area-id": 7300515}}, {"type": "Feature", "geometry": {"type": "Point", "coordinates": [13.3281255, 52.4745587]}, "properties": {"id": "3354056741", "name": "Rheingau Apotheke", "street": "Bundesallee 72", "zip-code": 12161.0, "city": "Berlin", "planning-area-id": 7300515}}, {"type": "Feature", "geometry": {"type": "Point", "coordinates": [13.4182329, 52.5361903]}, "properties": {"id": "3357535140", "name": "Kollwitz-Apotheke", "street": "", "zip-code": "", "city": "", "planning-area-id": 3701556}}, {"type": "Feature", "geometry": {"type": "Point", "coordinates": [13.3446673, 52.5438614]}, "properties": {"id": "3374665796", "name": "Krankenhaus-Apotheke", "street": "", "zip-code": "", "city": "", "planning-area-id": 1400938}}, {"type": "Feature", "geometry": {"type": "Point", "coordinates": [13.3754259, 52.4565876]}, "properties": {"id": "3411987196", "name": "Wittekind-Apotheke am Attilaplatz", "street": "Manteuffelstraße 32", "zip-code": 12103.0, "city": "Berlin", "planning-area-id": 7400823}}, {"type": "Feature", "geometry": {"type": "Point", "coordinates": [13.3968456, 52.5323503]}, "properties": {"id": "3446123445", "name": "Sophien-Apotheke", "street": "Invalidenstraße 157", "zip-code": 10115.0, "city": "Berlin", "planning-area-id": 1100415}}, {"type": "Feature", "geometry": {"type": "Point", "coordinates": [13.3535927, 52.4939336]}, "properties": {"id": "3472167668", "name": "Apotheke Goltzstraße", "street": "Goltzstraße 35", "zip-code": 10781.0, "city": "Berlin", "planning-area-id": 7100204}}, {"type": "Feature", "geometry": {"type": "Point", "coordinates": [13.3249245, 52.5015768]}, "properties": {"id": "3556800140", "name": "Fontane-Apotheke", "street": "Uhlandstraße 28", "zip-code": 10719.0, "city": "Berlin", "planning-area-id": 4501041}}, {"type": "Feature", "geometry": {"type": "Point", "coordinates": [13.3261596, 52.463688]}, "properties": {"id": "3625376503", "name": "Titania Apotheke", "street": "Markelstraße 3", "zip-code": 12163.0, "city": "Berlin", "planning-area-id": 6100103}}, {"type": "Feature", "geometry": {"type": "Point", "coordinates": [13.3533655, 52.4843624]}, "properties": {"id": "3632641123", "name": "Feurig-Apotheke", "street": "Hauptstraße 131", "zip-code": 10827.0, "city": "Berlin", "planning-area-id": 7200410}}, {"type": "Feature", "geometry": {"type": "Point", "coordinates": [13.3588471, 52.4885088]}, "properties": {"id": "3632641432", "name": "Pommern Apotheke", "street": "Hauptstraße 152", "zip-code": 10827.0, "city": "Berlin", "planning-area-id": 7200411}}, {"type": "Feature", "geometry": {"type": "Point", "coordinates": [13.5671809, 52.4440241]}, "properties": {"id": "3644288801", "name": "Schloss Apotheke", "street": "Rudower Straße 13", "zip-code": 12557.0, "city": "Berlin", "planning-area-id": 9200819}}, {"type": "Feature", "geometry": {"type": "Point", "coordinates": [13.5270224, 52.48275]}, "properties": {"id": "3652905896", "name": "Rheinstein-Apotheke", "street": "Rheinsteinstraße 4-10", "zip-code": 10318.0, "city": "Berlin", "planning-area-id": 11501340}}, {"type": "Feature", "geometry": {"type": "Point", "coordinates": [13.3418488, 52.4682275]}, "properties": {"id": "3662929427", "name": "Cranach Apotheke", "street": "Cranachstraße 6", "zip-code": 12157.0, "city": "Berlin", "planning-area-id": 7300619}}, {"type": "Feature", "geometry": {"type": "Point", "coordinates": [13.3384366, 52.4947915]}, "properties": {"id": "3666540067", "name": "Roland Apotheke", "street": "Motzstraße 68", "zip-code": 10777.0, "city": "Berlin", "planning-area-id": 7100101}}, {"type": "Feature", "geometry": {"type": "Point", "coordinates": [13.3306491, 52.5006408]}, "properties": {"id": "3675973919", "name": "Apotheke in der Metropole", "street": "Joachimsthaler Straße 21", "zip-code": 10719.0, "city": "Berlin", "planning-area-id": 4501042}}, {"type": "Feature", "geometry": {"type": "Point", "coordinates": [13.3317185, 52.5045271]}, "properties": {"id": "3678881033", "name": "Apotheke am Zoo", "street": "Joachimsthaler Straße 38", "zip-code": 10623.0, "city": "Berlin", "planning-area-id": 4501042}}, {"type": "Feature", "geometry": {"type": "Point", "coordinates": [13.4870512, 52.4659153]}, "properties": {"id": "3686215389", "name": "Mörike Apotheke", "street": "Baumschulenstraße 90-91", "zip-code": 12437.0, "city": "Berlin", "planning-area-id": 9100304}}, {"type": "Feature", "geometry": {"type": "Point", "coordinates": [13.4286374, 52.5328339]}, "properties": {"id": "3727826475", "name": "Greifswalder Apotheke", "street": "Greifswalder Straße 207A", "zip-code": "", "city": "", "planning-area-id": 3701659}}, {"type": "Feature", "geometry": {"type": "Point", "coordinates": [13.5197847, 52.4974009]}, "properties": {"id": "3770254015", "name": "Apotheke am Bärenschaufenster", "street": "Erich-Kurz-Straße 11", "zip-code": 10319.0, "city": "Berlin", "planning-area-id": 11401137}}, {"type": "Feature", "geometry": {"type": "Point", "coordinates": [13.5063233, 52.5648805]}, "properties": {"id": "3772676294", "name": "Linden-Apotheke", "street": "Prerower Platz 1", "zip-code": 13051.0, "city": "Berlin", "planning-area-id": 11100307}}, {"type": "Feature", "geometry": {"type": "Point", "coordinates": [13.4299259, 52.4864104]}, "properties": {"id": "3775184617", "name": "Pannier-Apotheke", "street": "", "zip-code": "", "city": "", "planning-area-id": 8100311}}, {"type": "Feature", "geometry": {"type": "Point", "coordinates": [13.5798681, 52.4598672]}, "properties": {"id": "3803786798", "name": "Apotheke im Gesundheitsforum Köpenick", "street": "", "zip-code": "", "city": "", "planning-area-id": 9502043}}, {"type": "Feature", "geometry": {"type": "Point", "coordinates": [13.3508484, 52.4984847]}, "properties": {"id": "3826013963", "name": "Magnus Apotheke", "street": "Motzstraße 11", "zip-code": 10777.0, "city": "Berlin", "planning-area-id": 7100102}}, {"type": "Feature", "geometry": {"type": "Point", "coordinates": [13.3522231, 52.4993503]}, "properties": {"id": "3826455882", "name": "Quartier Apotheke Nolleturm", "street": "Nollendorfplatz 3-4", "zip-code": 10777.0, "city": "Berlin", "planning-area-id": 7100102}}, {"type": "Feature", "geometry": {"type": "Point", "coordinates": [13.3489734, 52.500298]}, "properties": {"id": "3826455892", "name": "ViaPharm", "street": "Kleiststraße 34", "zip-code": 10787.0, "city": "Berlin", "planning-area-id": 7100102}}, {"type": "Feature", "geometry": {"type": "Point", "coordinates": [13.3665376, 52.5027647]}, "properties": {"id": "3834271596", "name": "Humboldt-Apotheke", "street": "Lützowstraße 93", "zip-code": 10785.0, "city": "Berlin", "planning-area-id": 1100104}}, {"type": "Feature", "geometry": {"type": "Point", "coordinates": [13.3490721, 52.4883801]}, "properties": {"id": "3844572789", "name": "St. Annen Apotheke", "street": "Eisenacher Straße 46", "zip-code": 10823.0, "city": "Berlin", "planning-area-id": 7200409}}, {"type": "Feature", "geometry": {"type": "Point", "coordinates": [13.3544313, 52.498601]}, "properties": {"id": "3859397154", "name": "Quartier Apotheke Maaßenstraße", "street": "Maaßenstraße 3", "zip-code": 10777.0, "city": "Berlin", "planning-area-id": 7100103}}, {"type": "Feature", "geometry": {"type": "Point", "coordinates": [13.3197952, 52.5027976]}, "properties": {"id": "3861762721", "name": "Hermes-Apotheke", "street": "Bleibtreustraße 40", "zip-code": 10623.0, "city": "Berlin", "planning-area-id": 4501041}}, {"type": "Feature", "geometry": {"type": "Point", "coordinates": [13.5171942, 52.4618568]}, "properties": {"id": "3883143867", "name": "Sonnen-Apotheke", "street": "Wilhelminenhofstraße 27", "zip-code": 12459.0, "city": "Berlin", "planning-area-id": 9200511}}, {"type": "Feature", "geometry": {"type": "Point", "coordinates": [13.5184661, 52.4638103]}, "properties": {"id": "3883215153", "name": "Kant - Apotheke", "street": "Griechische Allee 24", "zip-code": 12459.0, "city": "Berlin", "planning-area-id": 9200511}}, {"type": "Feature", "geometry": {"type": "Point", "coordinates": [13.3356849, 52.4510523]}, "properties": {"id": "3914041314", "name": "Sedan Apotheke", "street": "Albrechtstraße 41", "zip-code": 12167.0, "city": "Berlin", "planning-area-id": 6100206}}, {"type": "Feature", "geometry": {"type": "Point", "coordinates": [13.3929225, 52.5427547]}, "properties": {"id": "3941585864", "name": "Jasmin Apotheke", "street": "Lortzingstraße 42", "zip-code": 13355.0, "city": "Berlin", "planning-area-id": 1300834}}, {"type": "Feature", "geometry": {"type": "Point", "coordinates": [13.5867921, 52.4522616]}, "properties": {"id": "3978727083", "name": "Pharmland", "street": "", "zip-code": "", "city": "", "planning-area-id": 9501941}}, {"type": "Feature", "geometry": {"type": "Point", "coordinates": [13.5705133, 52.5574272]}, "properties": {"id": "3987051088", "name": "Casana-Apotheke", "street": "Oberweißbacher Straße 7-9", "zip-code": 12687.0, "city": "Berlin", "planning-area-id": 10100206}}, {"type": "Feature", "geometry": {"type": "Point", "coordinates": [13.6207446, 52.5302632]}, "properties": {"id": "4010310541", "name": "Sonnenhut Apotheke", "street": "Riesaer Straße 102", "zip-code": 12627.0, "city": "Berlin", "planning-area-id": 10200525}}, {"type": "Feature", "geometry": {"type": "Point", "coordinates": [13.5484221, 52.5441347]}, "properties": {"id": "4116109275", "name": "Marzahner Apotheke", "street": "", "zip-code": "", "city": "", "planning-area-id": 10100210}}, {"type": "Feature", "geometry": {"type": "Point", "coordinates": [13.4538009, 52.4885571]}, "properties": {"id": "4119531056", "name": "Bären-Apotheke", "street": "Elsenstraße 99", "zip-code": 12435.0, "city": "Berlin", "planning-area-id": 9100101}}, {"type": "Feature", "geometry": {"type": "Point", "coordinates": [13.385108, 52.5506141]}, "properties": {"id": "4197401453", "name": "Die Herz Apotheke", "street": "Badstraße 12", "zip-code": "", "city": "", "planning-area-id": 1300733}}, {"type": "Feature", "geometry": {"type": "Point", "coordinates": [13.6022698, 52.5376932]}, "properties": {"id": "4221018789", "name": "Apotheke Helle Mitte", "street": "Fritz-Lang-Platz 6", "zip-code": 12627.0, "city": "", "planning-area-id": 10200421}}, {"type": "Feature", "geometry": {"type": "Point", "coordinates": [13.3544811, 52.5487229]}, "properties": {"id": "4234162689", "name": "Diana Apotheke", "street": "Müllerstraße 142", "zip-code": 13353.0, "city": "Berlin", "planning-area-id": 1400942}}, {"type": "Feature", "geometry": {"type": "Point", "coordinates": [13.6028472, 52.536915]}, "properties": {"id": "4235016190", "name": "Grüne Apotheke", "street": "Fritz-Lang-Straße 5", "zip-code": 12627.0, "city": "", "planning-area-id": 10200421}}, {"type": "Feature", "geometry": {"type": "Point", "coordinates": [13.5777029, 52.4569682]}, "properties": {"id": "4304413093", "name": "DocKöpenick", "street": "Bahnhofstraße 41", "zip-code": 12555.0, "city": "Berlin", "planning-area-id": 9501939}}, {"type": "Feature", "geometry": {"type": "Point", "coordinates": [13.197578, 52.5191421]}, "properties": {"id": "4318602145", "name": "Melanchthon Apotheke", "street": "", "zip-code": "", "city": "", "planning-area-id": 5200630}}, {"type": "Feature", "geometry": {"type": "Point", "coordinates": [13.3075874, 52.50064]}, "properties": {"id": "4347330563", "name": "Apotheke am Adenauerplatz", "street": "", "zip-code": "", "city": "", "planning-area-id": 4501040}}, {"type": "Feature", "geometry": {"type": "Point", "coordinates": [13.4607566, 52.5937649]}, "properties": {"id": "4365384392", "name": "Löwenburg-Apotheke", "street": "Alt-Blankenburg 67a", "zip-code": 13129.0, "city": "Berlin", "planning-area-id": 3300514}}, {"type": "Feature", "geometry": {"type": "Point", "coordinates": [13.3276877, 52.4796809]}, "properties": {"id": "4381928183", "name": "Apotheke am Bundesplatz", "street": "Bundesplatz 3", "zip-code": 10715.0, "city": "Berlin", "planning-area-id": 4501151}}, {"type": "Feature", "geometry": {"type": "Point", "coordinates": [13.3815377, 52.5162403]}, "properties": {"id": "4385486650", "name": "Brandenburger Tor Apotheke", "street": "", "zip-code": "", "city": "", "planning-area-id": 1100206}}, {"type": "Feature", "geometry": {"type": "Point", "coordinates": [13.660795, 52.4125675]}, "properties": {"id": "4396193589", "name": "Müggel-Apotheke", "street": "", "zip-code": "", "city": "", "planning-area-id": 9401635}}, {"type": "Feature", "geometry": {"type": "Point", "coordinates": [13.3840737, 52.4586221]}, "properties": {"id": "4396385781", "name": "Apotheke am T-Damm", "street": "Tempelhofer Damm 198-200", "zip-code": 12099.0, "city": "Berlin", "planning-area-id": 7400825}}, {"type": "Feature", "geometry": {"type": "Point", "coordinates": [13.324363, 52.5651319]}, "properties": {"id": "4413004968", "name": "Rosen-Apotheke", "street": "", "zip-code": "", "city": "", "planning-area-id": 12200309}}, {"type": "Feature", "geometry": {"type": "Point", "coordinates": [13.3863624, 52.5281171]}, "properties": {"id": "4415351535", "name": "Humboldt-Apotheke", "street": "Chausseestraße 7", "zip-code": 10115.0, "city": "Berlin", "planning-area-id": 1100415}}, {"type": "Feature", "geometry": {"type": "Point", "coordinates": [13.3801354, 52.5529761]}, "properties": {"id": "4436482370", "name": "Dafne Apotheke", "street": "Badstraße 32", "zip-code": 13357.0, "city": "Berlin", "planning-area-id": 1401045}}, {"type": "Feature", "geometry": {"type": "Point", "coordinates": [13.4943757, 52.6343857]}, "properties": {"id": "4439765092", "name": "Drive In", "street": "", "zip-code": "", "city": "", "planning-area-id": 3100103}}, {"type": "Feature", "geometry": {"type": "Point", "coordinates": [13.4786116, 52.4806678]}, "properties": {"id": "4444766336", "name": "Apotheke am Plänterwald", "street": "", "zip-code": "", "city": "", "planning-area-id": 9100203}}, {"type": "Feature", "geometry": {"type": "Point", "coordinates": [13.410495, 52.3943701]}, "properties": {"id": "4485201590", "name": "Apotheke Alt-Lichtenrade", "street": "Groß-Ziethener Straße 35", "zip-code": 12309.0, "city": "Berlin", "planning-area-id": 7601443}}, {"type": "Feature", "geometry": {"type": "Point", "coordinates": [13.3478529, 52.4497048]}, "properties": {"id": "4508100704", "name": "Südend-Apotheke", "street": "Steglitzer Damm 68", "zip-code": 12169.0, "city": "Berlin", "planning-area-id": 6100205}}, {"type": "Feature", "geometry": {"type": "Point", "coordinates": [13.4751797, 52.553737]}, "properties": {"id": "4514495946", "name": "Falken-Apotheke", "street": "", "zip-code": "", "city": "", "planning-area-id": 3501037}}, {"type": "Feature", "geometry": {"type": "Point", "coordinates": [13.3621478, 52.56738]}, "properties": {"id": "4580235141", "name": "easyApotheke Residenzstraße", "street": "Residenzstraße 33", "zip-code": 13409.0, "city": "Berlin", "planning-area-id": 12100204}}, {"type": "Feature", "geometry": {"type": "Point", "coordinates": [13.2694016, 52.4495841]}, "properties": {"id": "4590302593", "name": "Bärenapotheke", "street": "Clayallee 225", "zip-code": 14195.0, "city": "Berlin", "planning-area-id": 6400842}}, {"type": "Feature", "geometry": {"type": "Point", "coordinates": [13.715511, 52.4315546]}, "properties": {"id": "4590578897", "name": "Schneemann´s Apotheke Rahnsdorf", "street": "Fürstenwalder Allee 318", "zip-code": 12589.0, "city": "Berlin", "planning-area-id": 9501838}}, {"type": "Feature", "geometry": {"type": "Point", "coordinates": [13.3456239, 52.5662533]}, "properties": {"id": "4630466562", "name": "Wilhelm-Tell-Apotheke", "street": "", "zip-code": "", "city": "", "planning-area-id": 12100204}}, {"type": "Feature", "geometry": {"type": "Point", "coordinates": [13.3514899, 52.5678274]}, "properties": {"id": "4630466565", "name": "Primus-Apotheke", "street": "", "zip-code": "", "city": "", "planning-area-id": 12100205}}, {"type": "Feature", "geometry": {"type": "Point", "coordinates": [13.3082149, 52.467232]}, "properties": {"id": "4656560689", "name": "Zwilling Apotheke", "street": "", "zip-code": "", "city": "", "planning-area-id": 6400844}}, {"type": "Feature", "geometry": {"type": "Point", "coordinates": [13.4566633, 52.5290131]}, "properties": {"id": "4682866291", "name": "Haus Apotheke", "street": "Landsberger Allee 117", "zip-code": 10407.0, "city": "Berlin", "planning-area-id": 3601450}}, {"type": "Feature", "geometry": {"type": "Point", "coordinates": [13.6254184, 52.4544602]}, "properties": {"id": "4715153492", "name": "Rathaus-Apotheke", "street": "Bölschestraße 59", "zip-code": 12587.0, "city": "Berlin", "planning-area-id": 9501737}}, {"type": "Feature", "geometry": {"type": "Point", "coordinates": [13.3487888, 52.5520193]}, "properties": {"id": "4737978945", "name": "Kleo Apotheke", "street": "Müllerstraße 130", "zip-code": 13349.0, "city": "Berlin", "planning-area-id": 1400938}}, {"type": "Feature", "geometry": {"type": "Point", "coordinates": [13.5926423, 52.5292971]}, "properties": {"id": "4767441824", "name": "Corso Apotheke", "street": "", "zip-code": "", "city": "", "planning-area-id": 10200628}}, {"type": "Feature", "geometry": {"type": "Point", "coordinates": [13.5924702, 52.5463275]}, "properties": {"id": "4936116186", "name": "", "street": "", "zip-code": "", "city": "", "planning-area-id": 10200417}}, {"type": "Feature", "geometry": {"type": "Point", "coordinates": [13.4092711, 52.3870475]}, "properties": {"id": "4936408725", "name": "puls Apotheke", "street": "Goltzstraße 39", "zip-code": 12307.0, "city": "Berlin", "planning-area-id": 7601547}}, {"type": "Feature", "geometry": {"type": "Point", "coordinates": [13.3351723, 52.5035548]}, "properties": {"id": "5099191724", "name": "Apotheke des Westens", "street": "Rankestraße 34", "zip-code": 10789.0, "city": "Berlin", "planning-area-id": 4501042}}, {"type": "Feature", "geometry": {"type": "Point", "coordinates": [13.320417, 52.5014929]}, "properties": {"id": "5136059327", "name": "Apotheke am Kurfürstendamm", "street": "Kurfürstendamm 200", "zip-code": 10719.0, "city": "Berlin", "planning-area-id": 4501041}}, {"type": "Feature", "geometry": {"type": "Point", "coordinates": [13.3682051, 52.5869484]}, "properties": {"id": "5168728119", "name": "Edelweiss Apotheke", "street": "Hauptstraße 29A", "zip-code": 13158.0, "city": "Berlin", "planning-area-id": 3400619}}, {"type": "Feature", "geometry": {"type": "Point", "coordinates": [13.3090809, 52.5163596]}, "properties": {"id": "5181703340", "name": "Königliche Hof-Apotheke", "street": "Otto-Suhr-Allee 89", "zip-code": 10585.0, "city": "Berlin", "planning-area-id": 4300621}}, {"type": "Feature", "geometry": {"type": "Point", "coordinates": [13.3688276, 52.5608476]}, "properties": {"id": "5244950366", "name": "Tilia Apotheke", "street": "", "zip-code": "", "city": "", "planning-area-id": 12100101}}, {"type": "Feature", "geometry": {"type": "Point", "coordinates": [13.4674421, 52.5531267]}, "properties": {"id": "5266816861", "name": "Apotheke am Weißen See", "street": "Berliner Allee 168", "zip-code": 13088.0, "city": "Berlin", "planning-area-id": 3501038}}, {"type": "Feature", "geometry": {"type": "Point", "coordinates": [13.5107243, 52.4564723]}, "properties": {"id": "5381166353", "name": "Kiez-Apotheke", "street": "Schnellerstraße 127", "zip-code": 12439.0, "city": "Berlin", "planning-area-id": 9200613}}, {"type": "Feature", "geometry": {"type": "Point", "coordinates": [13.422458, 52.5609831]}, "properties": {"id": "5471345775", "name": "Center Apotheke", "street": "", "zip-code": "", "city": "", "planning-area-id": 3400829}}, {"type": "Feature", "geometry": {"type": "Point", "coordinates": [13.3265646, 52.4797463]}, "properties": {"id": "5505144605", "name": "Thüringer Apotheke", "street": "Mainzer Straße 13", "zip-code": 10715.0, "city": "Berlin", "planning-area-id": 4501151}}, {"type": "Feature", "geometry": {"type": "Point", "coordinates": [13.2594338, 52.4350381]}, "properties": {"id": "5539552743", "name": "Apotheke an der Dorfkirche", "street": "Potsdamer Straße 53", "zip-code": 14163.0, "city": "Berlin", "planning-area-id": 6300526}}, {"type": "Feature", "geometry": {"type": "Point", "coordinates": [13.4961631, 52.4167392]}, "properties": {"id": "5558763418", "name": "Kloster-Apotheke", "street": "", "zip-code": "", "city": "", "planning-area-id": 8401243}}, {"type": "Feature", "geometry": {"type": "Point", "coordinates": [13.6093932, 52.5336443]}, "properties": {"id": "5570687529", "name": "Linden-Apotheke", "street": "Mark-Twain-Straße 1", "zip-code": 12627.0, "city": "", "planning-area-id": 10200524}}, {"type": "Feature", "geometry": {"type": "Point", "coordinates": [13.3627094, 52.4852031]}, "properties": {"id": "5617991157", "name": "Zedern-Apotheke", "street": "Gustav-Müller-Straße 48", "zip-code": 10829.0, "city": "Berlin", "planning-area-id": 7200413}}, {"type": "Feature", "geometry": {"type": "Point", "coordinates": [13.3083377, 52.6178582]}, "properties": {"id": "5625098623", "name": "Hermsdorfer Apotheke", "street": "", "zip-code": "", "city": "", "planning-area-id": 12400723}}, {"type": "Feature", "geometry": {"type": "Point", "coordinates": [13.4135467, 52.5409918]}, "properties": {"id": "5777420980", "name": "Schönhauser Apotheke", "street": "Danziger Straße 5", "zip-code": 10435.0, "city": "", "planning-area-id": 3601347}}, {"type": "Feature", "geometry": {"type": "Point", "coordinates": [13.3449085, 52.4638126]}, "properties": {"id": "5838129619", "name": "Apotheke im Policum", "street": "", "zip-code": 12157.0, "city": "", "planning-area-id": 7300619}}, {"type": "Feature", "geometry": {"type": "Point", "coordinates": [13.3437617, 52.5279243]}, "properties": {"id": "5844370747", "name": "Premium Apotheke", "street": "", "zip-code": "", "city": "", "planning-area-id": 1200625}}, {"type": "Feature", "geometry": {"type": "Point", "coordinates": [13.1918731, 52.5286371]}, "properties": {"id": "5971003197", "name": "Die Herz Apotheke", "street": "Seeburger Straße 8", "zip-code": 13581.0, "city": "Berlin", "planning-area-id": 5200629}}, {"type": "Feature", "geometry": {"type": "Point", "coordinates": [13.4355276, 52.5353496]}, "properties": {"id": "6006371223", "name": "Lorbeer-Apotheke", "street": "Danziger Straße 133", "zip-code": 10407.0, "city": "Berlin", "planning-area-id": 3601451}}, {"type": "Feature", "geometry": {"type": "Point", "coordinates": [13.3736538, 52.506893]}, "properties": {"id": "6143046477", "name": "Pluspunkt Apotheke Potsdamer Platz", "street": "", "zip-code": "", "city": "", "planning-area-id": 1100102}}, {"type": "Feature", "geometry": {"type": "Point", "coordinates": [13.4974134, 52.5464133]}, "properties": {"id": "6200110157", "name": "Adler-Apotheke", "street": "Konrad-Wolf-Straße 132", "zip-code": 13055.0, "city": "Berlin", "planning-area-id": 11200411}}, {"type": "Feature", "geometry": {"type": "Point", "coordinates": [13.340043, 52.5011294]}, "properties": {"id": "6254464585", "name": "Apotheke im KaDeWe", "street": "", "zip-code": "", "city": "", "planning-area-id": 7100101}}, {"type": "Feature", "geometry": {"type": "Point", "coordinates": [13.3223333, 52.5017853]}, "properties": {"id": "6308903438", "name": "Bio 7.0 Apotheke", "street": "Kurfürstendamm 203-205", "zip-code": 10719.0, "city": "Berlin", "planning-area-id": 4501041}}, {"type": "Feature", "geometry": {"type": "Point", "coordinates": [13.3379088, 52.4740181]}, "properties": {"id": "6316429002", "name": "Stier-Apotheke", "street": "Hauptstraße 76", "zip-code": 12159.0, "city": "Berlin", "planning-area-id": 7300517}}, {"type": "Feature", "geometry": {"type": "Point", "coordinates": [13.3567494, 52.5622445]}, "properties": {"id": "6501792388", "name": "Am Schäfersee", "street": "", "zip-code": "", "city": "", "planning-area-id": 12100204}}, {"type": "Feature", "geometry": {"type": "Point", "coordinates": [13.3791115, 52.5339592]}, "properties": {"id": "6510008627", "name": "Feuerland-Apotheke", "street": "Chausseestraße 42", "zip-code": 10115.0, "city": "Berlin", "planning-area-id": 1100414}}, {"type": "Feature", "geometry": {"type": "Point", "coordinates": [13.3999635, 52.4444414]}, "properties": {"id": "6518240976", "name": "OLMS-Apotheke", "street": "Rixdorfer Straße 117", "zip-code": 12109.0, "city": "Berlin", "planning-area-id": 7501032}}, {"type": "Feature", "geometry": {"type": "Point", "coordinates": [13.4677235, 52.5556865]}, "properties": {"id": "6709515830", "name": "Amalien-Apotheke", "street": "Berliner Allee 196", "zip-code": 13088.0, "city": "Berlin", "planning-area-id": 3501037}}, {"type": "Feature", "geometry": {"type": "Point", "coordinates": [13.5780562, 52.4209973]}, "properties": {"id": "6939573755", "name": "Apotheke an der Dahme", "street": "Regattastraße 79", "zip-code": 12527.0, "city": "Berlin", "planning-area-id": 9301126}}, {"type": "Feature", "geometry": {"type": "Point", "coordinates": [13.3825855, 52.512012]}, "properties": {"id": "7039246613", "name": "Apotheke im Regierungsviertel", "street": "Wilhelmstraße 93", "zip-code": 10117.0, "city": "Berlin", "planning-area-id": 1100205}}, {"type": "Feature", "geometry": {"type": "Point", "coordinates": [13.4257337, 52.4779916]}, "properties": {"id": "7039503416", "name": "Die City Apotheke", "street": "Hermannstraße 51", "zip-code": 12049.0, "city": "Berlin", "planning-area-id": 8100102}}, {"type": "Feature", "geometry": {"type": "Point", "coordinates": [13.6130564, 52.5062602]}, "properties": {"id": "7072465637", "name": "Neumann Apotheke", "street": "Hönower Straße 16", "zip-code": 12623.0, "city": "Berlin", "planning-area-id": 10400939}}, {"type": "Feature", "geometry": {"type": "Point", "coordinates": [13.5073306, 52.4938077]}, "properties": {"id": "7090489961", "name": "Dolgensee-Apotheke", "street": "Dolgenseestraße 8a", "zip-code": 10319.0, "city": "Berlin", "planning-area-id": 11401135}}, {"type": "Feature", "geometry": {"type": "Point", "coordinates": [13.4343492, 52.5533211]}, "properties": {"id": "7093679841", "name": "Reseda-Apotheke", "street": "", "zip-code": "", "city": "", "planning-area-id": 3500934}}, {"type": "Feature", "geometry": {"type": "Point", "coordinates": [13.3473596, 52.4146728]}, "properties": {"id": "7223008667", "name": "Burg-Apotheke", "street": "", "zip-code": "", "city": "", "planning-area-id": 7601339}}, {"type": "Feature", "geometry": {"type": "Point", "coordinates": [13.4995745, 52.5609423]}, "properties": {"id": "7235438319", "name": "Schneemanns Apotheke", "street": "Hansastraße 236", "zip-code": 13051.0, "city": "Berlin", "planning-area-id": 11200410}}, {"type": "Feature", "geometry": {"type": "Point", "coordinates": [13.3333185, 52.4723391]}, "properties": {"id": "7551664105", "name": "Rathaus-Apotheke Friedenau", "street": "Niedstraße 35", "zip-code": 12159.0, "city": "Berlin", "planning-area-id": 7300517}}, {"type": "Feature", "geometry": {"type": "Point", "coordinates": [13.2042266, 52.5371206]}, "properties": {"id": "7627061713", "name": "Fontane Apotheke", "street": "", "zip-code": "", "city": "", "planning-area-id": 5100316}}, {"type": "Feature", "geometry": {"type": "Point", "coordinates": [13.3405964, 52.4881753]}, "properties": {"id": "7723893754", "name": "Unsere Apotheke", "street": "Bayerischer Platz 9", "zip-code": 10779.0, "city": "Berlin", "planning-area-id": 7200307}}, {"type": "Feature", "geometry": {"type": "Point", "coordinates": [13.4285582, 52.5459056]}, "properties": {"id": "7822423712", "name": "Herzpunkt Apotheke", "street": "", "zip-code": "", "city": "", "planning-area-id": 3601245}}, {"type": "Feature", "geometry": {"type": "Point", "coordinates": [13.1632186, 52.5218384]}, "properties": {"id": "7829177030", "name": "Zentrum Apotheke", "street": "Obstallee 28-30", "zip-code": 13593.0, "city": "Berlin", "planning-area-id": 5200527}}, {"type": "Feature", "geometry": {"type": "Point", "coordinates": [13.3813694, 52.5099653]}, "properties": {"id": "7843356143", "name": "Apotheke am Leipziger Platz", "street": "Leipziger Platz 12", "zip-code": "", "city": "", "planning-area-id": 1100205}}, {"type": "Feature", "geometry": {"type": "Point", "coordinates": [13.2289448, 52.5846771]}, "properties": {"id": "7858528547", "name": "", "street": "", "zip-code": "", "city": "", "planning-area-id": 12400616}}, {"type": "Feature", "geometry": {"type": "Point", "coordinates": [13.4757401, 52.5145858]}, "properties": {"id": "7887845846", "name": "Apotheke im Ring-Center II", "street": "Frankfurter Allee 113-117", "zip-code": 10365.0, "city": "Berlin", "planning-area-id": 2500729}}, {"type": "Feature", "geometry": {"type": "Point", "coordinates": [13.295222, 52.505317]}, "properties": {"id": "7924001320", "name": "Cäcilien Apotheke", "street": "Holtzendorffstraße 16", "zip-code": 14057.0, "city": "Berlin", "planning-area-id": 4300416}}, {"type": "Feature", "geometry": {"type": "Point", "coordinates": [13.4404067, 52.4990942]}, "properties": {"id": "7951875987", "name": "Fürst Bismarck Apotheke", "street": "Wrangelstraße 47", "zip-code": 10997.0, "city": "Berlin", "planning-area-id": 2300419}}, {"type": "Feature", "geometry": {"type": "Point", "coordinates": [13.6204854, 52.536995]}, "properties": {"id": "8139335201", "name": "Löwenzahn Apotheke", "street": "Louis-Lewin-Straße 99", "zip-code": 12627.0, "city": "Berlin", "planning-area-id": 10200524}}, {"type": "Feature", "geometry": {"type": "Point", "coordinates": [13.4954864, 52.5702396]}, "properties": {"id": "8463977955", "name": "Löwenzahn-Apotheke", "street": "Ribnitzer Straße 24", "zip-code": 13051.0, "city": "Berlin", "planning-area-id": 11100308}}, {"type": "Feature", "geometry": {"type": "Point", "coordinates": [13.5711546, 52.5646969]}, "properties": {"id": "8464152653", "name": "Känguruh-Apotheke", "street": "Wittenberger Straße 72", "zip-code": 12689.0, "city": "Berlin", "planning-area-id": 10100103}}, {"type": "Feature", "geometry": {"type": "Point", "coordinates": [13.5686949, 52.5684906]}, "properties": {"id": "8464152657", "name": "Atrium-Apotheke", "street": "", "zip-code": "", "city": "", "planning-area-id": 10100103}}, {"type": "Feature", "geometry": {"type": "Point", "coordinates": [13.5608781, 52.5554393]}, "properties": {"id": "8487216786", "name": "Hufeland-Apotheke", "street": "Mehrower Allee 22", "zip-code": 12687.0, "city": "Berlin", "planning-area-id": 10100208}}, {"type": "Feature", "geometry": {"type": "Point", "coordinates": [13.4286319, 52.5487826]}, "properties": {"id": "8668129617", "name": "Rialto", "street": "", "zip-code": "", "city": "", "planning-area-id": 3601244}}, {"type": "Feature", "geometry": {"type": "Point", "coordinates": [13.4430026, 52.4982597]}, "properties": {"id": "8754381377", "name": "Lukas Apotheke", "street": "Wrangelstraße 78", "zip-code": "", "city": "", "planning-area-id": 2300419}}, {"type": "Feature", "geometry": {"type": "Point", "coordinates": [13.2597431, 52.4330755]}, "properties": {"id": "8761696565", "name": "Zehlendorf Apotheke", "street": "Teltower Damm 19", "zip-code": 14169.0, "city": "Berlin", "planning-area-id": 6300526}}, {"type": "Feature", "geometry": {"type": "Point", "coordinates": [13.4318468, 52.4818918]}, "properties": {"id": "9048798363", "name": "easyApotheke", "street": "Karl-Marx-Straße 66", "zip-code": 12043.0, "city": "Berlin", "planning-area-id": 8100206}}, {"type": "Feature", "geometry": {"type": "Point", "coordinates": [13.3915053, 52.4325061]}, "properties": {"id": "9286730166", "name": "Apotheke zum Stift", "street": "", "zip-code": "", "city": "", "planning-area-id": 7501134}}, {"type": "Feature", "geometry": {"type": "Point", "coordinates": [13.3852028, 52.4682465]}, "properties": {"id": "9665677325", "name": "Pelikan Discount Apotheke", "street": "Tempelhofer Damm 126", "zip-code": 12099.0, "city": "Berlin", "planning-area-id": 7400824}}, {"type": "Feature", "geometry": {"type": "Point", "coordinates": [13.2887772, 52.4764885]}, "properties": {"id": "9705828231", "name": "Grüne Apotheke Schmargendorf", "street": "Berkaer Straße 41,42", "zip-code": 14199.0, "city": "Berlin", "planning-area-id": 4400830}}, {"type": "Feature", "geometry": {"type": "Point", "coordinates": [13.5380235, 52.5340933]}, "properties": {"id": "9799003817", "name": "Bromelia Apotheke", "street": "Märkische Allee 172", "zip-code": 12681.0, "city": "", "planning-area-id": 10100312}}, {"type": "Feature", "geometry": {"type": "Point", "coordinates": [13.1620771, 52.521879]}, "properties": {"id": "9818005937", "name": "Apotheke Heerstraße-Nord", "street": "", "zip-code": "", "city": "", "planning-area-id": 5200526}}, {"type": "Feature", "geometry": {"type": "Point", "coordinates": [13.4030883, 52.4153134]}, "properties": {"id": "9861117952", "name": "Panda-Apotheke", "street": "Marienfelder Chaussee 160", "zip-code": 12349.0, "city": "Berlin", "planning-area-id": 8200831}}, {"type": "Feature", "geometry": {"type": "Point", "coordinates": [13.2182016, 52.5378356]}, "properties": {"id": "9875439641", "name": "easyApotheke", "street": "", "zip-code": "", "city": "", "planning-area-id": 5300736}}, {"type": "Feature", "geometry": {"type": "Point", "coordinates": [13.3284535, 52.5642372]}, "properties": {"id": "9901787917", "name": "Apotheke am Kutschi", "street": "Ollenhauerstraße 3-5", "zip-code": 13403.0, "city": "", "planning-area-id": 12100205}}, {"type": "Feature", "geometry": {"type": "Point", "coordinates": [13.3824627, 52.4387079]}, "properties": {"id": "9975155187", "name": "Park-Apotheke", "street": "Forddamm 6-8", "zip-code": 12107.0, "city": "Berlin", "planning-area-id": 7501133}}, {"type": "Feature", "geometry": {"type": "Point", "coordinates": [13.4330177, 52.5017242]}, "properties": {"id": "10006282921", "name": "Wrangel-Apotheke", "street": "", "zip-code": "", "city": "", "planning-area-id": 2300315}}, {"type": "Feature", "geometry": {"type": "Point", "coordinates": [13.4222821, 52.525689]}, "properties": {"id": "10018043153", "name": "City Apotheke", "street": "Pauline-Staegemann-Straße 2-4", "zip-code": 10249.0, "city": "Berlin", "planning-area-id": 2400520}}, {"type": "Feature", "geometry": {"type": "Point", "coordinates": [13.4323738, 52.6052569]}, "properties": {"id": "10033057617", "name": "Buchholzer Apotheke", "street": "Hauptstraße 14", "zip-code": 13127.0, "city": "Berlin", "planning-area-id": 3200310}}, {"type": "Feature", "geometry": {"type": "Point", "coordinates": [13.3593388, 52.5537851]}, "properties": {"id": "10081874372", "name": "Prisma Apotheke", "street": "", "zip-code": "", "city": "", "planning-area-id": 1401048}}, {"type": "Feature", "geometry": {"type": "Point", "coordinates": [13.3326554, 52.4938498]}, "properties": {"id": "10109657661", "name": "Prager Apotheke", "street": "", "zip-code": 10779.0, "city": "Berlin", "planning-area-id": 4501152}}, {"type": "Feature", "geometry": {"type": "Point", "coordinates": [13.3948502, 52.540412]}, "properties": {"id": "10658455542", "name": "+1 Apotheke", "street": "Brunnenstraße 64", "zip-code": 13355.0, "city": "Berlin", "planning-area-id": 1300834}}, {"type": "Feature", "geometry": {"type": "Point", "coordinates": [13.4507454, 52.5536278]}, "properties": {"id": "10717290064", "name": "Weissenseer Apotheke", "street": "", "zip-code": "", "city": "", "planning-area-id": 3500933}}, {"type": "Feature", "geometry": {"type": "Point", "coordinates": [13.6889974, 52.4411922]}, "properties": {"id": "10804876421", "name": "", "street": "", "zip-code": "", "city": "", "planning-area-id": 9501838}}, {"type": "Feature", "geometry": {"type": "Point", "coordinates": [13.3549158, 52.5992401]}, "properties": {"id": "10982679274", "name": "easy Apotheke", "street": "", "zip-code": "", "city": "", "planning-area-id": 12601134}}, {"type": "Feature", "geometry": {"type": "Point", "coordinates": [13.3557529, 52.597978]}, "properties": {"id": "10983944860", "name": "Großkreuz-Apotheke", "street": "", "zip-code": "", "city": "", "planning-area-id": 12601134}}, {"type": "Feature", "geometry": {"type": "Point", "coordinates": [13.3557984, 52.597539]}, "properties": {"id": "10983962574", "name": "Äskulap-Apotheke", "street": "", "zip-code": "", "city": "", "planning-area-id": 12601134}}, {"type": "Feature", "geometry": {"type": "Point", "coordinates": [13.4798799, 52.5082273]}, "properties": {"id": "11078666918", "name": "Friedrichsberg-Apotheke", "street": "Schulze-Boysen-Straße 35", "zip-code": 10365.0, "city": "Berlin", "planning-area-id": 11300826}}, {"type": "Feature", "geometry": {"type": "Point", "coordinates": [13.5641461, 52.5416626]}, "properties": {"id": "11260371583", "name": "Alt Marzahner Apotheke", "street": "Allee der Kosmonauten 198", "zip-code": "", "city": "", "planning-area-id": 10100315}}, {"type": "Feature", "geometry": {"type": "Point", "coordinates": [13.4322775, 52.5018693]}, "properties": {"id": "11292996811", "name": "Wrangel Apotheke", "street": "Eisenbahnstraße 5", "zip-code": 10997.0, "city": "Berlin", "planning-area-id": 2300315}}, {"type": "Feature", "geometry": {"type": "Point", "coordinates": [13.4411579, 52.5011319]}, "properties": {"id": "11299983069", "name": "Apotheke am Schlesischen Tor", "street": "Skalitzer Straße 73", "zip-code": 10997.0, "city": "Berlin", "planning-area-id": 2300316}}, {"type": "Feature", "geometry": {"type": "Point", "coordinates": [13.5341455, 52.5261333]}, "properties": {"id": "11418681907", "name": "Brücken Apotheke", "street": "Allee der Kosmonauten 47", "zip-code": 12681.0, "city": "Berlin", "planning-area-id": 10100311}}, {"type": "Feature", "geometry": {"type": "Point", "coordinates": [13.3586243, 52.5010737]}, "properties": {"id": "11565459167", "name": "easyApotheke Kurfürstenstrasse", "street": "Kurfürstenstraße 46", "zip-code": 10785.0, "city": "Berlin", "planning-area-id": 1100103}}]}