{"version": 0.6, "generator": "Overpass API 0.7.61.5 4133829e", "osm3s": {"timestamp_osm_base": "2024-01-02T13:45:02Z", "copyright": "The data included in this document is from www.openstreetmap.org. The data is made available under ODbL."}, "elements": [{"type": "node", "id": 167048488, "lat": 52.5015358, "lon": 13.4333992, "tags": {"amenity": "kindergarten", "name": "Nestwärme Kita", "wheelchair": "no"}}, {"type": "node", "id": 268915153, "lat": 52.55563, "lon": 13.4305, "tags": {"amenity": "kindergarten", "check_date": "2023-06-27", "name": "Klax Grundschule Brauhausstraße"}}, {"type": "node", "id": 268915158, "lat": 52.4767411, "lon": 13.3258251, "tags": {"addr:city": "Berlin", "addr:country": "DE", "addr:housenumber": "2", "addr:postcode": "12161", "addr:street": "Fehlerstraße", "addr:suburb": "Friedenau", "amenity": "kindergarten", "check_date": "2023-04-13", "name": "Kita Fehlerstraße 2", "wheelchair": "yes"}}, {"type": "node", "id": 268915167, "lat": 52.4685223, "lon": 13.3325044, "tags": {"addr:city": "Berlin", "addr:country": "DE", "addr:housenumber": "54", "addr:postcode": "12161", "addr:street": "Rheinstraße", "addr:suburb": "Friedenau", "amenity": "kindergarten", "name": "Ganztagsbetreuung der Fläming-Grundschule", "operator": "Nachbarschaftsheim Schöneberg e.V.", "toilets:wheelchair": "yes", "wheelchair": "yes"}}, {"type": "node", "id": 268915173, "lat": 52.5398837, "lon": 13.3496243, "tags": {"amenity": "kindergarten", "name": "kidsweb.de Kindertagesbetreuung", "phone": "+49 30 45482179", "website": "https://www.kidsweb.de/"}}, {"type": "node", "id": 268915174, "lat": 52.4978346, "lon": 13.3019467, "tags": {"amenity": "kindergarten", "name": "ABC-Kindergarten - Sabine Erdmann", "note": "ABC-Kindergarten - Sabine Erdmann"}}, {"type": "node", "id": 268915177, "lat": 52.5006833, "lon": 13.3587022, "tags": {"addr:housenumber": "139", "addr:postcode": "10785", "addr:street": "Kurfürstenstraße", "addr:suburb": "Schöneberg", "amenity": "kindergarten", "name": "EKG - An der Apostelkirche 1", "note": "EKG - An der Apostelkirche 1"}}, {"type": "node", "id": 268915180, "lat": 52.5916324, "lon": 13.3258382, "tags": {"addr:city": "Berlin", "addr:country": "DE", "addr:housenumber": "64", "addr:postcode": "13437", "addr:street": "Alt-Wittenau", "addr:suburb": "Wittenau", "amenity": "kindergarten", "name": "EKG - Alt-Wittenau 64", "note": "EKG - Alt-Wittenau 64", "phone": "+49304145979", "website": "http://www.vifzack.de", "wheelchair": "no"}}, {"type": "node", "id": 268915183, "lat": 52.5504682, "lon": 13.2698094, "tags": {"amenity": "kindergarten", "name": "EKG - An der Mäckeritzbrücke 4"}}, {"type": "node", "id": 268915185, "lat": 52.617587, "lon": 13.3155199, "tags": {"amenity": "kindergarten", "name": "EKG - Berliner Straße 120", "note": "EKG - Berliner Straße 120"}}, {"type": "node", "id": 268915194, "lat": 52.4473892, "lon": 13.3571434, "tags": {"amenity": "kindergarten", "check_date": "2023-06-25", "name": "EKG - Ellwanger Straße 9-11", "note": "EKG - Ellwanger Str. 9-11", "toilets:wheelchair": "yes", "wheelchair": "yes"}}, {"type": "node", "id": 268915196, "lat": 52.4791322, "lon": 13.3211029, "tags": {"amenity": "kindergarten", "name": "EKG - Detmolder Straße 17", "note": "EKG - Detmolder Str. 17"}}, {"type": "node", "id": 268915198, "lat": 52.4389996, "lon": 13.3866799, "tags": {"addr:suburb": "Mariendorf", "amenity": "kindergarten", "name": "EKG - Friedenstraße 20", "note": "EKG - Friedenstr. 20", "toilets:wheelchair": "yes", "wheelchair": "yes"}}, {"type": "node", "id": 268915205, "lat": 52.3853393, "lon": 13.4057689, "tags": {"addr:city": "Berlin", "addr:country": "DE", "addr:housenumber": "33", "addr:postcode": "12307", "addr:street": "Goltzstraße", "addr:suburb": "Lichtenrade", "amenity": "kindergarten", "capacity": "28", "contact:email": "tz-kita@kg-lira.de", "contact:phone": "+49 30 746889432", "contact:website": "https://kg-lira.de/", "denomination": "protestant", "isced:level": "0", "max_age": "6", "min_age": "0", "name": "Ev. Teilzeit-Kita Goltzstraße", "opening_hours": "Mo-Fr 07:30-15:00", "operator:type": "religious", "religion": "christian"}}, {"type": "node", "id": 268915206, "lat": 52.5602005, "lon": 13.3607718, "tags": {"amenity": "kindergarten", "check_date": "2023-10-03", "name": "EKG - Gemeindezentrum Schillerhöhe", "note": "EKG - Gemeindezentrum Schillerhöhe"}}, {"type": "node", "id": 268915210, "lat": 52.504493, "lon": 13.2870406, "tags": {"addr:city": "Berlin", "addr:housenumber": "4", "addr:postcode": "14057", "addr:street": "Herbartstraße", "alt_name": "EKG - Herbartstraße 4", "amenity": "kindergarten", "capacity": "50", "name": "Kita der Evangelischen Kirchengemeinde Am Lietzensee", "opening_hours": "Mo-Th 07:00-17:00; Fr 07:00-16:00", "website": "https://www.lietzenseegemeinde.de/gruppen.htm"}}, {"type": "node", "id": 268915211, "lat": 52.4823986, "lon": 13.2910551, "tags": {"amenity": "kindergarten", "name": "EKG - Hohenzollerndamm", "note": "EKG - Hohenzollerndamm 130"}}, {"type": "node", "id": 268915214, "lat": 52.447636, "lon": 13.3274376, "tags": {"addr:city": "Berlin", "addr:country": "DE", "addr:housenumber": "10", "addr:postcode": "12167", "addr:street": "Gravelottestraße", "addr:suburb": "Steglitz", "amenity": "kindergarten", "contact:website": "http://lemmis-kita.de/", "name": "Lemmis Kreativ-Kita", "operator": "Kreativ-Kitas Berlin Süd gUG", "wheelchair": "yes"}}, {"type": "node", "id": 268915217, "lat": 52.4600379, "lon": 13.3784317, "tags": {"addr:city": "Berlin", "addr:country": "DE", "addr:housenumber": "23", "addr:postcode": "12103", "addr:street": "Kaiserin-Augusta-Straße", "addr:suburb": "Tempelhof", "amenity": "kindergarten", "name": "EKG - Kaiserin-Augusta-Straße 23", "operator": "Evangelische Kirchengemeinde Alt-Tempelhof"}}, {"type": "node", "id": 268915220, "lat": 52.453963, "lon": 13.144791, "tags": {"addr:city": "Berlin", "addr:country": "DE", "addr:housenumber": "369", "addr:postcode": "14089", "addr:street": "Kladower Damm", "addr:suburb": "Kladow", "alt_name": "Eltern-Kind-Gruppe Kladow", "amenity": "kindergarten", "max_age": "6", "min_age": "2.5", "name": "Miniclub", "opening_hours": "Mo-Fr 08:15-12:45", "phone": "+49 30 36804238", "religion": "christian", "website": "http://www.ev-dorfkirche-kladow.de/gruppen-der-gemeinde/miniclub.html", "wheelchair": "no"}}, {"type": "node", "id": 268915222, "lat": 52.5118671, "lon": 13.1858413, "tags": {"addr:city": "Berlin", "addr:country": "DE", "addr:housenumber": "54", "addr:postcode": "13595", "addr:street": "Jaczostraße", "addr:suburb": "Wilhelmstadt", "amenity": "kindergarten", "denomination": "protestant", "name": "Eltern-Kind-Gruppe", "operator": "Evangelische Weinbergkirchengemeinde", "religion": "christian", "toilets:wheelchair": "yes", "wheelchair": "yes"}}, {"type": "node", "id": 268915227, "lat": 52.4226447, "lon": 13.4505383, "tags": {"amenity": "kindergarten", "name": "EKG - Martin-Luther-King-Weg 6", "note": "EKG - Martin-Luther-King-Weg 6"}}, {"type": "node", "id": 268915231, "lat": 52.5082915, "lon": 13.3139551, "tags": {"addr:city": "Berlin", "addr:country": "DE", "addr:housenumber": "79", "addr:postcode": "10625", "addr:street": "Leibnizstraße", "addr:suburb": "Charlottenburg", "amenity": "kindergarten", "check_date": "2023-04-02", "denomination": "protestant", "name": "Kindergarten Trinitatis", "operator": "Ev. Trinitatis-Kirchengemeinde Berlin-Charlottenburg", "religion": "christian", "website": "https://www.kitaverband-mw.de", "wheelchair": "no"}}, {"type": "node", "id": 268915236, "lat": 52.4594287, "lon": 13.286726, "tags": {"addr:city": "Berlin", "addr:country": "DE", "addr:housenumber": "61", "addr:postcode": "14195", "addr:street": "Pacelliallee", "addr:suburb": "Dahlem", "amenity": "kindergarten", "capacity": "18", "max_age": "6", "min_age": "2", "name": "Teilzeit-KiTa Martin-Niemöller-Haus", "opening_hours": "Mo-Th 07:30-14:30; Fr 07:30-13:30", "operator": "Evangelische Kirchengemeinde Dahlem", "operator:type": "religious", "website": "https://www.kg-dahlem.de/index.php?id=39"}}, {"type": "node", "id": 268915238, "lat": 52.4376136, "lon": 13.2192643, "tags": {"amenity": "kindergarten", "name": "EKG - Matterhornstraße 37", "note": "EKG - Matterhornstraße 37"}}, {"type": "node", "id": 268915239, "lat": 52.4939543, "lon": 13.3268807, "tags": {"amenity": "kindergarten", "name": "EKG - Nassauische Straße 66", "note": "EKG - Nassauische Str. 66"}}, {"type": "node", "id": 268915241, "lat": 52.55894, "lon": 13.1822088, "tags": {"amenity": "kindergarten", "name": "EKG - Schwanter Weg 3"}}, {"type": "node", "id": 268915244, "lat": 52.5414858, "lon": 13.267403, "tags": {"amenity": "kindergarten", "name": "EKG - Schuckertdamm 336-338", "wheelchair": "yes"}}, {"type": "node", "id": 268915246, "lat": 52.4561079, "lon": 13.3186112, "tags": {"addr:city": "Berlin", "addr:country": "DE", "addr:housenumber": "44C", "addr:postcode": "12165", "addr:street": "Schloßstraße", "addr:suburb": "Steglitz", "amenity": "kindergarten", "contact:phone": "+493079749391", "name": "Eltern-Kind-Gruppe Matthäus"}}, {"type": "node", "id": 268915247, "lat": 52.4053643, "lon": 13.4022689, "tags": {"addr:country": "DE", "addr:housenumber": "64", "addr:street": "Rackebüller Weg", "amenity": "kindergarten", "name": "EKG - Rackebüller Weg 64", "note": "EKG - Rackebüller Weg 64"}}, {"type": "node", "id": 268915250, "lat": 52.4653362, "lon": 13.1275935, "tags": {"addr:city": "Berlin", "addr:country": "DE", "addr:housenumber": "3", "addr:postcode": "14089", "addr:street": "Waldallee", "addr:suburb": "Kladow", "amenity": "kindergarten", "denomination": "protestant", "name": "Kita der Evangelischen Kirchengemeinde Am Groß-Glienicker See", "operator": "Evangelische Kirchengemeinde Am Groß-Glienicker See", "religion": "christian"}}, {"type": "node", "id": 268915251, "lat": 52.6087149, "lon": 13.3359912, "tags": {"amenity": "kindergarten", "name": "EKG - Titiseestraße 7", "note": "EKG - Titiseestr. 7"}}, {"type": "node", "id": 268915258, "lat": 52.4947329, "lon": 13.3392604, "tags": {"addr:city": "Berlin", "addr:country": "DE", "addr:housenumber": "63", "addr:postcode": "10777", "addr:street": "Motzstraße", "addr:suburb": "Schöneberg", "amenity": "kindergarten", "check_date": "2023-04-25", "name": "EKT - Abrakadabra e.V.", "note": "EKT - Abrakadabra e.V.", "wheelchair": "no"}}, {"type": "node", "id": 268915266, "lat": 52.5299838, "lon": 13.3315829, "tags": {"addr:city": "Berlin", "addr:country": "DE", "addr:housenumber": "15", "addr:postcode": "10551", "addr:street": "Waldstraße", "addr:suburb": "Moabit", "amenity": "kindergarten", "contact:website": "http://www.kinderladen-alibaba.de/", "name": "Kinderladen Ali Baba", "operator": "Kinderladen Ali Baba e.V.", "wheelchair": "no"}}, {"type": "node", "id": 268915269, "lat": 52.4663348, "lon": 13.4363771, "tags": {"addr:city": "Berlin", "addr:country": "DE", "addr:housenumber": "1", "addr:postcode": "12051", "addr:street": "Kranoldstraße", "addr:suburb": "Neukölln", "amenity": "kindergarten", "check_date": "2023-08-06", "contact:phone": "+49 30 6264871", "contact:website": "http://www.kinderladen-ali-baba.de", "name": "Ali Baba und seine Räuber \"Löwenzahn\"", "opening_hours": "Mo-Fr 07:00-17:00; Sa,Su,PH off", "operator": "Kinderladen Ali Baba und seine Räuber e.V."}}, {"type": "node", "id": 268915271, "lat": 52.4603819, "lon": 13.3204746, "tags": {"amenity": "kindergarten", "name": "EKT - Ahörnchen e.V.", "note": "EKT - Ahörnchen e.V.", "wheelchair": "no"}}, {"type": "node", "id": 268915272, "lat": 52.4878741, "lon": 13.3526806, "tags": {"addr:city": "Berlin", "addr:country": "DE", "addr:housenumber": "5", "addr:postcode": "10823", "addr:street": "Merseburger Straße", "addr:suburb": "Schöneberg", "amenity": "kindergarten", "contact:phone": "+49 30 7844522", "contact:website": "https://www.affentheater.org/", "name": "Kinderladen Affentheater", "operator": "Affentheater e.V.", "operator:type": "private_non_profit", "wheelchair": "no"}}, {"type": "node", "id": 268915276, "lat": 52.529794, "lon": 13.3156844, "tags": {"addr:city": "Berlin", "addr:country": "DE", "addr:housenumber": "31", "addr:postcode": "10553", "addr:street": "Huttenstraße", "addr:suburb": "Moabit", "amenity": "kindergarten", "contact:website": "https://www.archemoabit.de/", "name": "Arche Moabit", "operator": "Arche Moabit e.V.", "wheelchair": "no"}}, {"type": "node", "id": 268915281, "lat": 52.4726664, "lon": 13.3246757, "tags": {"addr:city": "Berlin", "addr:country": "DE", "addr:housenumber": "9", "addr:postcode": "12161", "addr:street": "Wilhelmshöher Straße", "addr:suburb": "Friedenau", "amenity": "kindergarten", "check_date": "2023-05-31", "name": "Kinderladen Atze + Co.", "operator": "Atze + Co. e.V.", "website": "https://www.atze-co.de"}}, {"type": "node", "id": 268915285, "lat": 52.4713145, "lon": 13.4318601, "tags": {"amenity": "kindergarten", "check_date": "2021-10-17", "name": "Altenbraker Kinderladen", "opening_hours": "Mo-Fr 07:30-16:30"}}, {"type": "node", "id": 268915288, "lat": 52.4883013, "lon": 13.3508734, "tags": {"addr:city": "Berlin", "addr:country": "DE", "addr:housenumber": "35", "addr:postcode": "10823", "addr:street": "Apostel-Paulus-Straße", "addr:suburb": "Schöneberg", "amenity": "kindergarten", "name": "EKT Apo-Paule 35 e.V."}}, {"type": "node", "id": 268915289, "lat": 52.4770404, "lon": 13.419956, "tags": {"addr:city": "Berlin", "addr:country": "DE", "addr:housenumber": "11", "addr:postcode": "12049", "addr:street": "Lichtenrader Straße", "addr:suburb": "Neukölln", "amenity": "kindergarten", "email": "kilafeldmaeuse@gmail.com", "name": "Feldmäuse an der Hasenheide", "operator": "Kinderladen an der Hasenheide e.V.", "phone": "+49306222290"}}, {"type": "node", "id": 268915290, "lat": 52.4459867, "lon": 13.3079431, "tags": {"addr:city": "Berlin", "addr:country": "DE", "addr:housenumber": "47", "addr:postcode": "12203", "addr:street": "Moltkestraße", "addr:suburb": "Lichterfelde", "amenity": "kindergarten", "contact:website": "http://kinderladen-blumenladen.de/", "name": "Kinderladen Blumenladen", "operator": "EKT-Blumenladen e.V."}}, {"type": "node", "id": 268915292, "lat": 52.5141335, "lon": 13.2895477, "tags": {"addr:city": "Berlin", "addr:country": "DE", "addr:housenumber": "83b", "addr:postcode": "14059", "addr:street": "Sophie-Charlotten-Straße", "addr:suburb": "Charlottenburg", "amenity": "kindergarten", "contact:website": "http://www.kita-bollerwagen-berlin.de/", "name": "Kita Bollerwagen", "operator": "Kita Bollerwagen e.V."}}, {"type": "node", "id": 268915293, "lat": 52.4939862, "lon": 13.4015118, "tags": {"addr:city": "Berlin", "addr:country": "DE", "addr:housenumber": "6", "addr:postcode": "10961", "addr:street": "Urbanstraße", "addr:suburb": "Kreuzberg", "amenity": "kindergarten", "name": "EKT - Brausepulver e.V.", "note": "EKT - Brausepulver e.V."}}, {"type": "node", "id": 268915297, "lat": 52.4942784, "lon": 13.4172573, "tags": {"addr:city": "Berlin", "addr:country": "DE", "addr:housenumber": "47-48", "addr:postcode": "10967", "addr:street": "Böckhstraße", "addr:suburb": "Kreuzberg", "amenity": "kindergarten", "name": "EKT - Bunte Mischung e.V.", "note": "EKT - Bunte Mischung e.V.", "wheelchair": "limited"}}, {"type": "node", "id": 268915298, "lat": 52.4693894, "lon": 13.4316805, "tags": {"addr:city": "Berlin", "addr:country": "DE", "addr:housenumber": "24", "addr:postcode": "12051", "addr:street": "Nogatstraße", "addr:suburb": "Neukölln", "amenity": "kindergarten", "check_date": "2021-08-19", "contact:email": "kitalieblingsmenschen@gmail.com", "contact:phone": "+49 30 6262263", "contact:website": "https://lieblingsmenschen-berlin-de.webnode.com/", "name": "Kinderladen \"Lieblingsmenschen\""}}, {"type": "node", "id": 268915300, "lat": 52.48884, "lon": 13.40019, "tags": {"amenity": "kindergarten", "fixme": "Ich kann online zu diesem Kinderladen nichts finden. Vermutlich gibt es ihn nicht mehr. Er stammt aus dem Datenimport von vor 13 Jahren (https://www.openstreetmap.org/node/268915300/history)", "name": "EKT - Bergmannstraße e.V."}}, {"type": "node", "id": 268915302, "lat": 52.4758505, "lon": 13.3258095, "tags": {"addr:city": "Berlin", "addr:country": "DE", "addr:housenumber": "6", "addr:postcode": "12161", "addr:street": "Mainauer Straße", "addr:suburb": "Friedenau", "amenity": "kindergarten", "contact:phone": "+49 30 8529041", "contact:website": "http://www.berlinermalbuero.de/", "name": "Kinderladen Berliner Malbüro", "operator": "EKT Berliner Malbüro e.V."}}, {"type": "node", "id": 268915307, "lat": 52.5466679, "lon": 13.4152842, "tags": {"addr:city": "Berlin", "addr:country": "DE", "addr:housenumber": "14", "addr:postcode": "10437", "addr:street": "Greifenhagener Straße", "addr:suburb": "Prenzlauer Berg", "amenity": "kindergarten", "contact:website": "https://kita-billabong.de", "name": "Kita Billabong", "operator": "Billabong 02 e.V.", "wheelchair": "yes"}}, {"type": "node", "id": 268915311, "lat": 52.575228, "lon": 13.3545645, "tags": {"amenity": "kindergarten", "check_date": "2023-06-13", "name": "EKT - Das EI", "note": "EKT - Das EI"}}, {"type": "node", "id": 268915313, "lat": 52.4874788, "lon": 13.3936034, "tags": {"addr:city": "Berlin", "addr:country": "DE", "addr:postcode": "10965", "amenity": "kindergarten", "name": "EKT - Combo e.V."}}, {"type": "node", "id": 268915314, "lat": 52.4941875, "lon": 13.4189042, "tags": {"amenity": "kindergarten", "name": "EKT - Der kleine Horrorladen e.V.", "note": "EKT - Der kleine Horrorladen e.V.", "wheelchair": "no"}}, {"type": "node", "id": 268915317, "lat": 52.4883261, "lon": 13.5243187, "tags": {"amenity": "kindergarten", "name": "EKT - Das tapfere Schneiderlein", "note": "EKT - Das tapfere Schneiderlein", "wheelchair": "no"}}, {"type": "node", "id": 268915322, "lat": 52.5027488, "lon": 13.3614793, "tags": {"addr:city": "Berlin", "addr:country": "DE", "addr:housenumber": "29", "addr:postcode": "10785", "addr:street": "Kluckstraße", "addr:suburb": "Tiergarten", "amenity": "kindergarten", "check_date": "2023-06-29", "name": "Cocorico et Co", "operator": "Cocorico et Co e.V.", "toilets:wheelchair": "no", "website": "http://cocorico-berlin.de/", "wheelchair": "no"}}, {"type": "node", "id": 268915324, "lat": 52.5238536, "lon": 13.302174, "tags": {"addr:city": "Berlin", "addr:country": "DE", "addr:housenumber": "21", "addr:postcode": "10589", "addr:street": "Mierendorffstraße", "addr:suburb": "Charlottenburg", "amenity": "kindergarten", "check_date": "2022-11-12", "level": "0", "name": "CIP Kita Theo Tintenklecks", "phone": "+49 30 54469766", "website": "https://www.cip-berlin.de", "wheelchair": "yes"}}, {"type": "node", "id": 268915325, "lat": 52.5167272, "lon": 13.2932159, "tags": {"addr:city": "Berlin", "addr:country": "DE", "addr:housenumber": "42", "addr:postcode": "14059", "addr:street": "Christstraße", "addr:suburb": "Charlottenburg", "amenity": "kindergarten", "name": "Sonnenblume"}}, {"type": "node", "id": 268915327, "lat": 52.5557638, "lon": 13.204318, "tags": {"amenity": "kindergarten", "name": "EKT - Die Knöpfe", "note": "EKT - Die Knöpfe"}}, {"type": "node", "id": 268915328, "lat": 52.4796947, "lon": 13.4230255, "tags": {"addr:city": "Berlin", "addr:country": "DE", "addr:housenumber": "4", "addr:postcode": "12049", "addr:street": "Weisestraße", "addr:suburb": "Neukölln", "amenity": "kindergarten", "contact:website": "http://kinkies.de/", "name": "Die Kinkies", "operator": "EKT Die Kinkies e.V."}}, {"type": "node", "id": 268915330, "lat": 52.4876781, "lon": 13.3742344, "tags": {"addr:city": "Berlin", "addr:country": "DE", "addr:housenumber": "16", "addr:postcode": "10965", "addr:street": "Monumentenstraße", "addr:suburb": "Kreuzberg", "amenity": "kindergarten", "check_date": "2023-04-08", "contact:email": "post@monumentenbande.de", "contact:phone": "+49 30 7866868", "contact:website": "http://www.monumentenbande.de/", "name": "Kinderladen Monumentenbande", "operator": "Kinderladen Monumentenbande e.V."}}, {"type": "node", "id": 268915331, "lat": 52.4173, "lon": 13.3225, "tags": {"amenity": "kindergarten", "name": "EKT - Die Maulwürfe", "note": "EKT - Die Maulwürfe"}}, {"type": "node", "id": 268915332, "lat": 52.4856076, "lon": 13.3636921, "tags": {"amenity": "kindergarten", "name": "Kita Tulpen", "operator": "Selbsthilfeprojekt für Frauen e.V.", "website": "https://shp-bildung.de/kita-knospen-kita-rosen-kita-tulpen.html"}}, {"type": "node", "id": 268915333, "lat": 52.4801079, "lon": 13.3214015, "tags": {"addr:city": "Berlin", "addr:country": "DE", "addr:housenumber": "7", "addr:postcode": "10715", "addr:street": "Koblenzer Straße", "addr:suburb": "Wilmersdorf", "amenity": "kindergarten", "entrance": "yes", "name": "Kinderladen Die Lauser", "operator": "Kinderladen Die Lauser e.V.", "website": "https://www.die-lauser.de/"}}, {"type": "node", "id": 268915335, "lat": 52.5620245, "lon": 13.3606221, "tags": {"amenity": "kindergarten", "name": "EKT - Die Entdecker e.V.", "note": "EKT - Die Entdecker e.V."}}, {"type": "node", "id": 268915337, "lat": 52.5527052, "lon": 13.3846057, "tags": {"addr:city": "Berlin", "addr:country": "DE", "addr:housenumber": "56", "addr:postcode": "13357", "addr:street": "Stettiner Straße", "addr:suburb": "Gesundbrunnen", "amenity": "kindergarten", "check_date": "2023-01-03", "contact:phone": "+49 30 4941049", "level": "0", "name": "Kita SilberStern", "opening_hours": "Mo-Fr 07:00-17:00", "operator": "SEHstern e. V.", "phone": "+49304941049", "preschool": "yes"}}, {"type": "node", "id": 268915339, "lat": 52.6106394, "lon": 13.2474774, "tags": {"addr:city": "Berlin", "addr:country": "DE", "addr:housenumber": "36", "addr:postcode": "13503", "addr:street": "Am Bärensprung", "addr:suburb": "Heiligensee", "amenity": "kindergarten", "contact:website": "https://die-igelkinder.de/", "level": "1", "name": "Die Igelkinder", "operator": "EKT Die Igelkinder e.V.", "wheelchair": "no"}}, {"type": "node", "id": 268915340, "lat": 52.4172709, "lon": 13.4016881, "tags": {"addr:city": "Berlin", "addr:country": "DE", "addr:housenumber": "25A", "addr:postcode": "12349", "addr:street": "Sandsteinweg", "addr:suburb": "Buckow", "amenity": "kindergarten", "name": "Kinderladen Igelkinder", "operator": "TÄKS e.V.", "wheelchair": "no"}}, {"type": "node", "id": 268915341, "lat": 52.4625536, "lon": 13.5883783, "tags": {"amenity": "kindergarten", "name": "EKT - Die Grünspechte e.V.", "note": "EKT - Die Grünspechte e.V.", "wheelchair": "no"}}, {"type": "node", "id": 268915343, "lat": 52.5423844, "lon": 13.4158361, "tags": {"addr:city": "Berlin", "addr:country": "DE", "addr:housenumber": "21", "addr:postcode": "10437", "addr:street": "Lychener Straße", "addr:suburb": "Prenzlauer Berg", "amenity": "kindergarten", "contact:email": "kita.domino@web.de", "contact:phone": "+49 30 85615101", "contact:website": "https://www.kita-domino.de/", "language:de": "main", "language:fr": "main", "name": "Domino", "operator": "Deutsch-Französiche Kita Domino e.V.", "wheelchair": "limited"}}, {"type": "node", "id": 268915346, "lat": 52.4803423, "lon": 13.348152, "tags": {"addr:city": "Berlin", "addr:country": "DE", "addr:housenumber": "8", "addr:postcode": "10827", "addr:street": "Fritz-Reuter-Straße", "addr:suburb": "Schöneberg", "amenity": "kindergarten", "name": "Kita Wilde 13", "operator": "TÄKS e.V.", "website": "https://www.taeks.de/wilde-13", "wheelchair": "yes"}}, {"type": "node", "id": 268915347, "lat": 52.5261266, "lon": 13.1805079, "tags": {"amenity": "kindergarten", "name": "EKT - Die Seeburg e.V.", "note": "EKT - Die Seeburg e.V."}}, {"type": "node", "id": 268915349, "lat": 52.4882528, "lon": 13.3502754, "tags": {"addr:city": "Berlin", "addr:country": "DE", "addr:housenumber": "33", "addr:postcode": "10823", "addr:street": "Apostel-Paulus-Straße", "addr:suburb": "Schöneberg", "amenity": "kindergarten", "name": "Sternenkita", "website": "https://nusz.de/kinder-jugend/sternenkita/"}}, {"type": "node", "id": 268915351, "lat": 52.4901945, "lon": 13.3518626, "tags": {"amenity": "kindergarten", "name": "Schülerladen Minipfiff", "note": "EKT - Die Pfifferlinge e.V."}}, {"type": "node", "id": 268915353, "lat": 52.4839742, "lon": 13.3537357, "tags": {"addr:city": "Berlin", "addr:country": "DE", "addr:housenumber": "14-18", "addr:postcode": "10827", "addr:street": "Albertstraße", "addr:suburb": "Schöneberg", "amenity": "kindergarten", "check_date": "2023-05-15", "name": "Kita Rosen", "note": "EKT - Die Rosen", "operator": "SHP e.V.", "phone": "+49 30 7885554", "website": "http://kitarosen.de/"}}, {"type": "node", "id": 268915354, "lat": 52.5650507, "lon": 13.3898943, "tags": {"addr:city": "Berlin", "addr:country": "DE", "addr:housenumber": "9", "addr:postcode": "13359", "addr:street": "Sternstraße", "addr:suburb": "Gesundbrunnen", "amenity": "kindergarten", "check_date": "2023-07-02", "name": "EKT - Die Ministerne e.V.", "note": "EKT - Die Ministerne e.V.", "wheelchair": "no"}}, {"type": "node", "id": 268915356, "lat": 52.490697, "lon": 13.3917197, "tags": {"addr:suburb": "Kreuzberg", "amenity": "kindergarten", "name": "EKT - Die Panzerknacker e.V.", "note": "EKT - Die Panzerknacker e.V.", "wheelchair": "no"}}, {"type": "node", "id": 268915357, "lat": 52.587628, "lon": 13.402719, "tags": {"addr:city": "Berlin", "addr:country": "DE", "addr:housenumber": "1", "addr:postcode": "13156", "addr:street": "Heinrich-Böll-Straße", "addr:suburb": "Niederschönhausen", "amenity": "kindergarten", "name": "EKT - Die Pankis e.V.", "note": "EKT - Die Pankis e.V."}}, {"type": "node", "id": 268915361, "lat": 52.5357939, "lon": 13.4099167, "tags": {"addr:city": "Berlin", "addr:country": "DE", "addr:housenumber": "30", "addr:postcode": "10435", "addr:street": "Choriner Straße", "addr:suburb": "Prenzlauer Berg", "amenity": "kindergarten", "contact:email": "info@erdnuckel-berlin.de", "contact:phone": "+49 30 4420285", "contact:website": "http://www.erdnuckel-berlin.de", "name": "EKT - Erdnuckel e.V.", "opening_hours": "Mo-Fr 08:00-17:00"}}, {"type": "node", "id": 268915364, "lat": 52.5422722, "lon": 13.3594086, "tags": {"addr:city": "Berlin", "addr:country": "DE", "addr:housenumber": "20", "addr:postcode": "13353", "addr:street": "Sparrstraße", "addr:suburb": "Wedding", "amenity": "kindergarten", "check_date": "2022-12-12", "contact:phone": "+49304533076", "name": "EKT - Eisbär", "note": "EKT - Eisbär", "website": "http://www.kinderladen-integration.de", "wheelchair": "no"}}, {"type": "node", "id": 268915365, "lat": 52.5336213, "lon": 13.433538, "tags": {"addr:city": "Berlin", "addr:country": "DE", "addr:housenumber": "15", "addr:postcode": "10407", "addr:street": "Pasteurstraße", "addr:suburb": "Prenzlauer Berg", "amenity": "kindergarten", "contact:email": "mail@ekt-elfenland.de", "contact:phone": "+49 30 38106125", "contact:website": "http://www.ekt-elfenland.de/", "name": "Elfenland", "operator": "Elfenland e.V.", "wheelchair": "no"}}, {"type": "node", "id": 268915366, "lat": 52.4932675, "lon": 13.3908493, "tags": {"addr:city": "Berlin", "addr:country": "DE", "addr:housenumber": "6", "addr:postcode": "10961", "addr:street": "Nostitzstraße", "addr:suburb": "Kreuzberg", "amenity": "kindergarten", "name": "EKT - Elterninitiative Deutsch-Türkischer Kinderklub e.V.", "note": "EKT - Elterninitiative Deutsch-Türkischer Kinderklub e.V.", "phone": "+49306924455"}}, {"type": "node", "id": 268915367, "lat": 52.5037708, "lon": 13.5007695, "tags": {"addr:city": "Berlin", "addr:country": "DE", "addr:housenumber": "72", "addr:postcode": "10315", "addr:street": "Archenholdstraße", "addr:suburb": "Rummelsburg", "amenity": "kindergarten", "check_date": "2023-05-13", "contact:website": "http://kv-b.de/projekte/bip-kreativitaetskrippe-sonnenhof-berlin-lichtenberg.html", "name": "Kita „Sonnenhof“", "operator": "Kindervereinigung Berlin", "wheelchair": "limited"}}, {"type": "node", "id": 268915368, "lat": 52.5045355, "lon": 13.5076773, "tags": {"addr:city": "Berlin", "addr:country": "DE", "addr:housenumber": "18", "addr:postcode": "10315", "addr:street": "Kraetkestraße", "addr:suburb": "Friedrichsfelde", "amenity": "kindergarten", "check_date": "2023-07-25", "name": "Kita „Erlenhof“", "note": "EKT - Eene. meene Mopel"}}, {"type": "node", "id": 268915369, "lat": 52.5032947, "lon": 13.2637921, "tags": {"addr:city": "Berlin", "addr:country": "DE", "addr:housenumber": "14", "addr:postcode": "14055", "addr:street": "Harbigstraße", "addr:suburb": "Westend", "amenity": "kindergarten", "capacity": "18", "contact:phone": "+49 30 3016926", "description": "Elterninitiativkinderladen", "name": "Kinderladen Eichhörnchen", "opening_hours": "Mo-Fr 07:45-16:00", "operator": "Eikita Eichhörnchen e.V.", "website": "http://kila-eichhoernchen.de/"}}, {"type": "node", "id": 268915370, "lat": 52.4957971, "lon": 13.2661489, "tags": {"addr:city": "Berlin", "addr:country": "DE", "addr:housenumber": "11", "addr:postcode": "14055", "addr:street": "Eichkatzweg", "addr:suburb": "Westend", "amenity": "kindergarten", "contact:phone": "+49303018968", "contact:website": "http://www.ekt-eichkatzweg11.de/", "name": "Kinderladen Eichkatzweg", "operator": "EKT Eichkatzweg 11 e.V.", "operator:type": "private_non_profit"}}, {"type": "node", "id": 268915371, "lat": 52.5477809, "lon": 13.208227, "tags": {"amenity": "kindergarten", "name": "EKT - Dreiecke und Kreise e.V.", "note": "EKT - Dreiecke und Kreise e.V.", "wheelchair": "yes"}}, {"type": "node", "id": 268915372, "lat": 52.5010503, "lon": 13.3022633, "tags": {"amenity": "kindergarten", "name": "EKT - Droysen-Mäuse e.V.", "note": "EKT - Droysen-Mäuse e.V.", "wheelchair": "yes"}}, {"type": "node", "id": 268915373, "lat": 52.5275438, "lon": 13.3429994, "tags": {"addr:city": "Berlin", "addr:country": "DE", "addr:housenumber": "58", "addr:postcode": "10551", "addr:street": "Stromstraße", "addr:suburb": "Moabit", "amenity": "kindergarten", "contact:phone": "+49303951860", "contact:website": "http://www.drunterunddrueber-kinderladen.de", "name": "Integrationskinderladen Drunter & Drüber", "operator": "EKT - Heilpädagogischer Integrationskinderladen Drunter & Drüber e.V.", "wheelchair": "no"}}, {"type": "node", "id": 268915374, "lat": 52.5176797, "lon": 13.2942317, "tags": {"addr:city": "Berlin", "addr:country": "DE", "addr:housenumber": "12", "addr:postcode": "14059", "addr:street": "Neufertstraße", "addr:suburb": "Charlottenburg", "amenity": "kindergarten", "check_date": "2023-12-13", "name": "Drunter und Drüber", "operator": "Drunter und Drüber e.V.", "wheelchair": "no"}}, {"type": "node", "id": 268915376, "lat": 52.5216126, "lon": 13.3356677, "tags": {"addr:city": "Berlin", "addr:country": "DE", "addr:housenumber": "18", "addr:postcode": "10555", "addr:street": "Elberfelder Straße", "addr:suburb": "Moabit", "amenity": "kindergarten", "name": "Kila Frecher Spatz", "operator": "Frecher Spatz e.V.", "website": "http://frecherspatz.de/index.php/kinderlaeden/kila-frecher-spatz", "wheelchair": "limited"}}, {"type": "node", "id": 268915379, "lat": 52.5164659, "lon": 13.1952586, "tags": {"amenity": "kindergarten", "name": "EKT - Förderverein christlicher Kindererziehung e.V.", "note": "EKT - Förderverein christlicher Kindererziehung e.V.", "wheelchair": "limited"}}, {"type": "node", "id": 268915382, "lat": 52.5049186, "lon": 13.2948594, "tags": {"addr:city": "Berlin", "addr:country": "DE", "addr:housenumber": "14", "addr:postcode": "14057", "addr:street": "Holtzendorffstraße", "addr:suburb": "Charlottenburg", "amenity": "kindergarten", "contact:website": "http://www.ekt-flitzpiepen.de/", "name": "Kinderladen Flitzpiepen", "operator": "Kinderladen Flitzpiepen e. V.", "wheelchair": "no"}}, {"type": "node", "id": 268915384, "lat": 52.5234054, "lon": 13.3338166, "tags": {"addr:city": "Berlin", "addr:country": "DE", "addr:housenumber": "28", "addr:postcode": "10555", "addr:street": "Jagowstraße", "addr:suburb": "Moabit", "amenity": "kindergarten", "check_date": "2023-10-29", "contact:phone": "+49 30 3916129", "name": "Katz&Kedi Kinderladen", "operator": "Verein Frecher Spatz e.V.", "wheelchair": "no"}}, {"type": "node", "id": 268915385, "lat": 52.505181, "lon": 13.2993874, "tags": {"amenity": "kindergarten", "name": "EKT - Firlefanz e.V."}}, {"type": "node", "id": 268915388, "lat": 52.4929437, "lon": 13.3518427, "tags": {"amenity": "kindergarten", "check_date": "2023-05-20", "name": "Kindertagesstätte Fidibus", "note": "EKT - Fidibus e.V."}}, {"type": "node", "id": 268915391, "lat": 52.496684, "lon": 13.2957982, "tags": {"addr:city": "Berlin", "addr:country": "DE", "addr:housenumber": "48", "addr:postcode": "10711", "addr:street": "Joachim-Friedrich-Straße", "addr:suburb": "Halensee", "amenity": "kindergarten", "name": "EKT - Georg-Wilhelm-Kindergruppe e.V.", "note": "EKT - Georg-Wilhelm-Kindergruppe e.V."}}, {"type": "node", "id": 268915400, "lat": 52.5687747, "lon": 13.3978691, "tags": {"addr:city": "Berlin", "addr:country": "DE", "addr:housenumber": "5", "addr:postcode": "13187", "addr:street": "Kreuzstraße", "addr:suburb": "Pankow", "amenity": "kindergarten", "check_date": "2023-07-12", "contact:phone": "+49 30 49902642", "contact:website": "https://www.garuda-ev.de", "name": "Kinderladen Garuda", "operator": "Garuda e.V.", "wheelchair": "no"}}, {"type": "node", "id": 268915402, "lat": 52.5190368, "lon": 13.3158255, "tags": {"addr:city": "Berlin", "addr:country": "DE", "addr:housenumber": "14", "addr:postcode": "10587", "addr:street": "Galvanistraße", "addr:suburb": "Charlottenburg", "amenity": "kindergarten", "check_date": "2023-07-22", "contact:website": "http://kinderladen-charlottenburg.de/", "name": "Kinderladen Charlottenburg", "operator": "EKT Galvanistaße 14 e.V."}}, {"type": "node", "id": 268915403, "lat": 52.4527716, "lon": 13.6266929, "tags": {"addr:city": "Berlin", "addr:country": "DE", "addr:housenumber": "2", "addr:postcode": "12587", "addr:street": "Drachholzstraße", "addr:suburb": "Friedrichshagen", "amenity": "kindergarten", "check_date": "2023-04-05", "contact:website": "http://www.frihakila.de/", "description": "Elterninitiativkindertagesstätte", "name": "Der Friedrichshagener Kinderladen", "operator": "Der Friedrichshagener Kinderladen e.V.", "wheelchair": "yes"}}, {"type": "node", "id": 268915410, "lat": 52.4775212, "lon": 13.4215214, "tags": {"addr:city": "Berlin", "addr:country": "DE", "addr:housenumber": "4", "addr:postcode": "12049", "addr:street": "Herrfurthplatz", "addr:suburb": "Neukölln", "amenity": "kindergarten", "name": "EKT - Hasenreiter e.V.", "note": "EKT - Hasenreiter e.V.", "phone": "+49306211032"}}, {"type": "node", "id": 268915411, "lat": 52.5036346, "lon": 13.2922663, "tags": {"addr:city": "Berlin", "addr:country": "DE", "addr:housenumber": "41", "addr:postcode": "14057", "addr:street": "Friedbergstraße", "addr:suburb": "Charlottenburg", "amenity": "kindergarten", "check_date": "2023-04-18", "contact:website": "http://www.canicas.de/", "name": "Kita Canicas", "operator": "canicas e. V"}}, {"type": "node", "id": 268915413, "lat": 52.489024, "lon": 13.4105247, "tags": {"addr:city": "Berlin", "addr:country": "DE", "addr:housenumber": "51", "addr:postcode": "10967", "addr:street": "Hasenheide", "addr:suburb": "Kreuzberg", "amenity": "kindergarten", "contact:email": "herzlichtgarten@t-online.de", "contact:phone": "+49 30 6949805", "contact:website": "https://www.herzlichtgarten.de/", "min_age": "2", "name": "EKT Herzlichtgarten e.V.", "wheelchair": "no"}}, {"type": "node", "id": 268915415, "lat": 52.5838052, "lon": 13.3035453, "tags": {"addr:city": "Berlin", "addr:housenumber": "44", "addr:postcode": "13509", "addr:street": "Schubartstraße", "amenity": "kindergarten", "description": "Öffnungszeiten: Mo - Do 07:30 – 17:00 Uhr, Fr 07:30 - 16:00 Uhr. Bis zu 30 Kinder im Alter von 11 Monaten bis 6 Jahren.", "email": "info@lieblingskinder.de", "name": "Schubarts Lieblingskinder", "operator": "Lieblingskinder gemeinnützige UG", "website": "https://www.lieblingskinder.de/"}}, {"type": "node", "id": 268915419, "lat": 52.4560187, "lon": 13.2746532, "tags": {"amenity": "kindergarten", "name": "EKT - Hort der Rudolf-Steiner-Schule e.V.", "note": "EKT - Hort der Rudolf-Steiner-Schule e.V."}}, {"type": "node", "id": 268915420, "lat": 52.5187405, "lon": 13.315822, "tags": {"addr:city": "Berlin", "addr:country": "DE", "addr:housenumber": "15", "addr:postcode": "10587", "addr:street": "Galvanistraße", "addr:suburb": "Charlottenburg", "amenity": "kindergarten", "check_date": "2023-07-22", "name": "EKT - Hoppel-Poppel", "operator": "EKT - Hoppel-Poppel e.V.", "wheelchair": "no"}}, {"type": "node", "id": 268915421, "lat": 52.4932341, "lon": 13.4389039, "tags": {"addr:city": "Berlin", "addr:country": "DE", "addr:housenumber": "99", "addr:postcode": "10999", "addr:street": "Reichenberger Straße", "addr:suburb": "Kreuzberg", "amenity": "kindergarten", "contact:phone": "+49306183014", "contact:website": "http://hollerbusch-berlin.de/", "name": "EKT - Hollerbusch e.V.", "note": "EKT - Hollerbusch e.V."}}, {"type": "node", "id": 268915422, "lat": 52.5860307, "lon": 13.2803308, "tags": {"amenity": "kindergarten", "email": "info@kita-hokus-pokus.de", "name": "EKT - Hokus Pokus e.V.", "opening_hours": "Mo 06:30-17:00; Tu-Fr 06:30-18:30", "phone": "+4930 30364646", "website": "https://www.kita-hokus-pokus.de/", "wheelchair": "no"}}, {"type": "node", "id": 268915424, "lat": 52.5462692, "lon": 13.4103826, "tags": {"amenity": "kindergarten", "name": "EKT - Grashüpfer e.V.", "note": "EKT - Grashüpfer e.V."}}, {"type": "node", "id": 268915427, "lat": 52.4643766, "lon": 13.34284, "tags": {"addr:city": "Berlin", "addr:country": "DE", "addr:housenumber": "39/40", "addr:postcode": "12157", "addr:street": "Cranachstraße", "addr:suburb": "Schöneberg", "amenity": "kindergarten", "description": "Elterninitiativ-Kinderladen", "name": "Kinderladen Großstadtpflänzchen", "operator": "EKT Großstadtpflänzchen e.V.", "phone": "+49 30 8558600", "website": "https://www.grossstadtpflaenzchen.de/"}}, {"type": "node", "id": 268915431, "lat": 52.493261, "lon": 13.3958986, "tags": {"addr:city": "Berlin", "addr:country": "DE", "addr:housenumber": "27", "addr:postcode": "10961", "addr:street": "Fürbringerstraße", "addr:suburb": "Kreuzberg", "amenity": "kindergarten", "contact:website": "http://www.gutentagkinder.de", "name": "Kinderladen Guten Tag Kinder", "operator": "Guten Tag Kinder e.V.", "wheelchair": "no"}}, {"type": "node", "id": 268915432, "lat": 52.4633618, "lon": 13.3158886, "tags": {"addr:city": "Berlin", "addr:country": "DE", "addr:housenumber": "33", "addr:postcode": "12163", "addr:street": "Gritznerstraße", "addr:suburb": "Steglitz", "amenity": "kindergarten", "contact:phone": "+493075650016", "contact:website": "http://www.kita-happy-kids.de/", "name": "Kindergarten Happy Kids", "note": "EKT - Happy Kids e.V.", "operator": "Happy Kids gGmbH"}}, {"type": "node", "id": 268915433, "lat": 52.5134717, "lon": 13.2803332, "tags": {"amenity": "kindergarten", "check_date": "2023-08-20", "name": "EKT - Grünes Nashorn e.V.", "wheelchair": "limited"}}, {"type": "node", "id": 268915441, "lat": 52.4939637, "lon": 13.4016768, "tags": {"addr:city": "Berlin", "addr:country": "DE", "addr:housenumber": "6", "addr:postcode": "10961", "addr:street": "Urbanstraße", "addr:suburb": "Kreuzberg", "amenity": "kindergarten", "contact:phone": "+49 30 6934833", "name": "EKT - Känguruh e.V.", "note": "EKT - Känguruh e.V.", "wheelchair": "no"}}, {"type": "node", "id": 268915442, "lat": 52.4869227, "lon": 13.3914611, "tags": {"addr:city": "Berlin", "addr:country": "DE", "addr:housenumber": "32", "addr:postcode": "10965", "addr:street": "Fidicinstraße", "addr:suburb": "Kreuzberg", "amenity": "kindergarten", "contact:website": "http://kirschkern-ev.de", "name": "Kinderladen Kalle Kirschkern", "operator": "Kirschkern e.V.", "wheelchair": "no"}}, {"type": "node", "id": 268915443, "lat": 52.4703256, "lon": 13.2926302, "tags": {"amenity": "kindergarten", "name": "EKT - Kantis Kinder-Klub e.V.", "note": "EKT - Kantis Kinder-Klub e.V."}}, {"type": "node", "id": 268915445, "lat": 52.5177009, "lon": 13.3025462, "tags": {"addr:city": "Berlin", "addr:country": "DE", "addr:housenumber": "42", "addr:postcode": "10585", "addr:street": "Gierkezeile", "addr:suburb": "Charlottenburg", "amenity": "kindergarten", "capacity": "23", "check_date": "2023-07-08", "contact:phone": "+49 30 3425046", "contact:website": "http://kitakaramell.de/", "max_age": "6", "min_age": "2", "name": "Kita Karamell", "operator": "EKT - Karamell e.V."}}, {"type": "node", "id": 268915447, "lat": 52.5134536, "lon": 13.2929372, "tags": {"addr:city": "Berlin", "addr:country": "DE", "addr:suburb": "Charlottenburg", "amenity": "kindergarten", "check_date": "2022-09-06", "name": "EKT - Kartoffelladen e.V."}}, {"type": "node", "id": 268915449, "lat": 52.4870863, "lon": 13.3760192, "tags": {"addr:city": "Berlin", "addr:country": "DE", "addr:housenumber": "19", "addr:postcode": "10965", "addr:street": "Katzbachstraße", "addr:suburb": "Kreuzberg", "amenity": "kindergarten", "contact:email": "vorstand@katzbachpiraten.de", "contact:phone": "+49 30 7855540", "contact:website": "http://www.katzbachpiraten.de/", "name": "Katzbachpiraten", "operator": "Katzbachpiraten e.V."}}, {"type": "node", "id": 268915455, "lat": 52.6001576, "lon": 13.3649076, "tags": {"amenity": "kindergarten", "name": "EKT - Hort im Märkischen Viertel e.V.", "note": "EKT - Hort im Märkischen Viertel e.V.", "wheelchair": "limited"}}, {"type": "node", "id": 268915458, "lat": 52.5336834, "lon": 13.4281648, "tags": {"addr:city": "Berlin", "addr:country": "DE", "addr:housenumber": "30A", "addr:postcode": "10405", "addr:street": "Marienburger Straße", "addr:suburb": "Prenzlauer Berg", "amenity": "kindergarten", "contact:phone": "+493044317200", "name": "EKT - Im Känguru e.V.", "note": "EKT - Im Känguru e.V."}}, {"type": "node", "id": 268915461, "lat": 52.5115831, "lon": 13.465717, "tags": {"addr:city": "Berlin", "addr:housenumber": "15-17", "addr:postcode": "10247", "addr:street": "Jungstraße", "amenity": "kindergarten", "check_date": "2023-04-29", "contact:website": "http://kinderladen-nido.de/", "name": "NIDO e.V. - Integrative Kinderbetreuung", "operator": "NIDO e.V. - Integrative Kinderbetreuung", "wheelchair": "no"}}, {"type": "node", "id": 268915466, "lat": 52.5550696, "lon": 13.37608, "tags": {"addr:city": "Berlin", "addr:country": "DE", "addr:housenumber": "3a", "addr:postcode": "13357", "addr:street": "Schwedenstraße", "addr:suburb": "Gesundbrunnen", "amenity": "kindergarten", "name": "EKT - Jo Jo e.V.", "note": "EKT - Jo Jo e.V.", "wheelchair": "no"}}, {"type": "node", "id": 268915467, "lat": 52.5253589, "lon": 13.2988279, "tags": {"addr:city": "Berlin", "addr:country": "DE", "addr:housenumber": "11", "addr:postcode": "10589", "addr:street": "Mindener Straße", "addr:suburb": "Charlottenburg", "amenity": "kindergarten", "check_date": "2023-09-16", "contact:website": "http://kitacheburashka.de/einrichtungen/charlottenburg/", "name": "Kita Cheburashka", "operator": "Cheburashka gGmbH", "wheelchair": "yes"}}, {"type": "node", "id": 268915471, "lat": 52.4792962, "lon": 13.3502442, "tags": {"addr:city": "Berlin", "addr:country": "DE", "addr:housenumber": "68", "addr:postcode": "10827", "addr:street": "Ebersstraße", "addr:suburb": "Schöneberg", "amenity": "kindergarten", "name": "Kita Ebersstraße", "operator": "Nachbarschaftsheim Schöneberg", "website": "https://kita-ebers.nbhs.de/"}}, {"type": "node", "id": 268915474, "lat": 52.4744996, "lon": 13.3355502, "tags": {"addr:city": "Berlin", "addr:country": "DE", "addr:housenumber": "30", "addr:postcode": "12159", "addr:street": "Lauterstraße", "addr:suburb": "Friedenau", "amenity": "kindergarten", "name": "Kita Lauterstraße 30", "operator": "Nachbarschaftsheim Schöneberg e.V.", "website": "https://kita-lauter30.nbhs.de/", "wheelchair": "no"}}, {"type": "node", "id": 268915487, "lat": 52.4583781, "lon": 13.3315085, "tags": {"addr:city": "Berlin", "addr:country": "DE", "addr:housenumber": "1", "addr:postcode": "12169", "addr:street": "Menckenstraße", "addr:suburb": "Steglitz", "amenity": "kindergarten", "name": "Kinderladen Kasymir", "operator": "Kasymir e.V.", "website": "http://www.kinderladen-kasymir.de"}}, {"type": "node", "id": 268915492, "lat": 52.413267, "lon": 13.2609157, "tags": {"amenity": "kindergarten", "check_date": "2023-07-22", "name": "EKT - Kinderhaus Schönow e.V.", "wheelchair": "yes"}}, {"type": "node", "id": 268915494, "lat": 52.5476783, "lon": 13.2049266, "tags": {"amenity": "kindergarten", "name": "EKT - Kinderhaus Gruberzeile e.V.", "note": "EKT - Kinderhaus Gruberzeile e.V.", "wheelchair": "no"}}, {"type": "node", "id": 268915497, "lat": 52.536391, "lon": 13.406703, "tags": {"addr:city": "Berlin", "addr:country": "DE", "addr:housenumber": "29", "addr:postcode": "10435", "addr:street": "Schwedter Straße", "addr:suburb": "Prenzlauer Berg", "amenity": "kindergarten", "contact:website": "https://kitakindersorpresa.de/de/", "language:es": "yes", "name": "Kita Kindersorpresa", "operator": "Kita Kindersorpresa e.V."}}, {"type": "node", "id": 268915498, "lat": 52.5138401, "lon": 13.2945968, "tags": {"addr:city": "Berlin", "addr:country": "DE", "addr:housenumber": "16A", "addr:postcode": "14059", "addr:street": "Nehringstraße", "addr:suburb": "Charlottenburg", "amenity": "kindergarten", "contact:website": "http://kibest.de/", "name": "KiBest Die Kita", "operator": "Kinderbegegnungsstätte e.V.", "wheelchair": "no"}}, {"type": "node", "id": 268915500, "lat": 52.5004737, "lon": 13.4294707, "tags": {"addr:city": "Berlin", "addr:country": "DE", "addr:suburb": "Kreuzberg", "amenity": "kindergarten", "contact:phone": "+49 30 6188183", "name": "Kinder aus Kreuzberg", "operator": "EKT Kinder aus Kreuzberg e.V.", "operator:type": "private_non_profit", "toilets:wheelchair": "yes", "wheelchair": "yes"}}, {"type": "node", "id": 268915502, "lat": 52.510792, "lon": 13.3136549, "tags": {"addr:city": "Berlin", "addr:country": "DE", "amenity": "kindergarten", "check_date": "2023-04-02", "name": "EKT - Kinderladen Purzelbaum e.V.", "wheelchair": "no"}}, {"type": "node", "id": 268915504, "lat": 52.4877529, "lon": 13.3207707, "tags": {"addr:city": "Berlin", "addr:country": "DE", "addr:housenumber": "14", "addr:postcode": "10717", "addr:street": "Gasteiner Straße", "addr:suburb": "Wilmersdorf", "amenity": "kindergarten", "name": "Kindergarten für musische und sprachliche Erziehung", "operator": "Kindergarten für musische und sprachliche Erziehung e.V.", "short_name": "Kiga Muse", "toilets:wheelchair": "no", "website": "https://kigamuse.de/", "wheelchair": "yes"}}, {"type": "node", "id": 268915506, "lat": 52.4872433, "lon": 13.2710587, "tags": {"addr:city": "Berlin", "addr:country": "DE", "addr:housenumber": "35", "addr:postcode": "14193", "addr:street": "Koenigsallee", "addr:suburb": "Grunewald", "amenity": "kindergarten", "name": "Kindergruppe Hasensprung", "operator": "Kindergruppe Hasensprung e. V.", "website": "https://kindergruppe-hasensprung.de/", "wheelchair": "yes"}}, {"type": "node", "id": 268915508, "lat": 52.4800607, "lon": 13.3228931, "tags": {"addr:city": "Berlin", "addr:country": "DE", "addr:housenumber": "25", "addr:postcode": "10715", "addr:street": "Mainzer Straße", "addr:suburb": "Wilmersdorf", "amenity": "kindergarten", "check_date": "2023-07-30", "contact:email": "info@kinderladen-mainzelmaennchen.de", "contact:phone": "+49 30 8536862", "contact:website": "http://www.kinderladen-mainzelmaennchen.de/", "name": "Kinderladen Mainzelmännchen", "operator": "Kinderladen Mainzelmännchen e.V."}}, {"type": "node", "id": 268915509, "lat": 52.5204769, "lon": 13.3018566, "tags": {"addr:city": "Berlin", "addr:country": "DE", "addr:housenumber": "13", "addr:postcode": "10587", "addr:street": "Eosanderstraße", "addr:suburb": "Charlottenburg", "amenity": "kindergarten", "contact:phone": "+49 30 3427060", "contact:website": "http://www.kiga-am-schloss.de", "name": "EKT - Kindergarten am Schloß Charlottenburg", "note": "EKT - Kindergarten am Schloß Charlottenburg"}}, {"type": "node", "id": 268915511, "lat": 52.512995, "lon": 13.4624363, "tags": {"amenity": "kindergarten", "check_date": "2023-12-11", "name": "EKT - Kinderbüro e.V.", "note": "EKT - Kinderbüro e.V.", "wheelchair": "no"}}, {"type": "node", "id": 268915514, "lat": 52.485661, "lon": 13.3242685, "tags": {"addr:city": "Berlin", "addr:country": "DE", "addr:housenumber": "18", "addr:postcode": "10715", "addr:street": "Wilhelmsaue", "addr:suburb": "Wilmersdorf", "amenity": "kindergarten", "name": "Kinderland", "operator": "EKT - Kinderland e.V."}}, {"type": "node", "id": 268915515, "lat": 52.4581963, "lon": 13.3698397, "tags": {"addr:city": "Berlin", "addr:country": "DE", "addr:housenumber": "113", "addr:postcode": "12105", "addr:street": "Alboinstraße", "addr:suburb": "Tempelhof", "amenity": "kindergarten", "contact:email": "info@kinderladen-berlin-tempelhof.de", "contact:website": "http://www.kinderladen-berlin-tempelhof.de/", "name": "Kinderspielkreis Alboinplatz", "operator": "Kinderspielkreis Alboinplatz e. V."}}, {"type": "node", "id": 268915519, "lat": 52.4458057, "lon": 13.3680752, "tags": {"addr:city": "Berlin", "addr:country": "DE", "addr:housenumber": "114", "addr:postcode": "12105", "addr:street": "Kurfürstenstraße", "addr:suburb": "Mariendorf", "amenity": "kindergarten", "check_date": "2023-08-09", "name": "Kinderladen \"Villa Kunterbunt\"", "note": "EKT - Kinderladeninitiative Tempelhof e.V.", "source": "http://kunterbunte-kinder.de"}}, {"type": "node", "id": 268915520, "lat": 52.4615738, "lon": 13.3443659, "tags": {"addr:city": "Berlin", "addr:country": "DE", "addr:housenumber": "29", "addr:postcode": "12157", "addr:street": "Thorwaldsenstraße", "addr:suburb": "Steglitz", "amenity": "kindergarten", "name": "Kinderladen Zweitausendfüssler", "operator": "Kinderladen Zweitausendfüssler e.V.", "website": "http://www.zweitausendfuessler.de", "wheelchair": "no"}}, {"type": "node", "id": 268915524, "lat": 52.4081911, "lon": 13.3555633, "tags": {"amenity": "kindergarten", "name": "EKT - Kinderwelt e.V.", "note": "EKT - Kinderwelt e.V.", "wheelchair": "yes"}}, {"type": "node", "id": 268915529, "lat": 52.527324, "lon": 13.3513713, "tags": {"addr:city": "Berlin", "addr:country": "DE", "addr:housenumber": "62", "addr:postcode": "10559", "addr:street": "Wilsnacker Straße", "addr:suburb": "Moabit", "amenity": "kindergarten", "contact:phone": "+49303946069", "contact:website": "http://kinderladen-badehaus.de/", "name": "Kinderladen Badehaus", "opening_hours": "Mo-Th 08:00-17:00; Fr 08:00-16:00; Sa-Su,PH off", "operator": "Kinderladen Badehaus e.V.", "wheelchair": "no"}}, {"type": "node", "id": 268915530, "lat": 52.4996751, "lon": 13.4246836, "tags": {"addr:city": "Berlin", "addr:country": "DE", "addr:housenumber": "202", "addr:postcode": "10999", "addr:street": "Oranienstraße", "addr:suburb": "Kreuzberg", "amenity": "kindergarten", "name": "EKT - Kinderladen Bande e.V.", "wheelchair": "no"}}, {"type": "node", "id": 268915531, "lat": 52.4933014, "lon": 13.3527944, "tags": {"addr:city": "Berlin", "addr:country": "DE", "addr:housenumber": "15", "addr:postcode": "10781", "addr:street": "Frankenstraße", "addr:suburb": "Schöneberg", "amenity": "kindergarten", "name": "Kinderladen Feuerkäfer", "note": "EKT - Kinderladen -Feuerkäfer- e.V.", "phone": "+4930 216 66 57", "website": "https://www.feuerkaefer.de/"}}, {"type": "node", "id": 268915536, "lat": 52.5045821, "lon": 13.297567, "tags": {"addr:city": "Berlin", "addr:country": "DE", "addr:housenumber": "5", "addr:postcode": "14057", "addr:street": "Friedbergstraße", "addr:suburb": "Charlottenburg", "amenity": "kindergarten", "name": "EKT - Kinderladen - was sonst e.V.", "note": "EKT - Kinderladen - was sonst e.V.", "wheelchair": "no"}}, {"type": "node", "id": 268915537, "lat": 52.4924853, "lon": 13.3862655, "tags": {"addr:city": "Berlin", "addr:country": "DE", "addr:housenumber": "88H", "addr:postcode": "10965", "addr:street": "Yorckstraße", "addr:suburb": "Kreuzberg", "amenity": "kindergarten", "contact:website": "http://www.kinderladen-luftabong.de", "description": "Elterninitiativ-Kinderladen", "name": "Kinderladen Luftabong", "operator": "Kinderladen-Luftabong e.V", "wheelchair": "yes"}}, {"type": "node", "id": 268915538, "lat": 52.5004598, "lon": 13.4337605, "tags": {"amenity": "kindergarten", "name": "EKT – Kinderladen Muko e.V.", "note": "EKT – Kinderladen Muko e.V.", "wheelchair": "limited"}}, {"type": "node", "id": 268915539, "lat": 52.4660128, "lon": 13.4334278, "tags": {"addr:city": "Berlin", "addr:country": "DE", "addr:housenumber": "9", "addr:postcode": "12051", "addr:street": "Kranoldstraße", "addr:suburb": "Neukölln", "amenity": "kindergarten", "contact:email": "verwaltung@pimpinellas.de", "contact:website": "http://www.pimpinellas.de/", "name": "Kinderladen Pimpinella", "operator": "Pimpinella e.V."}}, {"type": "node", "id": 268915540, "lat": 52.5082762, "lon": 13.4570377, "tags": {"addr:city": "Berlin", "addr:country": "DE", "addr:housenumber": "13", "addr:postcode": "10245", "addr:street": "Dirschauer Straße", "addr:suburb": "Friedrichshain", "amenity": "kindergarten", "contact:phone": "+49 30 29049648", "contact:website": "https://www.solev.org/", "name": "Kinderladen Sol", "operator": "Sol e.V."}}, {"type": "node", "id": 268915542, "lat": 52.509069, "lon": 13.3187152, "tags": {"addr:city": "Berlin", "addr:country": "DE", "addr:housenumber": "13", "addr:postcode": "10623", "addr:street": "Goethestraße", "addr:suburb": "Charlottenburg", "amenity": "kindergarten", "check_date": "2023-12-05", "contact:website": "http://kinderladen-goethestrasse.de/", "name": "Kinderladen Goethestraße", "operator": "Kinderladen Goethestraße e.V.", "wheelchair": "no"}}, {"type": "node", "id": 268915544, "lat": 52.5351799, "lon": 13.2706888, "tags": {"amenity": "kindergarten", "name": "EKT - Kinderladen Immerfrech e.V.", "note": "EKT - Kinderladen Immerfrech e.V.", "wheelchair": "no"}}, {"type": "node", "id": 268915546, "lat": 52.4990742, "lon": 13.2623584, "tags": {"amenity": "kindergarten", "name": "EKT - Knuddelmonster e.V./Helene-Keller-Schule"}}, {"type": "node", "id": 268915548, "lat": 52.4741033, "lon": 13.4247486, "tags": {"addr:city": "Berlin", "addr:country": "DE", "addr:housenumber": "28", "addr:postcode": "12049", "addr:street": "Weisestraße", "addr:suburb": "Neukölln", "amenity": "kindergarten", "name": "Kleiner Fratz", "phone": "+493096217997", "wheelchair": "limited"}}, {"type": "node", "id": 268915550, "lat": 52.4931256, "lon": 13.3549256, "tags": {"addr:city": "Berlin", "addr:country": "DE", "addr:housenumber": "40", "addr:postcode": "10781", "addr:street": "Gleditschstraße", "addr:suburb": "Schöneberg", "amenity": "kindergarten", "check_date": "2023-09-08", "name": "EKT - Konfetti e.V.", "phone": "+49 30 2157366", "wheelchair": "yes"}}, {"type": "node", "id": 268915552, "lat": 52.488962, "lon": 13.4193256, "tags": {"addr:city": "Berlin", "addr:country": "DE", "addr:housenumber": "4", "addr:postcode": "10967", "addr:street": "Jahnstraße", "addr:suburb": "Kreuzberg", "amenity": "kindergarten", "name": "Kinderladen Knulp", "operator": "Kinderladen Knulp e.V."}}, {"type": "node", "id": 268915554, "lat": 52.4821056, "lon": 13.3187851, "tags": {"addr:city": "Berlin", "addr:country": "DE", "addr:housenumber": "43", "addr:postcode": "10713", "addr:street": "Aachener Straße", "addr:suburb": "Wilmersdorf", "amenity": "kindergarten", "contact:email": "mail@kleinepanther.de", "contact:phone": "+49 30 8222769", "contact:website": "http://www.kleinepanther.de/", "name": "Kleine Panther", "operator": "Kleine Panther e.V.", "wheelchair": "no"}}, {"type": "node", "id": 268915556, "lat": 52.553932, "lon": 13.3485096, "tags": {"addr:city": "Berlin", "addr:country": "DE", "addr:housenumber": "5", "addr:postcode": "13349", "addr:street": "Türkenstraße", "addr:suburb": "Wedding", "amenity": "kindergarten", "contact:phone": "+49 30 451 9130", "contact:website": "https://www.kleine-himmelswolke.de/", "name": "Kleine Himmelswolke", "operator": "Kleine Himmelswolke e.V.", "wheelchair": "limited"}}, {"type": "node", "id": 268915557, "lat": 52.6123106, "lon": 13.4301146, "tags": {"addr:city": "Berlin", "addr:country": "DE", "addr:housenumber": "27B", "addr:postcode": "13127", "addr:street": "Triftstraße", "amenity": "kindergarten", "name": "EKT - Kleiner Fratz e.V.", "phone": "+49 30 47497597"}}, {"type": "node", "id": 268915560, "lat": 52.4888867, "lon": 13.357571, "tags": {"addr:city": "Berlin", "addr:country": "DE", "addr:housenumber": "2", "addr:postcode": "10823", "addr:street": "Vorbergstraße", "addr:suburb": "Schöneberg", "amenity": "kindergarten", "name": "Kleine Ungeheuer", "operator": "EKT - Kleine Ungeheuer e.V.", "website": "http://www.kleine-ungeheuer.de/", "wheelchair": "no"}}, {"type": "node", "id": 268915566, "lat": 52.5236836, "lon": 13.3494722, "tags": {"addr:city": "Berlin", "addr:country": "DE", "addr:housenumber": "22", "addr:postcode": "10557", "addr:street": "Kirchstraße", "addr:suburb": "Moabit", "amenity": "kindergarten", "name": "Kleckerburg", "operator": "EIKITA Kleckerburg e.V.", "website": "www.kleckerburg.org", "wheelchair": "yes"}}, {"type": "node", "id": 268915567, "lat": 52.4900288, "lon": 13.3899857, "tags": {"addr:city": "Berlin", "addr:country": "DE", "addr:housenumber": "25", "addr:postcode": "10961", "addr:street": "Nostitzstraße", "addr:suburb": "Kreuzberg", "amenity": "kindergarten", "contact:website": "http://kirschkern-ev.de", "name": "Kinderladen Klara Kirschkern", "operator": "Kirschkern e.V.", "wheelchair": "limited"}}, {"type": "node", "id": 268915568, "lat": 52.5594199, "lon": 13.3842856, "tags": {"addr:city": "Berlin", "addr:country": "DE", "addr:housenumber": "33", "addr:postcode": "13359", "addr:street": "Soldiner Straße", "addr:suburb": "Gesundbrunnen", "amenity": "kindergarten", "check_date": "2023-07-02", "contact:website": "https://www.klapperkiste.org/konzeption/", "name": "Kinderladen Klapperkiste", "operator": "EKT Klapperkiste e.V."}}, {"type": "node", "id": 268915571, "lat": 52.4457306, "lon": 13.3082137, "tags": {"addr:city": "Berlin", "addr:country": "DE", "addr:housenumber": "46a", "addr:postcode": "12203", "addr:street": "Moltkestraße", "addr:suburb": "Lichterfelde", "amenity": "kindergarten", "contact:website": "http://www.kinderladen-kleine-drachen.de/", "name": "Kinderladen Kleine Drachen", "operator": "EKT - Kleine Drachen e.V.", "wheelchair": "no"}}, {"type": "node", "id": 268915574, "lat": 52.3943929, "lon": 13.4191773, "tags": {"amenity": "kindergarten", "name": "EKT - Kita-Verein Lichtenrade Ost e.V."}}, {"type": "node", "id": 268915575, "lat": 52.4749504, "lon": 13.4231777, "tags": {"addr:city": "Berlin", "addr:country": "DE", "addr:housenumber": "29", "addr:postcode": "12049", "addr:street": "Schillerpromenade", "addr:suburb": "Neukölln", "amenity": "kindergarten", "name": "EKT - Kita Karlsgartenstraße e.V.", "note": "EKT - Kita Karlsgartenstr. e.V.", "phone": "+49306218931", "website": "http://www.kita-karlsgartenstr.de/"}}, {"type": "node", "id": 268915576, "lat": 52.4834596, "lon": 13.4693681, "tags": {"amenity": "kindergarten", "name": "EKT - Kita am Karpfenteich /Clara Petudio e.V."}}, {"type": "node", "id": 268915579, "lat": 52.4491, "lon": 13.3818, "tags": {"amenity": "kindergarten", "name": "EKT - Kitaverein Mücke e.V.", "note": "EKT - Kitaverein Mücke e.V."}}, {"type": "node", "id": 268915582, "lat": 52.4086097, "lon": 13.4028819, "tags": {"addr:city": "Berlin", "addr:country": "DE", "addr:housenumber": "57", "addr:postcode": "12305", "addr:street": "Lintruper Straße", "addr:suburb": "Lichtenrade", "amenity": "kindergarten", "contact:website": "http://www.dreckspatzen-berlin.de", "description": "Eltern-Initiativ-Kinderladen", "name": "Lichtenrader Dreckspatzen", "operator": "Lichtenrader Dreckspatzen e.V.", "wheelchair": "yes"}}, {"type": "node", "id": 268915583, "lat": 52.4828936, "lon": 13.3604237, "tags": {"addr:city": "Berlin", "addr:country": "DE", "addr:housenumber": "71", "addr:postcode": "10829", "addr:street": "Gotenstraße", "addr:suburb": "Schöneberg", "amenity": "kindergarten", "name": "EKT - Lilo Leopard e.V.", "note": "EKT - Lilo Leopard e.V.", "website": "http://www.liloleopard.de/"}}, {"type": "node", "id": 268915584, "lat": 52.4883983, "lon": 13.4381518, "tags": {"addr:city": "Berlin", "addr:country": "DE", "addr:housenumber": "38", "addr:postcode": "12045", "addr:street": "Weichselstraße", "addr:suburb": "Neukölln", "amenity": "kindergarten", "name": "EKT - Lima e.V.", "phone": "+49306237701", "wheelchair": "limited"}}, {"type": "node", "id": 268915585, "lat": 52.4959343, "lon": 13.4343173, "tags": {"addr:city": "Berlin", "addr:country": "DE", "addr:housenumber": "56", "addr:postcode": "10999", "addr:street": "Forster Straße", "addr:suburb": "Kreuzberg", "amenity": "kindergarten", "name": "EKT – Lindenblüte e.V.", "operator": "EKT – Lindenblüte e.V."}}, {"type": "node", "id": 268915586, "lat": 52.4861289, "lon": 13.4386908, "tags": {"addr:city": "Berlin", "addr:country": "DE", "addr:housenumber": "37", "addr:postcode": "12045", "addr:street": "Fuldastraße", "addr:suburb": "Neukölln", "amenity": "kindergarten", "contact:website": "http://www.loupiot.de/", "description": "Deutsch-französische Kindertagesstätte", "description:fr": "Jardin denfants franco-allemand", "name": "Loupiot e.V.", "wheelchair": "limited"}}, {"type": "node", "id": 268915587, "lat": 52.4973665, "lon": 13.4445658, "tags": {"amenity": "kindergarten", "name": "Kita Löwenhöhle", "operator": "EKT Löwenhöhle e.V.", "wheelchair": "limited"}}, {"type": "node", "id": 268915588, "lat": 52.5463279, "lon": 13.3183448, "tags": {"amenity": "kindergarten", "name": "EKT - Luftikus"}}, {"type": "node", "id": 268915590, "lat": 52.4600164, "lon": 13.3325365, "tags": {"addr:city": "Berlin", "addr:country": "DE", "addr:housenumber": "7", "addr:postcode": "12157", "addr:street": "Kniephofstraße", "addr:suburb": "Steglitz", "amenity": "kindergarten", "contact:phone": "+49307921181", "name": "EKT - Kuschelburg e.V."}}, {"type": "node", "id": 268915591, "lat": 52.4988898, "lon": 13.3406294, "tags": {"addr:city": "Berlin", "addr:country": "DE", "addr:housenumber": "41", "addr:postcode": "10777", "addr:street": "Ansbacher Straße", "addr:suburb": "Schöneberg", "amenity": "kindergarten", "name": "LAngolino", "operator": "LAngolino e.V.", "operator:type": "private_non_profit", "phone": "+49 30 2141751", "website": "https://langolino-berlin.de/"}}, {"type": "node", "id": 268915595, "lat": 52.43606, "lon": 13.34994, "tags": {"amenity": "kindergarten", "name": "EKT - Lankwitzer Spielkiste e.V.", "note": "EKT - Lankwitzer Spielkiste e.V."}}, {"type": "node", "id": 268915596, "lat": 52.5020274, "lon": 13.4295554, "tags": {"addr:city": "Berlin", "addr:housenumber": "43", "addr:postcode": "10997", "addr:street": "Muskauer Straße", "amenity": "kindergarten", "name": "Leierkasten", "operator": "EKT Leierkasten e.V.", "operator:type": "private_non_profit"}}, {"type": "node", "id": 268915598, "lat": 52.4901945, "lon": 13.3795205, "tags": {"amenity": "kindergarten", "check_date": "2023-04-15", "name": "EKT - Krümelmonster e.V.", "note": "EKT - Krümelmonster e.V.", "wheelchair": "limited"}}, {"type": "node", "id": 268915626, "lat": 52.4594611, "lon": 13.342167, "tags": {"addr:city": "Berlin", "addr:country": "DE", "addr:housenumber": "26", "addr:postcode": "12169", "addr:street": "Altmarkstraße", "addr:suburb": "Steglitz", "amenity": "kindergarten", "name": "Kinderladen Kulleberga", "opening_hours": "Mo-Fr 07:30-16:30", "operator": "Kulleberga e.V.", "phone": "+49 30 855504-0", "website": "http://kulleberga.de/"}}, {"type": "node", "id": 268915649, "lat": 52.4872582, "lon": 13.3940627, "tags": {"addr:city": "Berlin", "addr:country": "DE", "addr:postcode": "10965", "amenity": "kindergarten", "name": "EKT - Kulturschlüssel e.V."}}, {"type": "node", "id": 268915663, "lat": 52.4699402, "lon": 13.4379177, "tags": {"amenity": "kindergarten", "name": "EKT - Kurdistan Kultur- und Hilfeverein e.V.", "note": "EKT - Kurdistan Kultur- und Hilfeverein e.V."}}, {"type": "node", "id": 268915680, "lat": 52.5310544, "lon": 13.4130557, "tags": {"addr:city": "Berlin", "addr:country": "DE", "addr:housenumber": "15", "addr:postcode": "10405", "addr:street": "Saarbrücker Straße", "addr:suburb": "Prenzlauer Berg", "amenity": "kindergarten", "contact:website": "http://kindergarten-secretgarden.de/", "name": "Secret Garden", "operator": "Krausnick-Eck e.V."}}, {"type": "node", "id": 268915691, "lat": 52.5715051, "lon": 13.4102114, "tags": {"amenity": "kindergarten", "name": "EKT - Krikelkrakel e.V.", "note": "EKT - Krikelkrakel e.V.", "wheelchair": "no"}}, {"type": "node", "id": 268915711, "lat": 52.50161, "lon": 13.43453, "tags": {"amenity": "kindergarten", "check_date": "2023-11-13", "name": "EKT - Kröwalda e.V.", "note": "EKT - Kröwalda e.V.", "wheelchair": "yes"}}, {"type": "node", "id": 268915723, "lat": 52.487574, "lon": 13.396599, "tags": {"addr:city": "Berlin", "addr:country": "DE", "addr:housenumber": "7", "addr:postcode": "10965", "addr:street": "Heimstraße", "addr:suburb": "Kreuzberg", "amenity": "kindergarten", "contact:phone": "+49 30 691 1656", "contact:website": "http://www.krötenpfuhl.de", "name": "EKT - Krötenpfuhl e.V.", "wheelchair": "yes"}}, {"type": "node", "id": 268915731, "lat": 52.54657, "lon": 13.34794, "tags": {"amenity": "kindergarten", "name": "EKT - Krümelbande e.V.", "note": "EKT - Krümelbande e.V."}}, {"type": "node", "id": 268915740, "lat": 52.5256222, "lon": 13.1980422, "tags": {"addr:city": "Berlin", "addr:country": "DE", "addr:housenumber": "33", "addr:postcode": "13581", "addr:street": "Krowelstraße", "addr:suburb": "Wilhelmstadt", "amenity": "kindergarten", "contact:website": "http://krowelkinder.de", "name": "Kinderladen Krowelstraße", "operator": "Krowelstraße e.V."}}, {"type": "node", "id": 268915771, "lat": 52.541435, "lon": 13.3601669, "tags": {"addr:city": "Berlin", "addr:country": "DE", "addr:housenumber": "26", "addr:postcode": "13353", "addr:street": "Sparrstraße", "addr:suburb": "Wedding", "amenity": "kindergarten", "check_date": "2023-04-29", "name": "Montessori Kinderhaus \"Kolibris\"", "operator": "Kita Paradiesvögel", "website": "https://paradiesvoegel.eu/kita-sparr/"}}, {"type": "node", "id": 268915792, "lat": 52.5221385, "lon": 13.3356886, "tags": {"addr:city": "Berlin", "addr:country": "DE", "addr:postcode": "10555", "addr:street": "Elberfelder Straße", "addr:suburb": "Moabit", "amenity": "kindergarten", "name": "EKT - Momo e.V.", "note": "EKT - Momo e.V."}}, {"type": "node", "id": 268915805, "lat": 52.4596277, "lon": 13.2755161, "tags": {"addr:city": "Berlin", "addr:country": "DE", "addr:housenumber": "92", "addr:postcode": "14195", "addr:street": "Clayallee", "addr:suburb": "Dahlem", "amenity": "kindergarten", "contact:phone": "+49 30 8327999", "contact:website": "http://www.montessori-gemeinschaftshaus.de", "name": "Montessori Gemeinschaftshaus e.V."}}, {"type": "node", "id": 268915809, "lat": 52.5324336, "lon": 13.4098838, "tags": {"addr:city": "Berlin", "addr:country": "DE", "addr:housenumber": "30", "addr:postcode": "10119", "addr:street": "Christinenstraße", "addr:suburb": "Prenzlauer Berg", "amenity": "kindergarten", "check_date": "2023-05-21", "contact:website": "http://www.kila-mittenmang.de/", "name": "EKT - Mittenmang e.V.", "operator": "Eltern-Initiativ-Kindertagesstätte (EKT) Mittenmang e.V.", "wheelchair": "no"}}, {"type": "node", "id": 268915810, "lat": 52.4790537, "lon": 13.3338963, "tags": {"addr:city": "Berlin", "addr:country": "DE", "addr:housenumber": "20", "addr:postcode": "10715", "addr:street": "Wexstraße", "addr:suburb": "Wilmersdorf", "amenity": "kindergarten", "contact:email": "info@kinderladen-felix.de", "contact:phone": "+49 30 8537601", "contact:website": "https://www.kinderladen-felix.de/", "name": "Kinderladen Felix", "operator": "Eikita Felix e.V."}}, {"type": "node", "id": 268915811, "lat": 52.4741524, "lon": 13.4512378, "tags": {"addr:city": "Berlin", "addr:country": "DE", "addr:housenumber": "18", "addr:postcode": "12055", "addr:street": "Mareschstraße", "addr:suburb": "Neukölln", "amenity": "kindergarten", "check_date": "2023-10-18", "name": "EKT - Minihausen e.V.", "note": "EKT - Minihausen e.V."}}, {"type": "node", "id": 268915813, "lat": 52.4865731, "lon": 13.392661, "tags": {"addr:city": "Berlin", "addr:country": "DE", "addr:housenumber": "19", "addr:postcode": "10965", "addr:street": "Fidicinstraße", "addr:suburb": "Kreuzberg", "amenity": "kindergarten", "contact:website": "http://www.koop-verbund.de/index.php?id=20", "name": "Schülerladen Milli Vanilli", "operator": "Kooperationsverbund Reinhardswald Grundschule e.V.", "wheelchair": "no"}}, {"type": "node", "id": 268915814, "lat": 52.4906386, "lon": 13.4134444, "tags": {"amenity": "kindergarten", "name": "EKT - Minife e.V.", "wheelchair": "no"}}, {"type": "node", "id": 268915829, "lat": 52.427498, "lon": 13.4668977, "tags": {"addr:city": "Berlin", "addr:country": "DE", "addr:housenumber": "38", "addr:postcode": "12353", "addr:street": "Lipschitzallee", "addr:suburb": "Gropiusstadt", "amenity": "kindergarten", "name": "Kinderhort Gropiusstadt", "operator": "Kinderhort Gropiusstadt der Mieterinitiative HWS-Gropiusstadt e.V.", "wheelchair": "limited"}}, {"type": "node", "id": 268915830, "lat": 52.6339047, "lon": 13.2862307, "tags": {"amenity": "kindergarten", "name": "EKT - Maxizwerge e.V."}}, {"type": "node", "id": 268915833, "lat": 52.4606002, "lon": 13.3855887, "tags": {"addr:city": "Berlin", "addr:country": "DE", "addr:housenumber": "123", "addr:postcode": "12099", "addr:street": "Albrechtstraße", "addr:suburb": "Tempelhof", "amenity": "kindergarten", "name": "Schülerladen Maulwurf e.V."}}, {"type": "node", "id": 268915835, "lat": 52.4070145, "lon": 13.3492203, "tags": {"amenity": "kindergarten", "name": "EKT - Marienfelde e.V.", "note": "EKT - Marienfelde e.V.", "wheelchair": "no"}}, {"type": "node", "id": 268915836, "lat": 52.4579685, "lon": 13.374465, "tags": {"amenity": "kindergarten", "name": "Kita Märchenwald"}}, {"type": "node", "id": 268915837, "lat": 52.5058571, "lon": 13.283573, "tags": {"addr:city": "Berlin", "addr:housenumber": "57", "addr:postcode": "14057", "addr:street": "Dernburgstraße", "amenity": "kindergarten", "contact:website": "https://www.kitanetz.de/berlin/14057/mappagei.php", "name": "EKT - Mappagei e.V.", "phone": "+49 30 3254565"}}, {"type": "node", "id": 268915838, "lat": 52.5343031, "lon": 13.3497287, "tags": {"addr:city": "Berlin", "addr:housenumber": "17", "addr:postcode": "10559", "addr:street": "Stephanstraße", "amenity": "kindergarten", "name": "Kinderladen Maluch", "operator": "Verein zur Förderung und Integration polnischer Kinder in der Berliner Gesellschaft e.V.", "phone": "+49 30 3967815", "website": "https://kitamaluch.de/", "wheelchair": "no"}}, {"type": "node", "id": 268915840, "lat": 52.5155757, "lon": 13.3184127, "tags": {"addr:city": "Berlin", "addr:country": "DE", "addr:housenumber": "26", "addr:postcode": "10587", "addr:street": "Fraunhoferstraße", "addr:suburb": "Charlottenburg", "amenity": "kindergarten", "contact:email": "vorstand@kita-maikaefer.de", "contact:phone": "+49 30 3482512", "contact:website": "http://www.kita-maikaefer.de/", "name": "Kindertagesstätte Maikäfer", "operator": "Kindertagesstätte Maikäfer e.V."}}, {"type": "node", "id": 268915841, "lat": 52.4749536, "lon": 13.4259728, "tags": {"amenity": "kindergarten", "check_date": "2023-09-01", "name": "Mafalda e.V."}}, {"type": "node", "id": 268915844, "lat": 52.4888476, "lon": 13.3747626, "tags": {"amenity": "kindergarten", "name": "EKT - Macht nix e.V.", "wheelchair": "yes"}}, {"type": "node", "id": 268915846, "lat": 52.5277135, "lon": 13.3516737, "tags": {"addr:city": "Berlin", "addr:country": "DE", "addr:housenumber": "14", "addr:postcode": "10559", "addr:street": "Wilsnacker Straße", "addr:suburb": "Moabit", "amenity": "kindergarten", "contact:website": "https://www.montessori-perle.de/", "name": "Kinderladen Perle", "operator": "Kinderladen Perle e.V.", "wheelchair": "no", "wheelchair:description": "Eingang im Hof"}}, {"type": "node", "id": 268915848, "lat": 52.5192756, "lon": 13.3054172, "tags": {"addr:city": "Berlin", "addr:country": "DE", "addr:housenumber": "2A", "addr:postcode": "10587", "addr:street": "Brauhofstraße", "addr:suburb": "Charlottenburg", "amenity": "kindergarten", "name": "Pezzettino Kinderladen"}}, {"type": "node", "id": 268915849, "lat": 52.3928109, "lon": 13.4102691, "tags": {"addr:city": "Berlin", "addr:country": "DE", "addr:housenumber": "100", "addr:postcode": "12309", "addr:street": "Alt-Lichtenrade", "addr:suburb": "Lichtenrade", "amenity": "kindergarten", "contact:website": "http://www.kila-pillepoppen.de/", "name": "Kinderladen Pillepoppen", "operator": "Pillepoppen e.V.", "toilets:wheelchair": "yes", "wheelchair": "yes"}}, {"type": "node", "id": 268915850, "lat": 52.5030644, "lon": 13.3040456, "tags": {"amenity": "kindergarten", "name": "EKT - Paretz e.V.", "note": "EKT - Paretz e.V.", "wheelchair": "limited"}}, {"type": "node", "id": 268915851, "lat": 52.4800565, "lon": 13.3222391, "tags": {"addr:city": "Berlin", "addr:country": "DE", "addr:housenumber": "26a", "addr:postcode": "10715", "addr:street": "Mainzer Straße", "addr:suburb": "Wilmersdorf", "amenity": "kindergarten", "check_date": "2023-07-30", "contact:phone": "+49 30 8549440", "contact:website": "http://paulundklaerchen.de/", "name": "Paul und Klärchen", "operator": "Paul und Klärchen e.V."}}, {"type": "node", "id": 268915852, "lat": 52.5511523, "lon": 13.3400271, "tags": {"amenity": "kindergarten", "name": "Kinderladen Berliner Stadtmäuse", "operator": "EKT Berliner Stadtmäuse e.V.", "website": "http://blog.ekt-berliner-stadtmaeuse.de/"}}, {"type": "node", "id": 268915854, "lat": 52.5042624, "lon": 13.3682563, "tags": {"addr:city": "Berlin", "addr:country": "DE", "addr:housenumber": "5", "addr:postcode": "10785", "addr:street": "Bissingzeile", "addr:suburb": "Tiergarten", "amenity": "kindergarten", "name": "Kita Pädagogisches Zentrum Bissingzeile", "operator": "Kita Pädagogisches Zentrum Bissingzeile e.V.", "wheelchair": "no"}}, {"type": "node", "id": 268915855, "lat": 52.48681, "lon": 13.39179, "tags": {"amenity": "kindergarten", "name": "EKT - Palletti e.V.", "note": "EKT - Palletti e.V."}}, {"type": "node", "id": 268915856, "lat": 52.5285785, "lon": 13.3455369, "tags": {"addr:city": "Berlin", "addr:country": "DE", "addr:housenumber": "13", "addr:postcode": "10559", "addr:street": "Lübecker Straße", "addr:suburb": "Moabit", "amenity": "kindergarten", "check_date": "2023-04-11", "name": "Kinderladen Panther, Tiger & Co.", "operator": "EKT Panther, Tiger & Co. e.V.", "wheelchair": "no"}}, {"type": "node", "id": 268915858, "lat": 52.4945776, "lon": 13.4142671, "tags": {"addr:city": "Berlin", "addr:country": "DE", "addr:housenumber": "1A", "addr:postcode": "10967", "addr:street": "Grimmstraße", "addr:suburb": "Kreuzberg", "amenity": "kindergarten", "check_date": "2021-06-17", "contact:email": "optimisten@posteo.de", "contact:phone": "+49 170 4983820", "contact:website": "https://kinderladen-optimisten.de/", "name": "Kinderladen „Die Optimisten“", "operator": "EKT „Die Optimisten“ e. V."}}, {"type": "node", "id": 268915859, "lat": 52.4804885, "lon": 13.4464583, "tags": {"amenity": "kindergarten", "name": "EKT - Orgelpfeifen e.V.", "note": "EKT - Orgelpfeifen e.V.", "wheelchair": "yes"}}, {"type": "node", "id": 268915863, "lat": 52.5362904, "lon": 13.4259284, "tags": {"addr:city": "Berlin", "addr:country": "DE", "addr:housenumber": "41", "addr:postcode": "10405", "addr:street": "Christburger Straße", "addr:suburb": "Prenzlauer Berg", "amenity": "kindergarten", "contact:phone": "+493047378599", "contact:website": "http://www.ekt-obst-und-gemüse.de", "name": "Obst und Gemüse", "operator": "EKT Obst und Gemüse e. V."}}, {"type": "node", "id": 268915864, "lat": 52.4786997, "lon": 13.3474589, "tags": {"addr:city": "Berlin", "addr:country": "DE", "addr:housenumber": "11", "addr:postcode": "10827", "addr:street": "Kärntener Straße", "addr:suburb": "Schöneberg", "amenity": "kindergarten", "name": "Kinderladen Onnimanni", "operator": "Eltern-Initiativ-Kindertagesstätte Onnimanni e.V.", "website": "http://www.onnimanni.de/"}}, {"type": "node", "id": 268915866, "lat": 52.492978, "lon": 13.3280397, "tags": {"addr:city": "Berlin", "addr:country": "DE", "addr:housenumber": "6-7", "addr:postcode": "10717", "addr:street": "Nikolsburger Straße", "addr:suburb": "Wilmersdorf", "amenity": "kindergarten", "name": "Aventura Nikolsburg", "phone": "+493091688900", "website": "https://www.aventura-nikolsburg.de/"}}, {"type": "node", "id": 268915867, "lat": 52.4787428, "lon": 13.4228579, "tags": {"amenity": "kindergarten", "check_date": "2023-05-01", "name": "EKT - Neuzeitlich-christliche Initiative e.V.", "note": "EKT - Neuzeitlich-christliche Initiative e.V."}}, {"type": "node", "id": 268915868, "lat": 52.4877162, "lon": 13.3527017, "tags": {"addr:city": "Berlin", "addr:country": "DE", "addr:housenumber": "4", "addr:postcode": "10823", "addr:street": "Merseburger Straße", "addr:suburb": "Schöneberg", "amenity": "kindergarten", "check_date": "2023-04-15", "contact:phone": "+49 30 7815996", "name": "EKT Nusskasper", "wheelchair": "no"}}, {"type": "node", "id": 268915869, "lat": 52.4920921, "lon": 13.3542154, "tags": {"amenity": "kindergarten", "check_date": "2023-05-21", "contact:website": "https://www.kiezbuendnis.de/nina-e-v/", "name": "EKT - Nina e.V.", "official_name": "EKT - Nina e.V.", "operator:type": "private_non_profit"}}, {"type": "node", "id": 268915871, "lat": 52.5003041, "lon": 13.3860819, "tags": {"addr:city": "Berlin", "addr:country": "DE", "addr:housenumber": "94", "addr:postcode": "10963", "addr:street": "Großbeerenstraße", "addr:suburb": "Kreuzberg", "amenity": "kindergarten", "contact:website": "http://www.nasreddin-kindertagesstaette.de", "name": "Kinderladen Nasreddin", "operator": "Nasreddin e.V.", "wheelchair": "yes"}}, {"type": "node", "id": 268915873, "lat": 52.488934, "lon": 13.3764346, "tags": {"addr:city": "Berlin", "addr:country": "DE", "addr:housenumber": "11", "addr:postcode": "10965", "addr:street": "Katzbachstraße", "addr:suburb": "Kreuzberg", "amenity": "kindergarten", "name": "EKT - Nervensägen e.V.", "phone": "+49307856998"}}, {"type": "node", "id": 268915875, "lat": 52.5032019, "lon": 13.4259374, "tags": {"amenity": "kindergarten", "name": "EKT Muskauer Straße 30", "operator": "EKT Muskauer Straße 30 e.V.", "operator:type": "private_non_profit", "wheelchair": "limited"}}, {"type": "node", "id": 268915877, "lat": 52.489874, "lon": 13.3261811, "tags": {"amenity": "kindergarten", "name": "EKT - Narrenfreiheit e.V.", "note": "EKT - Narrenfreiheit e.V."}}, {"type": "node", "id": 268915880, "lat": 52.5042306, "lon": 13.2981796, "tags": {"addr:city": "Berlin", "addr:country": "DE", "addr:housenumber": "3", "addr:postcode": "14057", "addr:street": "Rönnestraße", "addr:suburb": "Charlottenburg", "amenity": "kindergarten", "contact:phone": "+49 30 3240976", "contact:website": "http://www.kitanetz.de/14057/roter-boller.htm", "name": "EKT - Roter Boller e.V.", "note": "EKT - Roter Boller e.V."}}, {"type": "node", "id": 268915881, "lat": 52.4615377, "lon": 13.3437482, "tags": {"addr:city": "Berlin", "addr:country": "DE", "addr:housenumber": "12", "addr:postcode": "12157", "addr:street": "Horst-Kohl-Straße", "addr:suburb": "Steglitz", "amenity": "kindergarten", "description": "Montessori-Kinderladen", "name": "Kinderladen Rotkappe", "operator": "EKT Rotkappe e.V.", "phone": "+49 30 609 666 44", "website": "http://www.kila-rotkappe.de/"}}, {"type": "node", "id": 268915882, "lat": 52.5246744, "lon": 13.3376384, "tags": {"addr:city": "Berlin", "addr:country": "DE", "addr:housenumber": "2", "addr:postcode": "10555", "addr:street": "Bochumer Straße", "addr:suburb": "Moabit", "amenity": "kindergarten", "name": "Kinderladen Rosa Kirschkern", "operator": "Kirschkern e.V.", "website": "https://kirschkern-ev.de/rosa-kirschkern/", "wheelchair": "no"}}, {"type": "node", "id": 268915885, "lat": 52.4544559, "lon": 13.3767537, "tags": {"addr:city": "Berlin", "addr:housenumber": "15/17", "addr:postcode": "12105", "addr:street": "Konradinstraße", "addr:suburb": "Tempelhof", "amenity": "kindergarten", "check_date": "2023-08-05", "name": "Wolkenkinder", "note": "WoKi gGmbH Ganztagsbetreuung. Gehört zur Paul-Klee-Schule."}}, {"type": "node", "id": 268915886, "lat": 52.5348268, "lon": 13.3487059, "tags": {"addr:city": "Berlin", "addr:country": "DE", "addr:housenumber": "125", "addr:postcode": "10559", "addr:street": "Quitzowstraße", "addr:suburb": "Moabit", "amenity": "kindergarten", "name": "Kinderladen Sagaland", "operator": "EKT Sagaland e.V.", "website": "http://kinderladen-sagaland.de/"}}, {"type": "node", "id": 268915887, "lat": 52.5004607, "lon": 13.4336002, "tags": {"amenity": "kindergarten", "name": "EKT – Schippe und Eimer e.V.", "note": "EKT – Schippe und Eimer e.V."}}, {"type": "node", "id": 268915888, "lat": 52.5479449, "lon": 13.2627895, "tags": {"amenity": "kindergarten", "name": "EKT - Saatwinkler Küken e.V."}}, {"type": "node", "id": 268915889, "lat": 52.5711889, "lon": 13.3758193, "tags": {"amenity": "kindergarten", "check_date": "2023-08-13", "name": "EKT - Saftladen e.V.", "note": "EKT - Saftladen e.V.", "phone": "+49 30 4148251"}}, {"type": "node", "id": 268915890, "lat": 52.4834682, "lon": 13.3544751, "tags": {"addr:city": "Berlin", "addr:country": "DE", "addr:housenumber": "53", "addr:postcode": "10827", "addr:street": "Feurigstraße", "addr:suburb": "Schöneberg", "amenity": "kindergarten", "contact:email": "info@kinderladen-ruebezahl.de", "contact:phone": "+49 30 7828600", "contact:website": "http://kinderladen-ruebezahl.de", "name": "Kinderladen Rübezahl", "operator": "Elterninitiativkindertagesstätte Rübezahl e.V.", "wheelchair": "yes"}}, {"type": "node", "id": 268915891, "lat": 52.5690797, "lon": 13.3785028, "tags": {"amenity": "kindergarten", "name": "Kinderladen - Rummel-Bummel e.V.", "note": "EKT - Rummel-Bummel e.V.", "phone": "+49 30 4919071", "wheelchair": "no"}}, {"type": "node", "id": 268915893, "lat": 52.49708, "lon": 13.44091, "tags": {"amenity": "kindergarten", "name": "EKT - Rübezahl e.V."}}, {"type": "node", "id": 268915894, "lat": 52.4578285, "lon": 13.3858837, "tags": {"addr:city": "Berlin", "addr:country": "DE", "addr:housenumber": "87", "addr:postcode": "12099", "addr:street": "Friedrich-Wilhelm-Straße", "addr:suburb": "Tempelhof", "amenity": "kindergarten", "name": "Schmunzelmonster", "phone": "+49307518847", "website": "http://www.kila-schmunzelmonster.de/", "wheelchair": "no"}}, {"type": "node", "id": 268915895, "lat": 52.48764, "lon": 13.3613528, "tags": {"amenity": "kindergarten", "name": "Schülerladen Schmuddelkinder"}}, {"type": "node", "id": 268915896, "lat": 52.6002708, "lon": 13.3328659, "tags": {"addr:city": "Berlin", "addr:housenumber": "13", "addr:postcode": "13435", "addr:street": "Lübarser Straße", "addr:suburb": "Wittenau", "amenity": "kindergarten", "fax": "+49 30 4311040", "name": "Kinderladen Schlumpfoase", "operator": "Kinderladen Schlumpfoase e.V.", "operator:type": "private", "phone": "+49 30 40 30 47 17", "website": "http://www.schlumpfoase.de/"}}, {"type": "node", "id": 268915900, "lat": 52.4773576, "lon": 13.3084895, "tags": {"amenity": "kindergarten", "name": "EKT - Schlange 99 e.V.", "note": "EKT - Schlange 99 e.V."}}, {"type": "node", "id": 268915901, "lat": 52.4288001, "lon": 13.2160615, "tags": {"addr:city": "Berlin", "addr:country": "DE", "addr:housenumber": "75", "addr:postcode": "14129", "addr:street": "Wasgenstraße", "addr:suburb": "Schlachtensee", "amenity": "kindergarten", "contact:website": "http://www.ektschlachtensee.de/", "name": "EKT Schlachtensee", "operator": "EKT Schlachtensee e.V."}}, {"type": "node", "id": 268915904, "lat": 52.466434, "lon": 13.3345537, "tags": {"addr:city": "Berlin", "addr:housenumber": "30", "addr:postcode": "12161", "addr:street": "Holsteinische Straße", "addr:suburb": "Friedenau", "amenity": "kindergarten", "name": "Kita Holsteinische Straße", "operator": "Nachbarschaftsheim Schöneberg e.V."}}, {"type": "node", "id": 268915906, "lat": 52.4766114, "lon": 13.3291425, "tags": {"addr:city": "Berlin", "addr:country": "DE", "addr:housenumber": "4", "addr:postcode": "12159", "addr:street": "Sieglindestraße", "addr:suburb": "Friedenau", "amenity": "kindergarten", "name": "Kinderladen Mäusebande", "operator": "EKT - Schöneberger Eltern-Initiativ-Kita e.V.", "phone": "+4930 8518399", "website": "https://www.maeusebande-berlin.de", "wheelchair": "no"}}, {"type": "node", "id": 268915908, "lat": 52.5012573, "lon": 13.4229041, "tags": {"addr:city": "Berlin", "addr:country": "DE", "addr:housenumber": "72", "addr:postcode": "10997", "addr:street": "Naunynstraße", "addr:suburb": "Kreuzberg", "amenity": "kindergarten", "contact:phone": "+49 30 6157699", "contact:website": "http://www.frauenzentrum-schokofabrik.de/index.php?id=23", "name": "Kinderladen Schokokids", "operator": "Frauenzentrum Schokoladenfabrik e.V."}}, {"type": "node", "id": 268915911, "lat": 52.4933135, "lon": 13.4198187, "tags": {"amenity": "kindergarten", "name": "EKT - Pittiplatsch e.V.", "note": "EKT - Pittiplatsch e.V.", "toilets:wheelchair": "no", "wheelchair": "limited"}}, {"type": "node", "id": 268915912, "lat": 52.4952945, "lon": 13.4449023, "tags": {"amenity": "kindergarten", "name": "EKT Plutonia", "operator": "EKT – Plutonia e.V.", "operator:type": "private_non_profit", "preschool": "yes", "wheelchair": "yes"}}, {"type": "node", "id": 268915913, "lat": 52.4904836, "lon": 13.333279, "tags": {"amenity": "kindergarten", "check_date": "2023-10-08", "name": "EKT - Prinz Güntzel e.V.", "website": "https://www.prinz-guentzel.de/"}}, {"type": "node", "id": 268915914, "lat": 52.4729071, "lon": 13.4505217, "tags": {"addr:city": "Berlin", "addr:country": "DE", "addr:housenumber": "11", "addr:postcode": "12055", "addr:street": "Niemetzstraße", "addr:suburb": "Neukölln", "amenity": "kindergarten", "name": "Kinderladen Puzzle"}}, {"type": "node", "id": 268915918, "lat": 52.5475549, "lon": 13.3513751, "tags": {"amenity": "kindergarten", "name": "EKT - Pinocchio e.V.", "note": "EKT - Pinocchio e.V."}}, {"type": "node", "id": 268915919, "lat": 52.5249606, "lon": 13.3964096, "tags": {"addr:city": "Berlin", "addr:country": "DE", "addr:housenumber": "3A", "addr:postcode": "10115", "addr:street": "Krausnickstraße", "addr:suburb": "Mitte", "amenity": "kindergarten", "contact:website": "http://www.kinderladen-pippilangstrumpf.de/", "name": "Kinderladen Pippi Langstrumpf", "operator": "Pippi Langstrumpf e.V.", "wheelchair": "no"}}, {"type": "node", "id": 268915920, "lat": 52.4696362, "lon": 13.4247795, "tags": {"addr:city": "Berlin", "addr:country": "DE", "addr:housenumber": "56", "addr:postcode": "12051", "addr:street": "Warthestraße", "addr:suburb": "Neukölln", "amenity": "kindergarten", "check_date": "2023-06-16", "contact:website": "http://www.ekts.de/", "name": "Kita Pumuckel", "operator": "Verein zur Errichtung und Betreibung von EKTs e.V.", "preschool": "no", "wheelchair": "no"}}, {"type": "node", "id": 268915921, "lat": 52.5182902, "lon": 13.3076454, "tags": {"addr:city": "Berlin", "addr:country": "DE", "addr:housenumber": "7", "addr:postcode": "10587", "addr:street": "Alt-Lietzow", "addr:suburb": "Charlottenburg", "amenity": "kindergarten", "check_date": "2023-07-22", "contact:website": "https://www.kinderladen-puenktchen.de/", "name": "Kinderladen Pünktchen", "operator": "Elterninitiativ KiTa Pünktchen e.V.", "wheelchair": "no"}}, {"type": "node", "id": 268915922, "lat": 52.4870953, "lon": 13.2983802, "tags": {"amenity": "kindergarten", "name": "EKT - Pünktchen und Anton e.V.", "note": "EKT - Pünktchen und Anton e.V."}}, {"type": "node", "id": 268915931, "lat": 52.4951598, "lon": 13.4170741, "tags": {"addr:city": "Berlin", "addr:country": "DE", "addr:housenumber": "92", "addr:postcode": "10967", "addr:street": "Planufer", "addr:suburb": "Kreuzberg", "amenity": "kindergarten", "contact:phone": "+49 30 6915016", "contact:website": "http://kita-raeuberhoehle.de/", "name": "Räuberhöhle", "operator": "EKT - Räuberhöhle e.V.", "wheelchair": "yes"}}, {"type": "node", "id": 268915933, "lat": 52.450114, "lon": 13.3338764, "tags": {"addr:city": "Berlin", "addr:country": "DE", "addr:housenumber": "7", "addr:postcode": "12167", "addr:street": "Sedanstraße", "addr:suburb": "Steglitz", "amenity": "kindergarten", "name": "Kinderladen Pusteblume", "operator": "Elterninitiativ-Kindertagesstätte Pusteblume e.V.", "website": "https://www.pusteblume-steglitz.de/"}}, {"type": "node", "id": 268915934, "lat": 52.5087759, "lon": 13.3163335, "tags": {"addr:city": "Berlin", "addr:country": "DE", "amenity": "kindergarten", "check_date": "2023-12-05", "name": "EKT - Randale e.V.", "note": "EKT - Randale e.V.", "wheelchair": "limited"}}, {"type": "node", "id": 268915935, "lat": 52.5387193, "lon": 13.408538, "tags": {"addr:city": "Berlin", "addr:country": "DE", "addr:housenumber": "50", "addr:postcode": "10435", "addr:street": "Oderberger Straße", "addr:suburb": "Prenzlauer Berg", "amenity": "kindergarten", "contact:phone": "+494488054", "name": "EKT - Quasselstrippe e.V.", "website": "https://www.kitanetz.de/10435/quasselstrippe.htm"}}, {"type": "node", "id": 268915937, "lat": 52.4580628, "lon": 13.3129269, "tags": {"addr:city": "Berlin", "addr:country": "DE", "addr:housenumber": "4", "addr:postcode": "12165", "addr:street": "Schmidt-Ott-Straße", "addr:suburb": "Steglitz", "amenity": "kindergarten", "contact:email": "info@ringelbande.de", "contact:phone": "+49307920895", "contact:website": "http://www.ringelbande.de/", "name": "Ringelbande e.V.", "note": "EKT - Ringelbande e.V.", "wheelchair": "no"}}, {"type": "node", "id": 268915938, "lat": 52.5032734, "lon": 13.2935252, "tags": {"addr:city": "Berlin", "addr:country": "DE", "addr:housenumber": "18", "addr:postcode": "14057", "addr:street": "Rönnestraße", "addr:suburb": "Charlottenburg", "amenity": "kindergarten", "contact:website": "http://www.roenne18.de/index.html", "name": "Kinderladen Rönne 18", "note": "EKT Rönne 18 e. V."}}, {"type": "node", "id": 268915939, "lat": 52.4784781, "lon": 13.4404565, "tags": {"addr:city": "Berlin", "addr:country": "DE", "addr:housenumber": "11", "addr:postcode": "12043", "addr:street": "Berthelsdorfer Straße", "addr:suburb": "Neukölln", "amenity": "kindergarten", "email": "rixdorfer-ruepel@ortefuerkinder.de", "name": "Kita Rixdorfer Rüpel", "opening_hours": "Mo-Fr 08:00-16:00", "operator": "Orte für Kinder gGmbH", "phone": "+49 30 6819879", "website": "https://www.ortefuerkinder.de/unsere-kitas/rixdorfer-ruepel/"}}, {"type": "node", "id": 268915940, "lat": 52.5216508, "lon": 13.3511712, "tags": {"addr:city": "Berlin", "addr:country": "DE", "addr:housenumber": "13", "addr:postcode": "10557", "addr:street": "Calvinstraße", "addr:suburb": "Moabit", "amenity": "kindergarten", "name": "Kinderladen Regenbogen", "operator": "EKT Regenbogen e.V."}}, {"type": "node", "id": 268915944, "lat": 52.4656969, "lon": 13.3205045, "tags": {"amenity": "kindergarten", "name": "EKT - Steglitzer Eierpamper e.V.", "note": "EKT - Steglitzer Eierpamper e.V.", "toilets:wheelchair": "no", "wheelchair": "no"}}, {"type": "node", "id": 268915951, "lat": 52.5251743, "lon": 13.195696, "tags": {"amenity": "kindergarten", "name": "EKT - Sternenkinder e.V."}}, {"type": "node", "id": 268915955, "lat": 52.5351107, "lon": 13.351584, "tags": {"amenity": "kindergarten", "name": "Kinderladen Stoppelhopser", "operator": "Stoppelhopser e.V.", "website": "https://daks-berlin.de/mitglieder/suche/kita/stoppelhopser-324/view"}}, {"type": "node", "id": 268915956, "lat": 52.4945181, "lon": 13.4295606, "tags": {"amenity": "kindergarten", "check_date": "2023-07-26", "name": "EKT - Tentakel e.V.", "note": "EKT - Tentakel e.V."}}, {"type": "node", "id": 268915959, "lat": 52.5513548, "lon": 13.3573022, "tags": {"addr:city": "Berlin", "addr:country": "DE", "addr:housenumber": "12", "addr:postcode": "13347", "addr:street": "Amsterdamer Straße", "addr:suburb": "Wedding", "amenity": "kindergarten", "check_date": "2023-12-16", "contact:website": "https://www.ekt-tausendfuessler.de/", "name": "Eikita Tausendfüßler", "operator": "EIKITA Tausendfüssler e.V."}}, {"type": "node", "id": 268915960, "lat": 52.4502938, "lon": 13.3682165, "tags": {"addr:suburb": "Tempelhof", "amenity": "kindergarten", "name": "EKT - Tigerente/Förderkr.f.Musik-u.Bewegungserz.v.Kindern e.V.", "note": "EKT - Tigerente/Förderkr.f.Musik-u.Bewegungserz.v.Kindern e.V."}}, {"type": "node", "id": 268915961, "lat": 52.4891644, "lon": 13.3906351, "tags": {"addr:city": "Berlin", "addr:country": "DE", "addr:housenumber": "12", "addr:postcode": "10961", "addr:street": "Bergmannstraße", "addr:suburb": "Kreuzberg", "amenity": "kindergarten", "contact:email": "vorstand@kinderladen-tigerente.de", "contact:phone": "+49 30 6930468", "contact:website": "http://www.kinderladen-tigerente.de/", "name": "Kinderladen Tigerente"}}, {"type": "node", "id": 268915963, "lat": 52.5310433, "lon": 13.4343263, "tags": {"amenity": "kindergarten", "name": "EKT - Theaterspiel-Kita Capriola e.V.", "note": "EKT - Theaterspiel-Kita Capriola e.V.", "wheelchair": "yes"}}, {"type": "node", "id": 268915966, "lat": 52.5816079, "lon": 13.3979488, "tags": {"addr:city": "Berlin", "addr:country": "DE", "addr:housenumber": "5", "addr:postcode": "13156", "addr:street": "Treskowstraße", "addr:suburb": "Niederschönhausen", "amenity": "kindergarten", "contact:email": "info@timpetu.de", "name": "EKT - Timpetu e.V.", "note": "EKT - Timpetu e.V.", "phone": "+49304773443"}}, {"type": "node", "id": 268915968, "lat": 52.4940721, "lon": 13.3281265, "tags": {"addr:city": "Berlin", "addr:country": "DE", "addr:housenumber": "8", "addr:postcode": "10717", "addr:street": "Nikolsburger Straße", "addr:suburb": "Wilmersdorf", "amenity": "kindergarten", "check_date": "2023-10-21", "contact:phone": "+49 30 8833435", "contact:website": "http://www.kinderladentrolle.de/", "name": "Kinderladen Trolle", "operator": "Kinderladen Trolle e.V."}}, {"type": "node", "id": 268915969, "lat": 52.5247296, "lon": 13.1935637, "tags": {"amenity": "kindergarten", "name": "EKT - Traumzauberbaum e.V.", "note": "EKT - Traumzauberbaum e.V.", "wheelchair": "limited"}}, {"type": "node", "id": 268915972, "lat": 52.4715548, "lon": 13.338723, "tags": {"addr:city": "Berlin", "addr:country": "DE", "addr:housenumber": "12", "addr:postcode": "12159", "addr:street": "Hedwigstraße", "addr:suburb": "Schöneberg", "amenity": "kindergarten", "email": "trotzkoepfchenev@gmx.de", "name": "Kinderladen Trotzköpfchen", "opening_hours": "Mo-Th 08:00-16:00; Fr 08:00-15:30", "operator": "Trotzköpfchen e.V.", "phone": "+49 30 8526126", "website": "http://www.trotzköpfchen.de/", "wheelchair": "no"}}, {"type": "node", "id": 268915978, "lat": 52.4469164, "lon": 13.3988428, "tags": {"addr:housenumber": "1", "addr:postcode": "12109", "addr:street": "Didostraße", "addr:suburb": "Mariendorf", "amenity": "kindergarten", "name": "EKT - Schülerladen Pimpanella e.V.", "note": "EKT - Schülerladen Pimpanella e.V.", "phone": "+49 (0)30 70189216"}}, {"type": "node", "id": 268915980, "lat": 52.5029443, "lon": 13.433427, "tags": {"addr:city": "Berlin", "addr:country": "DE", "addr:housenumber": "13", "addr:street": "Eisenbahnstraße", "amenity": "kindergarten", "name": "Schülerladen Trau Dich", "official_name": "EKT - Schülerladen Trau Dich e.V.", "operator": "Trau Dich e.V.", "operator:type": "private_non_profit", "phone": "+49 30 6117706"}}, {"type": "node", "id": 268915984, "lat": 52.4765521, "lon": 13.3296215, "tags": {"addr:city": "Berlin", "addr:country": "DE", "addr:housenumber": "8", "addr:postcode": "12159", "addr:street": "Sieglindestraße", "addr:suburb": "Friedenau", "amenity": "kindergarten", "name": "Kinderladen mima", "operator": "Kita mima gGmbH", "website": "http://kita-mima.de/"}}, {"type": "node", "id": 268915986, "lat": 52.5397916, "lon": 13.3503882, "tags": {"addr:housenumber": "14", "addr:street": "Fehmarner Straße", "amenity": "kindergarten", "check_date": "2023-02-28", "name": "Kinderladen Sonnenblume", "note": "EKT - Sonnenblume e.V.", "website": "https://www.kinderladen-sonnenblume.de/"}}, {"type": "node", "id": 268915987, "lat": 52.4577258, "lon": 13.3864949, "tags": {"addr:city": "Berlin", "addr:country": "DE", "addr:housenumber": "89", "addr:postcode": "12099", "addr:street": "Friedrich-Wilhelm-Straße", "addr:suburb": "Tempelhof", "amenity": "kindergarten", "capacity": "18", "email": "kontakt@berlin-sonnengarten.de", "name": "Sonnengarten", "phone": "+49 30 7521275", "website": "http://www.berlin-sonnengarten.de/", "wheelchair": "limited"}}, {"type": "node", "id": 268915990, "lat": 52.517864, "lon": 13.3028494, "tags": {"addr:city": "Berlin", "addr:country": "DE", "addr:housenumber": "42", "addr:postcode": "10585", "addr:street": "Gierkezeile", "addr:suburb": "Charlottenburg", "amenity": "kindergarten", "capacity": "12", "check_date": "2023-07-08", "contact:phone": "+49 30 3412860", "contact:website": "https://ekt-sonnenkinder.de/", "max_age": "6", "min_age": "2", "name": "EKT Sonnenkinder e.V.", "opening_hours": "Mo-Fr 08:00-16:00", "operator": "EKT Sonnenkinder e.V."}}, {"type": "node", "id": 268915992, "lat": 52.545118, "lon": 13.1440526, "tags": {"amenity": "kindergarten", "contact:website": "http://www.kita.de/kita/41706", "name": "EKT - Spandauer Schwalbennest e.V."}}, {"type": "node", "id": 268915994, "lat": 52.4136709, "lon": 13.3609857, "tags": {"amenity": "kindergarten", "name": "EKT - Spatzennest e.V.", "note": "EKT - Spatzennest e.V."}}, {"type": "node", "id": 268915995, "lat": 52.542142, "lon": 13.3595249, "tags": {"addr:city": "Berlin", "addr:country": "DE", "addr:housenumber": "21", "addr:postcode": "13353", "addr:street": "Sparrstraße", "addr:suburb": "Wedding", "amenity": "kindergarten", "check_date": "2022-12-12", "contact:phone": "+49304533773", "name": "EKT - Sparrbande e.V.", "note": "EKT - Sparrbande e.V.", "wheelchair": "no"}}, {"type": "node", "id": 268916001, "lat": 52.5183067, "lon": 13.2981724, "tags": {"addr:city": "Berlin", "addr:country": "DE", "addr:suburb": "Charlottenburg", "amenity": "kindergarten", "name": "EKT - Spielschloß e.V.", "note": "EKT - Spielschloß e.V."}}, {"type": "node", "id": 268916002, "lat": 52.4921833, "lon": 13.4175738, "tags": {"amenity": "kindergarten", "contact:phone": "+49 30 693 94 68", "name": "EKT - Spreepiraten e.V.", "note": "EKT - Spreepiraten e.V.", "toilets:wheelchair": "no", "wheelchair": "no"}}, {"type": "node", "id": 268916003, "lat": 52.5453329, "lon": 13.202496, "tags": {"amenity": "kindergarten", "name": "EKT - Spreebande e.V.", "note": "EKT - Spreebande e.V."}}, {"type": "node", "id": 268916004, "lat": 52.4923275, "lon": 13.3971887, "tags": {"addr:city": "Berlin", "addr:country": "DE", "addr:housenumber": "47", "addr:postcode": "10961", "addr:street": "Mittenwalder Straße", "addr:suburb": "Kreuzberg", "amenity": "kindergarten", "contact:website": "http://www.springteufel-berlin.de/", "name": "Springteufel Kinder- und Schülerladen", "operator": "Springteufel e.V.", "wheelchair": "no"}}, {"type": "node", "id": 268916006, "lat": 52.5517268, "lon": 13.386433, "tags": {"addr:city": "Berlin", "addr:country": "DE", "addr:housenumber": "8", "addr:postcode": "13357", "addr:street": "Grüntaler Straße", "addr:suburb": "Gesundbrunnen", "amenity": "kindergarten", "name": "Stadtkinder", "operator": "Stadtkinder e.V.", "phone": "+49 30 27018927", "website": "http://stadtkinder-berlin.de/", "wheelchair": "no"}}, {"type": "node", "id": 268916007, "lat": 52.5522378, "lon": 13.3871336, "tags": {"amenity": "kindergarten", "name": "EKT - Stadtkinder e.V.", "note": "EKT - Stadtkinder e.V."}},