{"type": "FeatureCollection", "features": [{"type": "Feature", "geometry": {"type": "Point", "coordinates": [13.3228585, 52.5068638]}, "properties": {"id": "26735749", "name": "Aida", "street": "", "zip-code": 10623.0, "city": "Berlin", "planning-area-id": 4300624}}, {"type": "Feature", "geometry": {"type": "Point", "coordinates": [13.3180811, 52.5062119]}, "properties": {"id": "26735759", "name": "Madame Ngo", "street": "Kantstraße 30", "zip-code": 10623.0, "city": "Berlin", "planning-area-id": 4300624}}, {"type": "Feature", "geometry": {"type": "Point", "coordinates": [13.3207804, 52.5073199]}, "properties": {"id": "26735763", "name": "Thanh Long", "street": "Pestalozzistraße 106", "zip-code": 10625.0, "city": "Berlin", "planning-area-id": 4300624}}, {"type": "Feature", "geometry": {"type": "Point", "coordinates": [13.2846256, 52.5063184]}, "properties": {"id": "29997724", "name": "La Pergola", "street": "Neue Kantstraße 19", "zip-code": 14057.0, "city": "Berlin", "planning-area-id": 4300415}}, {"type": "Feature", "geometry": {"type": "Point", "coordinates": [13.3939814, 52.4907103]}, "properties": {"id": "30020303", "name": "Tibet Haus", "street": "Zossener Straße 19", "zip-code": 10961.0, "city": "Berlin", "planning-area-id": 2200211}}, {"type": "Feature", "geometry": {"type": "Point", "coordinates": [13.2839198, 52.5068889]}, "properties": {"id": "35966292", "name": "Paella", "street": "Wundtstraße 72", "zip-code": 14057.0, "city": "Berlin", "planning-area-id": 4300415}}, {"type": "Feature", "geometry": {"type": "Point", "coordinates": [13.2829535, 52.5103223]}, "properties": {"id": "35973391", "name": "Cancún", "street": "Kaiserdamm 24", "zip-code": 14057.0, "city": "Berlin", "planning-area-id": 4200311}}, {"type": "Feature", "geometry": {"type": "Point", "coordinates": [13.3311051, 52.5543102]}, "properties": {"id": "36310174", "name": "SchAtulle", "street": "", "zip-code": 13351.0, "city": "Berlin", "planning-area-id": 1400937}}, {"type": "Feature", "geometry": {"type": "Point", "coordinates": [13.2969979, 52.4983826]}, "properties": {"id": "63253646", "name": "Haus der 100 Biere", "street": "Kurfürstendamm 100", "zip-code": 10709.0, "city": "Berlin", "planning-area-id": 4500937}}, {"type": "Feature", "geometry": {"type": "Point", "coordinates": [13.2982491, 52.4985867]}, "properties": {"id": "63253652", "name": "Ach!NikO!Ach!", "street": "Kurfürstendamm 97-98", "zip-code": 10709.0, "city": "Berlin", "planning-area-id": 4500937}}, {"type": "Feature", "geometry": {"type": "Point", "coordinates": [13.2976442, 52.5009791]}, "properties": {"id": "63253660", "name": "Ristorante Salve", "street": "Damaschkestraße 31", "zip-code": 10711.0, "city": "Berlin", "planning-area-id": 4500937}}, {"type": "Feature", "geometry": {"type": "Point", "coordinates": [13.3082697, 52.572519]}, "properties": {"id": "78438027", "name": "Dalmacija", "street": "Quäkerstraße 2", "zip-code": 13403.0, "city": "Berlin", "planning-area-id": 12200310}}, {"type": "Feature", "geometry": {"type": "Point", "coordinates": [13.3073153, 52.5771153]}, "properties": {"id": "78467656", "name": "Schlemmerküche", "street": "Wittestraße 49", "zip-code": 13509.0, "city": "Berlin", "planning-area-id": 12200412}}, {"type": "Feature", "geometry": {"type": "Point", "coordinates": [13.3277157, 52.4800304]}, "properties": {"id": "79454844", "name": "Taverna Athos", "street": "Bundesplatz 2", "zip-code": 10715.0, "city": "Berlin", "planning-area-id": 4501151}}, {"type": "Feature", "geometry": {"type": "Point", "coordinates": [13.3098188, 52.5701303]}, "properties": {"id": "79769672", "name": "Pizzaria Tamara", "street": "Zobeltitzstraße 90", "zip-code": 13403.0, "city": "Berlin", "planning-area-id": 12200310}}, {"type": "Feature", "geometry": {"type": "Point", "coordinates": [13.2707607, 52.5096736]}, "properties": {"id": "79808386", "name": "BLOCK HOUSE", "street": "Theodor-Heuss-Platz 12", "zip-code": 14052.0, "city": "Berlin", "planning-area-id": 4200310}}, {"type": "Feature", "geometry": {"type": "Point", "coordinates": [13.2708833, 52.509874]}, "properties": {"id": "81362518", "name": "JOES Restaurant & Wirtshaus", "street": "Theodor-Heuss-Platz 10", "zip-code": 14052.0, "city": "Berlin", "planning-area-id": 4200310}}, {"type": "Feature", "geometry": {"type": "Point", "coordinates": [13.2716607, 52.5106205]}, "properties": {"id": "81362605", "name": "Lindenwirtin", "street": "Lindenallee 28", "zip-code": 14050.0, "city": "Berlin", "planning-area-id": 4200310}}, {"type": "Feature", "geometry": {"type": "Point", "coordinates": [13.3827465, 52.5044686]}, "properties": {"id": "84644780", "name": "Cancun", "street": "Anhalter Straße 1", "zip-code": 10963.0, "city": "Berlin", "planning-area-id": 2100101}}, {"type": "Feature", "geometry": {"type": "Point", "coordinates": [13.3889505, 52.5151154]}, "properties": {"id": "86001794", "name": "Bocca di Bacco", "street": "Friedrichstraße 167;168", "zip-code": 10117.0, "city": "Berlin", "planning-area-id": 1100206}}, {"type": "Feature", "geometry": {"type": "Point", "coordinates": [13.3903882, 52.5150034]}, "properties": {"id": "86001798", "name": "Restaurant Borchardt", "street": "Französische Straße 47", "zip-code": 10117.0, "city": "Berlin", "planning-area-id": 1100206}}, {"type": "Feature", "geometry": {"type": "Point", "coordinates": [13.3907724, 52.5150373]}, "properties": {"id": "86001800", "name": "Charlotte & Fritz", "street": "Charlottenstraße 49", "zip-code": 10117.0, "city": "Berlin", "planning-area-id": 1100206}}, {"type": "Feature", "geometry": {"type": "Point", "coordinates": [13.3909281, 52.514689]}, "properties": {"id": "86001813", "name": "Heritage", "street": "Französische Straße 25", "zip-code": 10117.0, "city": "Berlin", "planning-area-id": 1100206}}, {"type": "Feature", "geometry": {"type": "Point", "coordinates": [13.3911782, 52.5132123]}, "properties": {"id": "86001825", "name": "Lutter & Wegner", "street": "Charlottenstraße 56", "zip-code": 10117.0, "city": "Berlin", "planning-area-id": 1100206}}, {"type": "Feature", "geometry": {"type": "Point", "coordinates": [13.3913074, 52.5124049]}, "properties": {"id": "86001833", "name": "Victor & Victoria", "street": "Charlottenstraße 59", "zip-code": 10117.0, "city": "Berlin", "planning-area-id": 1100206}}, {"type": "Feature", "geometry": {"type": "Point", "coordinates": [13.3922763, 52.5120539]}, "properties": {"id": "86001837", "name": "Fellini", "street": "", "zip-code": "", "city": "", "planning-area-id": 1100207}}, {"type": "Feature", "geometry": {"type": "Point", "coordinates": [13.3935532, 52.5130816]}, "properties": {"id": "86001846", "name": "Shan’s Bistro", "street": "", "zip-code": "", "city": "", "planning-area-id": 1100206}}, {"type": "Feature", "geometry": {"type": "Point", "coordinates": [13.3891811, 52.5113441]}, "properties": {"id": "87040391", "name": "Maximilians", "street": "Friedrichstraße 185-190", "zip-code": 10117.0, "city": "Berlin", "planning-area-id": 1100207}}, {"type": "Feature", "geometry": {"type": "Point", "coordinates": [13.3887116, 52.511292]}, "properties": {"id": "87040394", "name": "Izumi Sushi Bar", "street": "Kronenstraße 66", "zip-code": 10117.0, "city": "Berlin", "planning-area-id": 1100207}}, {"type": "Feature", "geometry": {"type": "Point", "coordinates": [13.4092065, 52.5214304]}, "properties": {"id": "89274703", "name": "Der Alte Fritz", "street": "Panoramastraße 1", "zip-code": 10178.0, "city": "Berlin", "planning-area-id": 1100310}}, {"type": "Feature", "geometry": {"type": "Point", "coordinates": [13.4122196, 52.5203514]}, "properties": {"id": "89274833", "name": "Carambar", "street": "Rathausstraße 1", "zip-code": 10178.0, "city": "Berlin", "planning-area-id": 1100310}}, {"type": "Feature", "geometry": {"type": "Point", "coordinates": [13.4118079, 52.5202106]}, "properties": {"id": "89274854", "name": "Matzbach", "street": "", "zip-code": "", "city": "", "planning-area-id": 1100310}}, {"type": "Feature", "geometry": {"type": "Point", "coordinates": [13.4071626, 52.5180123]}, "properties": {"id": "89275075", "name": "Azem", "street": "", "zip-code": "", "city": "", "planning-area-id": 1100310}}, {"type": "Feature", "geometry": {"type": "Point", "coordinates": [13.4058441, 52.5175751]}, "properties": {"id": "89275135", "name": "Mutter Hoppe", "street": "Rathausstraße 21", "zip-code": 10178.0, "city": "Berlin", "planning-area-id": 1100310}}, {"type": "Feature", "geometry": {"type": "Point", "coordinates": [13.4050245, 52.5172681]}, "properties": {"id": "89275143", "name": "Julchen Hoppe", "street": "Rathausstraße 25", "zip-code": 10178.0, "city": "Berlin", "planning-area-id": 1100310}}, {"type": "Feature", "geometry": {"type": "Point", "coordinates": [13.4081288, 52.512146]}, "properties": {"id": "89275203", "name": "Shezan", "street": "Neue Roßstraße 13", "zip-code": 10179.0, "city": "Berlin", "planning-area-id": 1100312}}, {"type": "Feature", "geometry": {"type": "Point", "coordinates": [13.2901148, 52.5827216]}, "properties": {"id": "89960246", "name": "Trattoria Monticchiello", "street": "Berliner Straße 70", "zip-code": 13507.0, "city": "Berlin", "planning-area-id": 12200412}}, {"type": "Feature", "geometry": {"type": "Point", "coordinates": [13.5301027, 52.4293751]}, "properties": {"id": "115546494", "name": "Oase Adlershof", "street": "Rudower Chaussee 25", "zip-code": 12489.0, "city": "Berlin", "planning-area-id": 9200715}}, {"type": "Feature", "geometry": {"type": "Point", "coordinates": [13.3206599, 52.5701846]}, "properties": {"id": "136721344", "name": "Pula-Grill", "street": "Auguste-Viktoria-Allee 79", "zip-code": 13403.0, "city": "Berlin", "planning-area-id": 12200309}}, {"type": "Feature", "geometry": {"type": "Point", "coordinates": [13.3644784, 52.5225899]}, "properties": {"id": "137483925", "name": "Paris-Moskau", "street": "Alt-Moabit 141", "zip-code": 10557.0, "city": "Berlin", "planning-area-id": 1200628}}, {"type": "Feature", "geometry": {"type": "Point", "coordinates": [13.147006, 52.5415191]}, "properties": {"id": "139667128", "name": "Heidekrug", "street": "", "zip-code": "", "city": "", "planning-area-id": 5200419}}, {"type": "Feature", "geometry": {"type": "Point", "coordinates": [13.657224, 52.3762307]}, "properties": {"id": "150983614", "name": "Strandlust", "street": "Seddinpromenade 3A", "zip-code": 12527.0, "city": "Berlin", "planning-area-id": 9301228}}, {"type": "Feature", "geometry": {"type": "Point", "coordinates": [13.269189, 52.461902]}, "properties": {"id": "170903356", "name": "Chalet Suisse", "street": "Im Jagen 5", "zip-code": 14195.0, "city": "Berlin", "planning-area-id": 6400842}}, {"type": "Feature", "geometry": {"type": "Point", "coordinates": [13.40069, 52.536584]}, "properties": {"id": "171073634", "name": "Jaspers", "street": "Anklamer Straße 27", "zip-code": 10115.0, "city": "Berlin", "planning-area-id": 1100416}}, {"type": "Feature", "geometry": {"type": "Point", "coordinates": [13.3257329, 52.5893726]}, "properties": {"id": "175681796", "name": "Maestral", "street": "Eichborndamm 236", "zip-code": 13437.0, "city": "Berlin", "planning-area-id": 12500926}}, {"type": "Feature", "geometry": {"type": "Point", "coordinates": [13.3594023, 52.5723826]}, "properties": {"id": "177484278", "name": "Bier-Stubn", "street": "", "zip-code": "", "city": "", "planning-area-id": 12100205}}, {"type": "Feature", "geometry": {"type": "Point", "coordinates": [13.3627545, 52.5674603]}, "properties": {"id": "177484284", "name": "Irmak Grillhaus", "street": "", "zip-code": "", "city": "", "planning-area-id": 12100102}}, {"type": "Feature", "geometry": {"type": "Point", "coordinates": [13.5553974, 52.5189237]}, "properties": {"id": "203592976", "name": "Zur kleinen Remise", "street": "Oberfeldstraße 24", "zip-code": 12683.0, "city": "Berlin", "planning-area-id": 10300731}}, {"type": "Feature", "geometry": {"type": "Point", "coordinates": [13.5556504, 52.52024]}, "properties": {"id": "203596116", "name": "Herkules I", "street": "", "zip-code": "", "city": "", "planning-area-id": 10300731}}, {"type": "Feature", "geometry": {"type": "Point", "coordinates": [13.3767183, 52.4800762]}, "properties": {"id": "205317227", "name": "Biertempel 2", "street": "Boelckestraße 28", "zip-code": 12101.0, "city": "Berlin", "planning-area-id": 7400721}}, {"type": "Feature", "geometry": {"type": "Point", "coordinates": [13.3030043, 52.6006677]}, "properties": {"id": "205497468", "name": "Tomasa Landhaus im Schollenkrug", "street": "Waidmannsluster Damm 77", "zip-code": 13509.0, "city": "Berlin", "planning-area-id": 12500824}}, {"type": "Feature", "geometry": {"type": "Point", "coordinates": [13.412464, 52.5308311]}, "properties": {"id": "248651464", "name": "I Due Forni", "street": "Schönhauser Allee 12", "zip-code": 10119.0, "city": "Berlin", "planning-area-id": 3701556}}, {"type": "Feature", "geometry": {"type": "Point", "coordinates": [13.414039, 52.5406178]}, "properties": {"id": "249094437", "name": "", "street": "Knaackstraße 99", "zip-code": 10435.0, "city": "Berlin", "planning-area-id": 3701555}}, {"type": "Feature", "geometry": {"type": "Point", "coordinates": [13.4212143, 52.5376526]}, "properties": {"id": "250067344", "name": "Ryke", "street": "Rykestraße 39", "zip-code": 10405.0, "city": "Berlin", "planning-area-id": 3701555}}, {"type": "Feature", "geometry": {"type": "Point", "coordinates": [13.4205337, 52.5361423]}, "properties": {"id": "250588809", "name": "Anjoy", "street": "", "zip-code": "", "city": "", "planning-area-id": 3701555}}, {"type": "Feature", "geometry": {"type": "Point", "coordinates": [13.6872536, 52.4417119]}, "properties": {"id": "251335826", "name": "Seepalast", "street": "Fürstenwalder Allee 17", "zip-code": 12589.0, "city": "Berlin", "planning-area-id": 9501838}}, {"type": "Feature", "geometry": {"type": "Point", "coordinates": [13.3506678, 52.486278]}, "properties": {"id": "254003168", "name": "Yogi-Haus", "street": "Eisenacher Straße 54", "zip-code": 10823.0, "city": "Berlin", "planning-area-id": 7200409}}, {"type": "Feature", "geometry": {"type": "Point", "coordinates": [13.3318821, 52.5026926]}, "properties": {"id": "254307092", "name": "Le Faubourg", "street": "Augsburger Straße 41", "zip-code": 10789.0, "city": "Berlin", "planning-area-id": 4501042}}, {"type": "Feature", "geometry": {"type": "Point", "coordinates": [13.3346069, 52.5028686]}, "properties": {"id": "254307115", "name": "Berliner Stube", "street": "Los-Angeles-Platz 1", "zip-code": 10789.0, "city": "Berlin", "planning-area-id": 4501042}}, {"type": "Feature", "geometry": {"type": "Point", "coordinates": [13.2634284, 52.4880029]}, "properties": {"id": "254992619", "name": "Floh", "street": "Am Bahnhof Grunewald 4", "zip-code": 14193.0, "city": "Berlin", "planning-area-id": 4400725}}, {"type": "Feature", "geometry": {"type": "Point", "coordinates": [13.2628406, 52.4878837]}, "properties": {"id": "254992627", "name": "Trattoria Gioachino", "street": "", "zip-code": "", "city": "", "planning-area-id": 4400729}}, {"type": "Feature", "geometry": {"type": "Point", "coordinates": [13.165528, 52.4206302]}, "properties": {"id": "255052973", "name": "Fook Lam Mun", "street": "", "zip-code": "", "city": "", "planning-area-id": 6400735}}, {"type": "Feature", "geometry": {"type": "Point", "coordinates": [13.1163106, 52.4244424]}, "properties": {"id": "255052976", "name": "Blockhaus Nikolskoe", "street": "Nikolskoer Weg 15", "zip-code": 14109.0, "city": "Berlin", "planning-area-id": 6400735}}, {"type": "Feature", "geometry": {"type": "Point", "coordinates": [13.2119152, 52.5462582]}, "properties": {"id": "257704934", "name": "Raymons", "street": "Frieda-Arnheim-Promenade 7", "zip-code": 13585.0, "city": "Berlin", "planning-area-id": 5100313}}, {"type": "Feature", "geometry": {"type": "Point", "coordinates": [13.4196583, 52.4877929]}, "properties": {"id": "258398258", "name": "Wirtshaus Hasenheide", "street": "", "zip-code": "", "city": "", "planning-area-id": 2200212}}, {"type": "Feature", "geometry": {"type": "Point", "coordinates": [13.4047999, 52.5219316]}, "properties": {"id": "258497093", "name": "Eden", "street": "Rosenstraße 19", "zip-code": 10178.0, "city": "Berlin", "planning-area-id": 1100310}}, {"type": "Feature", "geometry": {"type": "Point", "coordinates": [13.2020525, 52.5355167]}, "properties": {"id": "259607063", "name": "Unvernunft", "street": "", "zip-code": "", "city": "", "planning-area-id": 5100316}}, {"type": "Feature", "geometry": {"type": "Point", "coordinates": [13.207419, 52.5399218]}, "properties": {"id": "259608175", "name": "Taverna Teloneio", "street": "Möllentordamm 1", "zip-code": 13597.0, "city": "Berlin", "planning-area-id": 5100316}}, {"type": "Feature", "geometry": {"type": "Point", "coordinates": [13.3191979, 52.4895627]}, "properties": {"id": "260565389", "name": "Weisser Elefant", "street": "Wegenerstraße 1", "zip-code": 10713.0, "city": "Berlin", "planning-area-id": 4501147}}, {"type": "Feature", "geometry": {"type": "Point", "coordinates": [13.3196727, 52.4894921]}, "properties": {"id": "260565390", "name": "Garcon", "street": "Fechnerstraße 30", "zip-code": 10717.0, "city": "Berlin", "planning-area-id": 4501147}}, {"type": "Feature", "geometry": {"type": "Point", "coordinates": [13.3743411, 52.5098082]}, "properties": {"id": "260769007", "name": "Frederick‘s", "street": "", "zip-code": "", "city": "", "planning-area-id": 1100102}}, {"type": "Feature", "geometry": {"type": "Point", "coordinates": [13.3726675, 52.5102921]}, "properties": {"id": "260769037", "name": "Lindenbräu", "street": "Bellevuestraße 3-5", "zip-code": 10785.0, "city": "Berlin", "planning-area-id": 1100102}}, {"type": "Feature", "geometry": {"type": "Point", "coordinates": [13.5856652, 52.4029635]}, "properties": {"id": "260866916", "name": "Dittmanns Drogerie", "street": "", "zip-code": "", "city": "", "planning-area-id": 9301025}}, {"type": "Feature", "geometry": {"type": "Point", "coordinates": [13.4339677, 52.528035]}, "properties": {"id": "261606214", "name": "Schönbrunn", "street": "", "zip-code": 10249.0, "city": "Berlin", "planning-area-id": 2400520}}, {"type": "Feature", "geometry": {"type": "Point", "coordinates": [13.4687505, 52.5152058]}, "properties": {"id": "262359118", "name": "Tropica Grillhaus", "street": "Frankfurter Allee 73", "zip-code": 10247.0, "city": "Berlin", "planning-area-id": 2500729}}, {"type": "Feature", "geometry": {"type": "Point", "coordinates": [13.4276134, 52.5193671]}, "properties": {"id": "262462062", "name": "Ristorante a Mano", "street": "Strausberger Platz 2", "zip-code": 10243.0, "city": "Berlin", "planning-area-id": 2400521}}, {"type": "Feature", "geometry": {"type": "Point", "coordinates": [13.4576396, 52.5129554]}, "properties": {"id": "262943658", "name": "Hangmee", "street": "Boxhagener Straße 108", "zip-code": 10245.0, "city": "Berlin", "planning-area-id": 2500830}}, {"type": "Feature", "geometry": {"type": "Point", "coordinates": [13.5878692, 52.5124404]}, "properties": {"id": "263701477", "name": "Gaststätte zur S-Bahn", "street": "Heinrich-Grüber-Straße 1", "zip-code": 12621.0, "city": "Berlin", "planning-area-id": 10400835}}, {"type": "Feature", "geometry": {"type": "Point", "coordinates": [13.5935903, 52.5157169]}, "properties": {"id": "263703385", "name": "Gasthof zum Oberfeld", "street": "Zanderstraße 27", "zip-code": 12621.0, "city": "Berlin", "planning-area-id": 10400835}}, {"type": "Feature", "geometry": {"type": "Point", "coordinates": [13.1813993, 52.5114588]}, "properties": {"id": "267245397", "name": "Pizza Pasta Gatow", "street": "", "zip-code": "", "city": "", "planning-area-id": 5200528}}, {"type": "Feature", "geometry": {"type": "Point", "coordinates": [13.1811526, 52.5093453]}, "properties": {"id": "267245609", "name": "La Posta Trattoria", "street": "Weinmeisterhornweg 42", "zip-code": 13595.0, "city": "Berlin", "planning-area-id": 5200634}}, {"type": "Feature", "geometry": {"type": "Point", "coordinates": [13.4177503, 52.504153]}, "properties": {"id": "267412672", "name": "Die Henne - Alt-Berliner Wirtshaus", "street": "", "zip-code": "", "city": "", "planning-area-id": 2300314}}, {"type": "Feature", "geometry": {"type": "Point", "coordinates": [13.3877509, 52.5197141]}, "properties": {"id": "267851662", "name": "Hoa Rong", "street": "Georgenstraße 25", "zip-code": "", "city": "", "planning-area-id": 1100206}}, {"type": "Feature", "geometry": {"type": "Point", "coordinates": [13.2781793, 52.4747998]}, "properties": {"id": "268179512", "name": "Machiavelli", "street": "Clayallee 1", "zip-code": 14195.0, "city": "Berlin", "planning-area-id": 4400729}}, {"type": "Feature", "geometry": {"type": "Point", "coordinates": [13.3231312, 52.4605144]}, "properties": {"id": "268500238", "name": "Sida", "street": "Ahornstraße 32", "zip-code": 12163.0, "city": "Berlin", "planning-area-id": 6100102}}, {"type": "Feature", "geometry": {"type": "Point", "coordinates": [13.2944721, 52.4979888]}, "properties": {"id": "268977847", "name": "Eiffel", "street": "Kurfürstendamm 105", "zip-code": 10711.0, "city": "Berlin", "planning-area-id": 4500937}}, {"type": "Feature", "geometry": {"type": "Point", "coordinates": [13.3076456, 52.4988221]}, "properties": {"id": "268998367", "name": "Xantener Eck", "street": "Xantener Straße 1", "zip-code": 10707.0, "city": "Berlin", "planning-area-id": 4501043}}, {"type": "Feature", "geometry": {"type": "Point", "coordinates": [13.3244465, 52.4968112]}, "properties": {"id": "268999713", "name": "Casa di Maria", "street": "Uhlandstraße 149", "zip-code": 10719.0, "city": "Berlin", "planning-area-id": 4501045}}, {"type": "Feature", "geometry": {"type": "Point", "coordinates": [13.4468535, 52.4739548]}, "properties": {"id": "269486924", "name": "Shaan", "street": "Richardplatz 20", "zip-code": 12055.0, "city": "Berlin", "planning-area-id": 8100416}}, {"type": "Feature", "geometry": {"type": "Point", "coordinates": [13.4452803, 52.4743381]}, "properties": {"id": "269486925", "name": "Restaurant Louis", "street": "Richardplatz 5", "zip-code": 12055.0, "city": "Berlin", "planning-area-id": 8100416}}, {"type": "Feature", "geometry": {"type": "Point", "coordinates": [13.3488231, 52.5220908]}, "properties": {"id": "269675644", "name": "Da Ponte", "street": "Helgoländer Ufer 7", "zip-code": 10557.0, "city": "Berlin", "planning-area-id": 1200626}}, {"type": "Feature", "geometry": {"type": "Point", "coordinates": [13.3556992, 52.5194762]}, "properties": {"id": "269675879", "name": "Trattoria Fidelia", "street": "Lüneburger Straße 390", "zip-code": 10557.0, "city": "Berlin", "planning-area-id": 1200628}}, {"type": "Feature", "geometry": {"type": "Point", "coordinates": [13.3668503, 52.5212821]}, "properties": {"id": "269676264", "name": "Zollpackhof", "street": "Elisabeth-Abegg-Straße 1", "zip-code": 10557.0, "city": "Berlin", "planning-area-id": 1200628}}, {"type": "Feature", "geometry": {"type": "Point", "coordinates": [13.335988, 52.5112754]}, "properties": {"id": "269712300", "name": "Schleusenkrug", "street": "Müller-Breslau-Straße 1", "zip-code": 10623.0, "city": "Berlin", "planning-area-id": 1100102}}, {"type": "Feature", "geometry": {"type": "Point", "coordinates": [13.4346212, 52.4322035]}, "properties": {"id": "269904662", "name": "Britzer Mühle", "street": "Buckower Damm 130", "zip-code": 12349.0, "city": "Berlin", "planning-area-id": 8200729}}, {"type": "Feature", "geometry": {"type": "Point", "coordinates": [13.4377895, 52.4468121]}, "properties": {"id": "269905044", "name": "Schloss Britz", "street": "Alt-Britz 73", "zip-code": 12359.0, "city": "Berlin", "planning-area-id": 8200726}}, {"type": "Feature", "geometry": {"type": "Point", "coordinates": [13.3170309, 52.5137921]}, "properties": {"id": "270190091", "name": "Rüya Gemüse Kebab", "street": "", "zip-code": 10585.0, "city": "Berlin", "planning-area-id": 4300622}}, {"type": "Feature", "geometry": {"type": "Point", "coordinates": [13.2092834, 52.4262934]}, "properties": {"id": "270921289", "name": "Waldschänke", "street": "", "zip-code": "", "city": "", "planning-area-id": 6400737}}, {"type": "Feature", "geometry": {"type": "Point", "coordinates": [13.3558888, 52.5201925]}, "properties": {"id": "271005164", "name": "Restaurant Angkor Wat", "street": "Paulstraße 22", "zip-code": 10557.0, "city": "Berlin", "planning-area-id": 1200628}}, {"type": "Feature", "geometry": {"type": "Point", "coordinates": [13.3580797, 52.4882865]}, "properties": {"id": "271668766", "name": "Aspendos", "street": "Hauptstraße 11", "zip-code": 10827.0, "city": "Berlin", "planning-area-id": 7200411}}, {"type": "Feature", "geometry": {"type": "Point", "coordinates": [13.1223345, 52.4283069]}, "properties": {"id": "271936777", "name": "Wirtshaus Zur Pfaueninsel", "street": "Pfaueninselchaussee 100", "zip-code": 14109.0, "city": "Berlin", "planning-area-id": 6400735}}, {"type": "Feature", "geometry": {"type": "Point", "coordinates": [13.2306024, 52.4303789]}, "properties": {"id": "272446730", "name": "Trattoria Piazza Siciliana", "street": "Lindenthaler Allee 46", "zip-code": 14163.0, "city": "Berlin", "planning-area-id": 6300524}}, {"type": "Feature", "geometry": {"type": "Point", "coordinates": [13.4387908, 52.5001321]}, "properties": {"id": "272811395", "name": "Kante", "street": "Skalitzer Straße 64", "zip-code": 10997.0, "city": "Berlin", "planning-area-id": 2300419}}, {"type": "Feature", "geometry": {"type": "Point", "coordinates": [13.4507972, 52.4973483]}, "properties": {"id": "272820430", "name": "Restaurant Freischwimmer", "street": "Vor dem Schlesischen Tor 2", "zip-code": 10997.0, "city": "Berlin", "planning-area-id": 2300419}}, {"type": "Feature", "geometry": {"type": "Point", "coordinates": [13.370321, 52.4881781]}, "properties": {"id": "274239322", "name": "cielo di berlino", "street": "Monumentenstraße 31", "zip-code": 10829.0, "city": "Berlin", "planning-area-id": 7100206}}, {"type": "Feature", "geometry": {"type": "Point", "coordinates": [13.3527311, 52.5400018]}, "properties": {"id": "276107001", "name": "Fünf & Sechzig", "street": "Torfstraße 9", "zip-code": 13353.0, "city": "Berlin", "planning-area-id": 1401046}}, {"type": "Feature", "geometry": {"type": "Point", "coordinates": [13.3592072, 52.4339798]}, "properties": {"id": "276134994", "name": "Bardolino", "street": "Wedellstraße 31", "zip-code": 12249.0, "city": "Berlin", "planning-area-id": 6200316}}, {"type": "Feature", "geometry": {"type": "Point", "coordinates": [13.5730007, 52.4113317]}, "properties": {"id": "276344490", "name": "Restaurant Rhodos", "street": "Richterstraße 9", "zip-code": 12526.0, "city": "Berlin", "planning-area-id": 9301025}}, {"type": "Feature", "geometry": {"type": "Point", "coordinates": [13.2882349, 52.4578483]}, "properties": {"id": "277525547", "name": "Alter Krug", "street": "Königin-Luise-Straße 52", "zip-code": 14195.0, "city": "Berlin", "planning-area-id": 6400844}}, {"type": "Feature", "geometry": {"type": "Point", "coordinates": [13.3234069, 52.4750769]}, "properties": {"id": "277606109", "name": "Mario", "street": "Südwestkorso 10", "zip-code": 12161.0, "city": "Berlin", "planning-area-id": 7300515}}, {"type": "Feature", "geometry": {"type": "Point", "coordinates": [13.4582032, 52.5086453]}, "properties": {"id": "278125054", "name": "Schneeweiß", "street": "Simplonstraße 16", "zip-code": 10245.0, "city": "Berlin", "planning-area-id": 2500834}}, {"type": "Feature", "geometry": {"type": "Point", "coordinates": [13.4652987, 52.5071989]}, "properties": {"id": "278125892", "name": "Alte Turnhalle Berlin", "street": "Holteistraße 6-9", "zip-code": 10245.0, "city": "Berlin", "planning-area-id": 2500834}}, {"type": "Feature", "geometry": {"type": "Point", "coordinates": [13.3825068, 52.4900001]}, "properties": {"id": "278280125", "name": "Vereinszimmer", "street": "", "zip-code": "", "city": "", "planning-area-id": 2200209}}, {"type": "Feature", "geometry": {"type": "Point", "coordinates": [13.3832177, 52.489775]}, "properties": {"id": "278280155", "name": "Osteria Nº 1", "street": "Kreuzbergstraße 71", "zip-code": 10965.0, "city": "Berlin", "planning-area-id": 2200209}}, {"type": "Feature", "geometry": {"type": "Point", "coordinates": [13.3933939, 52.4893112]}, "properties": {"id": "278295467", "name": "Pagode", "street": "", "zip-code": "", "city": "", "planning-area-id": 2200211}}, {"type": "Feature", "geometry": {"type": "Point", "coordinates": [13.1126606, 52.4586339]}, "properties": {"id": "278783472", "name": "Bootshaus", "street": "Verlängerte Uferpromenade 21", "zip-code": 14089.0, "city": "Berlin", "planning-area-id": 5400943}}, {"type": "Feature", "geometry": {"type": "Point", "coordinates": [13.4635392, 52.516543]}, "properties": {"id": "278874953", "name": "Chai Ji", "street": "Rigaer Straße 30", "zip-code": 10247.0, "city": "Berlin", "planning-area-id": 2500728}}, {"type": "Feature", "geometry": {"type": "Point", "coordinates": [13.4620486, 52.5131538]}, "properties": {"id": "278874970", "name": "Kyoto", "street": "Mainzer Straße 10", "zip-code": 10247.0, "city": "Berlin", "planning-area-id": 2500830}}, {"type": "Feature", "geometry": {"type": "Point", "coordinates": [13.4614486, 52.5122684]}, "properties": {"id": "278874977", "name": "Eatalian", "street": "Mainzer Straße 14", "zip-code": 10247.0, "city": "Berlin", "planning-area-id": 2500830}}, {"type": "Feature", "geometry": {"type": "Point", "coordinates": [13.46027, 52.5149418]}, "properties": {"id": "278887997", "name": "Aashish", "street": "Niederbarnimstraße 27", "zip-code": 10247.0, "city": "Berlin", "planning-area-id": 2500830}}, {"type": "Feature", "geometry": {"type": "Point", "coordinates": [13.4447503, 52.4742277]}, "properties": {"id": "278958963", "name": "Restaurant Villa Rixdorf", "street": "Richardplatz 6", "zip-code": 12055.0, "city": "Berlin", "planning-area-id": 8100416}}, {"type": "Feature", "geometry": {"type": "Point", "coordinates": [13.3879477, 52.5264453]}, "properties": {"id": "279301578", "name": "Gambrinus", "street": "Linienstraße 133", "zip-code": 10115.0, "city": "Berlin", "planning-area-id": 1100309}}, {"type": "Feature", "geometry": {"type": "Point", "coordinates": [13.3896272, 52.5259421]}, "properties": {"id": "279302123", "name": "Amrit", "street": "Oranienburger Straße 45", "zip-code": 10117.0, "city": "Berlin", "planning-area-id": 1100309}}, {"type": "Feature", "geometry": {"type": "Point", "coordinates": [13.3733546, 52.5506079]}, "properties": {"id": "279391660", "name": "Uferlos", "street": "Uferstraße 13", "zip-code": 13357.0, "city": "Berlin", "planning-area-id": 1401044}}, {"type": "Feature", "geometry": {"type": "Point", "coordinates": [13.3573392, 52.425496]}, "properties": {"id": "279464828", "name": "Mensa FU Lankwitz Malteserstraße", "street": "Malteserstraße 74", "zip-code": 12249.0, "city": "Berlin", "planning-area-id": 6200316}}, {"type": "Feature", "geometry": {"type": "Point", "coordinates": [13.2750457, 52.5977456]}, "properties": {"id": "280589003", "name": "Alter Fritz", "street": "Karolinenstraße 12", "zip-code": 13507.0, "city": "Berlin", "planning-area-id": 12200515}}, {"type": "Feature", "geometry": {"type": "Point", "coordinates": [13.3409564, 52.5569578]}, "properties": {"id": "280823781", "name": "Homey", "street": "Müllerstraße 70", "zip-code": 13349.0, "city": "Berlin", "planning-area-id": 1400939}}, {"type": "Feature", "geometry": {"type": "Point", "coordinates": [13.342903, 52.528823]}, "properties": {"id": "280836222", "name": "Scorpion", "street": "", "zip-code": "", "city": "", "planning-area-id": 1200520}}, {"type": "Feature", "geometry": {"type": "Point", "coordinates": [13.4626939, 52.5498822]}, "properties": {"id": "281563606", "name": "Tandoori", "street": "Bizetstraße 121", "zip-code": 13088.0, "city": "Berlin", "planning-area-id": 3500936}}, {"type": "Feature", "geometry": {"type": "Point", "coordinates": [13.4995197, 52.6350391]}, "properties": {"id": "281827765", "name": "Il Castello", "street": "Karower Straße 1", "zip-code": 13125.0, "city": "Berlin", "planning-area-id": 3100102}}, {"type": "Feature", "geometry": {"type": "Point", "coordinates": [13.4524178, 52.5453918]}, "properties": {"id": "281954877", "name": "Fräulein Kimchi", "street": "Gürtelstraße 10", "zip-code": 13088.0, "city": "Berlin", "planning-area-id": 3500936}}, {"type": "Feature", "geometry": {"type": "Point", "coordinates": [13.4575389, 52.511776]}, "properties": {"id": "282096929", "name": "Plus Minus Null", "street": "Grünberger Straße 61", "zip-code": 10245.0, "city": "Berlin", "planning-area-id": 2500833}}, {"type": "Feature", "geometry": {"type": "Point", "coordinates": [13.4567958, 52.5118836]}, "properties": {"id": "282097396", "name": "Habana", "street": "Grünberger Straße 57", "zip-code": 10245.0, "city": "Berlin", "planning-area-id": 2500833}}, {"type": "Feature", "geometry": {"type": "Point", "coordinates": [13.4598832, 52.5091398]}, "properties": {"id": "282415700", "name": "Hannibal", "street": "Gärtnerstraße 29a", "zip-code": 10245.0, "city": "Berlin", "planning-area-id": 2500833}}, {"type": "Feature", "geometry": {"type": "Point", "coordinates": [13.4580847, 52.5095667]}, "properties": {"id": "282416717", "name": "il Ritrovo", "street": "Gabriel-Max-Straße 2", "zip-code": 10245.0, "city": "Berlin", "planning-area-id": 2500833}}, {"type": "Feature", "geometry": {"type": "Point", "coordinates": [13.4571679, 52.5124786]}, "properties": {"id": "282421969", "name": "Lemongrass", "street": "Simon-Dach-Straße 2", "zip-code": 10245.0, "city": "Berlin", "planning-area-id": 2500833}}, {"type": "Feature", "geometry": {"type": "Point", "coordinates": [13.4586453, 52.5133893]}, "properties": {"id": "282425700", "name": "TAT", "street": "Niederbarnimstraße 17", "zip-code": 10247.0, "city": "Berlin", "planning-area-id": 2500830}}, {"type": "Feature", "geometry": {"type": "Point", "coordinates": [13.4593462, 52.5146062]}, "properties": {"id": "282426346", "name": "Kashmir", "street": "Niederbarnimstraße 3", "zip-code": 10247.0, "city": "Berlin", "planning-area-id": 2500830}}, {"type": "Feature", "geometry": {"type": "Point", "coordinates": [13.458543, 52.5158783]}, "properties": {"id": "282430006", "name": "Ngon Heritage", "street": "Frankfurter Allee 21", "zip-code": 10247.0, "city": "Berlin", "planning-area-id": 2500727}}, {"type": "Feature", "geometry": {"type": "Point", "coordinates": [13.4579508, 52.5159301]}, "properties": {"id": "282430458", "name": "Allermunde Pizzamanufaktur", "street": "Frankfurter Allee 17", "zip-code": 10247.0, "city": "Berlin", "planning-area-id": 2500727}}, {"type": "Feature", "geometry": {"type": "Point", "coordinates": [13.4608879, 52.5172556]}, "properties": {"id": "282738640", "name": "Seth", "street": "Proskauer Straße 29", "zip-code": 10247.0, "city": "Berlin", "planning-area-id": 2500727}}, {"type": "Feature", "geometry": {"type": "Point", "coordinates": [13.4621382, 52.5168019]}, "properties": {"id": "282739409", "name": "Koy", "street": "Rigaer Straße 26", "zip-code": 10247.0, "city": "Berlin", "planning-area-id": 2500728}}, {"type": "Feature", "geometry": {"type": "Point", "coordinates": [13.4658508, 52.5174079]}, "properties": {"id": "282741146", "name": "Anastasia", "street": "Schreinerstraße 51", "zip-code": 10247.0, "city": "Berlin", "planning-area-id": 2500728}}, {"type": "Feature", "geometry": {"type": "Point", "coordinates": [13.467624, 52.517967]}, "properties": {"id": "282744469", "name": "Papaleo", "street": "Bänschstraße 67", "zip-code": 10247.0, "city": "Berlin", "planning-area-id": 2500728}}, {"type": "Feature", "geometry": {"type": "Point", "coordinates": [13.4692543, 52.5177041]}, "properties": {"id": "282744567", "name": "San Diego", "street": "Bänschstraße 75", "zip-code": 10247.0, "city": "Berlin", "planning-area-id": 2500729}}, {"type": "Feature", "geometry": {"type": "Point", "coordinates": [13.471852, 52.5153424]}, "properties": {"id": "282749068", "name": "Asahi Sushi", "street": "", "zip-code": 10247.0, "city": "Berlin", "planning-area-id": 2500729}}, {"type": "Feature", "geometry": {"type": "Point", "coordinates": [13.4716078, 52.5151203]}, "properties": {"id": "282749069", "name": "Yogi Haus", "street": "Rigaer Straße 52", "zip-code": 10247.0, "city": "Berlin", "planning-area-id": 2500729}}, {"type": "Feature", "geometry": {"type": "Point", "coordinates": [13.4709298, 52.5138719]}, "properties": {"id": "282756005", "name": "Shanghai", "street": "Weichselstraße 36", "zip-code": 10247.0, "city": "Berlin", "planning-area-id": 2500832}}, {"type": "Feature", "geometry": {"type": "Point", "coordinates": [13.1979481, 52.5119508]}, "properties": {"id": "282761395", "name": "Stara Kuća", "street": "Alt-Pichelsdorf 30-32", "zip-code": 13595.0, "city": "Berlin", "planning-area-id": 5200634}}, {"type": "Feature", "geometry": {"type": "Point", "coordinates": [13.7133375, 52.4318874]}, "properties": {"id": "283212033", "name": "Lagunen-Eck", "street": "", "zip-code": "", "city": "", "planning-area-id": 9501838}}, {"type": "Feature", "geometry": {"type": "Point", "coordinates": [13.5012738, 52.5129887]}, "properties": {"id": "283569696", "name": "Restaurant Athos", "street": "Gudrunstraße 5A", "zip-code": 10365.0, "city": "Berlin", "planning-area-id": 11300725}}, {"type": "Feature", "geometry": {"type": "Point", "coordinates": [13.4608889, 52.5112327]}, "properties": {"id": "285064804", "name": "Kurhaus Korsakow", "street": "Grünberger Straße 81", "zip-code": 10245.0, "city": "Berlin", "planning-area-id": 2500833}}, {"type": "Feature", "geometry": {"type": "Point", "coordinates": [13.4585625, 52.5113289]}, "properties": {"id": "285068301", "name": "Mayfair Garden", "street": "", "zip-code": "", "city": "", "planning-area-id": 2500833}}, {"type": "Feature", "geometry": {"type": "Point", "coordinates": [13.4567297, 52.5116145]}, "properties": {"id": "285073012", "name": "Euphoria", "street": "Grünberger Straße 60", "zip-code": 10245.0, "city": "Berlin", "planning-area-id": 2500833}}, {"type": "Feature", "geometry": {"type": "Point", "coordinates": [13.4586892, 52.5115943]}, "properties": {"id": "285075125", "name": "li.ke", "street": "Grünberger Straße 69", "zip-code": 10245.0, "city": "Berlin", "planning-area-id": 2500833}}, {"type": "Feature", "geometry": {"type": "Point", "coordinates": [13.459095, 52.5124065]}, "properties": {"id": "285085630", "name": "Zeus Pizza & Pide", "street": "Boxhagener Straße 30", "zip-code": 10245.0, "city": "Berlin", "planning-area-id": 2500833}}, {"type": "Feature", "geometry": {"type": "Point", "coordinates": [13.3190018, 52.4982635]}, "properties": {"id": "285170131", "name": "Ristorante Da Toni", "street": "Pariser Straße 18a", "zip-code": 10707.0, "city": "Berlin", "planning-area-id": 4501044}}, {"type": "Feature", "geometry": {"type": "Point", "coordinates": [13.2067559, 52.5382994]}, "properties": {"id": "285431960", "name": "Hasir", "street": "", "zip-code": "", "city": "", "planning-area-id": 5100316}}, {"type": "Feature", "geometry": {"type": "Point", "coordinates": [13.3155769, 52.5063437]}, "properties": {"id": "285898054", "name": "Aroma", "street": "Kantstraße 35", "zip-code": 10625.0, "city": "Berlin", "planning-area-id": 4300624}}, {"type": "Feature", "geometry": {"type": "Point", "coordinates": [13.3216137, 52.507193]}, "properties": {"id": "285898060", "name": "Tapas Bar", "street": "Grolmanstraße 52", "zip-code": 10623.0, "city": "Berlin", "planning-area-id": 4300624}}, {"type": "Feature", "geometry": {"type": "Point", "coordinates": [13.2016097, 52.5367693]}, "properties": {"id": "285962886", "name": "Restaurant Churschmied", "street": "", "zip-code": "", "city": "", "planning-area-id": 5100316}}, {"type": "Feature", "geometry": {"type": "Point", "coordinates": [13.4303555, 52.4953274]}, "properties": {"id": "287525718", "name": "Lalibela", "street": "", "zip-code": "", "city": "", "planning-area-id": 2300418}}, {"type": "Feature", "geometry": {"type": "Point", "coordinates": [13.4286005, 52.4940969]}, "properties": {"id": "287528885", "name": "Cocochu", "street": "Paul-Lincke-Ufer 23", "zip-code": 10999.0, "city": "Berlin", "planning-area-id": 2300417}}, {"type": "Feature", "geometry": {"type": "Point", "coordinates": [13.4211845, 52.4919428]}, "properties": {"id": "288407321", "name": "Olivio", "street": "", "zip-code": "", "city": "", "planning-area-id": 2200213}}, {"type": "Feature", "geometry": {"type": "Point", "coordinates": [13.4143954, 52.4929941]}, "properties": {"id": "288407749", "name": "No Bananas", "street": "Dieffenbachstraße 11", "zip-code": 10967.0, "city": "Berlin", "planning-area-id": 2200213}}, {"type": "Feature", "geometry": {"type": "Point", "coordinates": [13.4642845, 52.4989849]}, "properties": {"id": "288731897", "name": "Melissa", "street": "Corinthstraße 58", "zip-code": 10245.0, "city": "Berlin", "planning-area-id": 2500835}}, {"type": "Feature", "geometry": {"type": "Point", "coordinates": [13.4237284, 52.5609827]}, "properties": {"id": "289665359", "name": "Athena Roma", "street": "Jenny-Lind-Straße 7", "zip-code": 13189.0, "city": "Berlin", "planning-area-id": 3400829}}, {"type": "Feature", "geometry": {"type": "Point", "coordinates": [13.1877687, 52.5203123]}, "properties": {"id": "291651816", "name": "Gaststätte G7", "street": "Gatower Straße 7", "zip-code": 13595.0, "city": "Berlin", "planning-area-id": 5200633}}, {"type": "Feature", "geometry": {"type": "Point", "coordinates": [13.4382723, 52.542687]}, "properties": {"id": "291750981", "name": "Trattoria Da Pia", "street": "Naugarder Straße 45 II", "zip-code": 10409.0, "city": "Berlin", "planning-area-id": 3601245}}, {"type": "Feature", "geometry": {"type": "Point", "coordinates": [13.4588561, 52.5124653]}, "properties": {"id": "291797118", "name": "The Hummus Club", "street": "Boxhagener Straße 29", "zip-code": 10245.0, "city": "Berlin", "planning-area-id": 2500833}}, {"type": "Feature", "geometry": {"type": "Point", "coordinates": [13.4587818, 52.5124787]}, "properties": {"id": "291797192", "name": "Burger Jam", "street": "Boxhagener Straße 29", "zip-code": 10245.0, "city": "Berlin", "planning-area-id": 2500833}}, {"type": "Feature", "geometry": {"type": "Point", "coordinates": [13.3353055, 52.5953151]}, "properties": {"id": "292699539", "name": "Asiana Village", "street": "", "zip-code": "", "city": "", "planning-area-id": 12500926}}, {"type": "Feature", "geometry": {"type": "Point", "coordinates": [13.6290994, 52.4268637]}, "properties": {"id": "292733839", "name": "Müggelsee-Terrassen Rübezahl", "street": "", "zip-code": "", "city": "", "planning-area-id": 9401329}}, {"type": "Feature", "geometry": {"type": "Point", "coordinates": [13.3180576, 52.5076989]}, "properties": {"id": "293111165", "name": "Pascarella", "street": "Schlüterstraße 69", "zip-code": 10625.0, "city": "Berlin", "planning-area-id": 4300624}}, {"type": "Feature", "geometry": {"type": "Point", "coordinates": [13.3246353, 52.4977937]}, "properties": {"id": "293121430", "name": "Georges Steakhouse", "street": "", "zip-code": "", "city": "", "planning-area-id": 4501045}}, {"type": "Feature", "geometry": {"type": "Point", "coordinates": [13.3098529, 52.506665]}, "properties": {"id": "293635560", "name": "Berlin Burrito Company", "street": "Kantstraße 51", "zip-code": 10625.0, "city": "Berlin", "planning-area-id": 4300623}}, {"type": "Feature", "geometry": {"type": "Point", "coordinates": [13.3263936, 52.5924426]}, "properties": {"id": "294851334", "name": "Da Mingiu", "street": "", "zip-code": "", "city": "", "planning-area-id": 12500927}}, {"type": "Feature", "geometry": {"type": "Point", "coordinates": [13.4480647, 52.5134101]}, "properties": {"id": "295085094", "name": "Jäger & Lustig", "street": "Grünberger Straße 1", "zip-code": 10243.0, "city": "Berlin", "planning-area-id": 2400624}}, {"type": "Feature", "geometry": {"type": "Point", "coordinates": [13.1993753, 52.5417561]}, "properties": {"id": "298676293", "name": "Plancha II", "street": "", "zip-code": "", "city": "", "planning-area-id": 5100316}}, {"type": "Feature", "geometry": {"type": "Point", "coordinates": [13.2954826, 52.4423635]}, "properties": {"id": "298811169", "name": "Litehouse", "street": "Baseler Straße 10", "zip-code": 12205.0, "city": "Berlin", "planning-area-id": 6300634}}, {"type": "Feature", "geometry": {"type": "Point", "coordinates": [13.1769686, 52.4147548]}, "properties": {"id": "299950512", "name": "Schützen-Wirtin", "street": "", "zip-code": "", "city": "", "planning-area-id": 6400735}}, {"type": "Feature", "geometry": {"type": "Point", "coordinates": [13.3894424, 52.5259949]}, "properties": {"id": "302864488", "name": "QBA", "street": "Oranienburger Straße 45", "zip-code": 10117.0, "city": "Berlin", "planning-area-id": 1100309}}, {"type": "Feature", "geometry": {"type": "Point", "coordinates": [13.4155131, 52.4949133]}, "properties": {"id": "306362297", "name": "Il Casolare", "street": "Grimmstraße 30", "zip-code": 10967.0, "city": "Berlin", "planning-area-id": 2200213}}, {"type": "Feature", "geometry": {"type": "Point", "coordinates": [13.6113563, 52.4955607]}, "properties": {"id": "308707632", "name": "Rossini III", "street": "Hultschiner Damm 238", "zip-code": 12623.0, "city": "Berlin", "planning-area-id": 10400941}}, {"type": "Feature", "geometry": {"type": "Point", "coordinates": [13.3469194, 52.5200654]}, "properties": {"id": "309054644", "name": "Marjan Grill", "street": "", "zip-code": 10557.0, "city": "Berlin", "planning-area-id": 1200629}}, {"type": "Feature", "geometry": {"type": "Point", "coordinates": [13.4186675, 52.4938768]}, "properties": {"id": "310268916", "name": "datscha", "street": "Graefestraße 83", "zip-code": 10967.0, "city": "Berlin", "planning-area-id": 2200213}}, {"type": "Feature", "geometry": {"type": "Point", "coordinates": [13.3483784, 52.4814663]}, "properties": {"id": "310377172", "name": "Bahar Restaurant", "street": "Hauptstraße 112", "zip-code": 10827.0, "city": "Berlin", "planning-area-id": 7200308}}, {"type": "Feature", "geometry": {"type": "Point", "coordinates": [13.2886358, 52.6331209]}, "properties": {"id": "310567582", "name": "Ristorante Pantalone", "street": "", "zip-code": "", "city": "", "planning-area-id": 12400720}}, {"type": "Feature", "geometry": {"type": "Point", "coordinates": [13.2855979, 52.5881097]}, "properties": {"id": "310612083", "name": "Ristorante Da Guiliano", "street": "", "zip-code": 13507.0, "city": "Berlin", "planning-area-id": 12200515}}, {"type": "Feature", "geometry": {"type": "Point", "coordinates": [13.2822617, 52.5897918]}, "properties": {"id": "310612305", "name": "Haxnhaus", "street": "Alt-Tegel 2", "zip-code": 13507.0, "city": "Berlin", "planning-area-id": 12200515}}, {"type": "Feature", "geometry": {"type": "Point", "coordinates": [13.2040241, 52.5442796]}, "properties": {"id": "311724419", "name": "Restorante Pescara", "street": "Falkenhagener Straße 1", "zip-code": 13585.0, "city": "Berlin", "planning-area-id": 5100315}}, {"type": "Feature", "geometry": {"type": "Point", "coordinates": [13.2043698, 52.544422]}, "properties": {"id": "311724422", "name": "Omonia Treff", "street": "Schönwalder Straße 111", "zip-code": 13585.0, "city": "Berlin", "planning-area-id": 5100315}}, {"type": "Feature", "geometry": {"type": "Point", "coordinates": [13.3134918, 52.6196845]}, "properties": {"id": "312058746", "name": "Yes Haus", "street": "Berliner Straße 109", "zip-code": 13467.0, "city": "Berlin", "planning-area-id": 12400723}}, {"type": "Feature", "geometry": {"type": "Point", "coordinates": [13.3268784, 52.6178766]}, "properties": {"id": "312060257", "name": "Zum Kühlen Grunde", "street": "Lotosweg 88", "zip-code": 13467.0, "city": "Berlin", "planning-area-id": 12400723}}, {"type": "Feature", "geometry": {"type": "Point", "coordinates": [13.3563271, 52.6201531]}, "properties": {"id": "312060331", "name": "Gasthof Alter Dorfkrug Lübars", "street": "Alt-Lübars 8", "zip-code": 13469.0, "city": "Berlin", "planning-area-id": 12500929}}, {"type": "Feature", "geometry": {"type": "Point", "coordinates": [13.3075025, 52.5003573]}, "properties": {"id": "312191064", "name": "Graffiti", "street": "Kurfürstendamm 69", "zip-code": 10707.0, "city": "Berlin", "planning-area-id": 4501040}}, {"type": "Feature", "geometry": {"type": "Point", "coordinates": [13.3764121, 52.5428561]}, "properties": {"id": "312820855", "name": "Sotto", "street": "Neue Hochstraße 25", "zip-code": 13347.0, "city": "Berlin", "planning-area-id": 1300836}}, {"type": "Feature", "geometry": {"type": "Point", "coordinates": [13.3682112, 52.544969]}, "properties": {"id": "312869285", "name": "Julius", "street": "Gerichtstraße 31", "zip-code": 13347.0, "city": "Berlin", "planning-area-id": 1401043}}, {"type": "Feature", "geometry": {"type": "Point", "coordinates": [13.291892, 52.5103534]}, "properties": {"id": "313071398", "name": "Rocco", "street": "Kaiserdamm 109", "zip-code": 14057.0, "city": "Berlin", "planning-area-id": 4300416}}, {"type": "Feature", "geometry": {"type": "Point", "coordinates": [13.4455523, 52.5254302]}, "properties": {"id": "313144186", "name": "Wok & Grill", "street": "", "zip-code": "", "city": "", "planning-area-id": 2400522}}, {"type": "Feature", "geometry": {"type": "Point", "coordinates": [13.3249631, 52.4666443]}, "properties": {"id": "313220246", "name": "Il Giardino", "street": "Hackerstraße 3", "zip-code": 12161.0, "city": "Berlin", "planning-area-id": 7300516}}, {"type": "Feature", "geometry": {"type": "Point", "coordinates": [13.4517323, 52.5278248]}, "properties": {"id": "313285295", "name": "La Laconda", "street": "Landsberger Allee 101", "zip-code": 10407.0, "city": "Berlin", "planning-area-id": 3601452}}, {"type": "Feature", "geometry": {"type": "Point", "coordinates": [13.4533349, 52.5232113]}, "properties": {"id": "314401612", "name": "Viet Bowl", "street": "Straßmannstraße 41", "zip-code": 10249.0, "city": "Berlin", "planning-area-id": 2500726}}, {"type": "Feature", "geometry": {"type": "Point", "coordinates": [13.3993689, 52.5352762]}, "properties": {"id": "314752471", "name": "Lemongrass", "street": "Anklamer Straße 38", "zip-code": 10115.0, "city": "Berlin", "planning-area-id": 1100416}}, {"type": "Feature", "geometry": {"type": "Point", "coordinates": [13.4342268, 52.5557801]}, "properties": {"id": "315775252", "name": "Ristorante Ravello", "street": "Jacobsohnstraße 23", "zip-code": 13086.0, "city": "Berlin", "planning-area-id": 3500934}}, {"type": "Feature", "geometry": {"type": "Point", "coordinates": [13.2747189, 52.5884273]}, "properties": {"id": "315979078", "name": "Lakeside", "street": "Wilkestraße 1", "zip-code": 13507.0, "city": "Berlin", "planning-area-id": 12200515}}, {"type": "Feature", "geometry": {"type": "Point", "coordinates": [13.3578292, 52.5458705]}, "properties": {"id": "317179411", "name": "Krua Thai", "street": "Luxemburger Straße 4", "zip-code": 13353.0, "city": "Berlin", "planning-area-id": 1400942}}, {"type": "Feature", "geometry": {"type": "Point", "coordinates": [13.385266, 52.5213052]}, "properties": {"id": "317393118", "name": "Machiavelli", "street": "Albrechtstraße 13", "zip-code": 10117.0, "city": "Berlin", "planning-area-id": 1100308}}, {"type": "Feature", "geometry": {"type": "Point", "coordinates": [13.440444, 52.5177087]}, "properties": {"id": "317436035", "name": "BLOCK HOUSE", "street": "Karl-Marx-Allee 91", "zip-code": 10243.0, "city": "Berlin", "planning-area-id": 2400521}}, {"type": "Feature", "geometry": {"type": "Point", "coordinates": [13.4400654, 52.5160527]}, "properties": {"id": "317443999", "name": "Cantina an der Weberwiese", "street": "Straße der Pariser Kommune 35", "zip-code": 10243.0, "city": "Berlin", "planning-area-id": 2400623}}, {"type": "Feature", "geometry": {"type": "Point", "coordinates": [13.5374711, 52.4296331]}, "properties": {"id": "317552032", "name": "Esskultur", "street": "Volmerstraße 9", "zip-code": 12489.0, "city": "Berlin", "planning-area-id": 9200715}}, {"type": "Feature", "geometry": {"type": "Point", "coordinates": [13.449987, 52.5201134]}, "properties": {"id": "318106017", "name": "Hawab", "street": "Mühsamstraße 54", "zip-code": 10249.0, "city": "Berlin", "planning-area-id": 2400522}}, {"type": "Feature", "geometry": {"type": "Point", "coordinates": [13.4497069, 52.5222924]}, "properties": {"id": "318106022", "name": "Pomodorino", "street": "Straßmannstraße 21", "zip-code": 10249.0, "city": "Berlin", "planning-area-id": 2400522}}, {"type": "Feature", "geometry": {"type": "Point", "coordinates": [13.3121913, 52.4599593]}, "properties": {"id": "318522785", "name": "Hee Lam Mun", "street": "", "zip-code": "", "city": "", "planning-area-id": 6100101}}, {"type": "Feature", "geometry": {"type": "Point", "coordinates": [13.3811135, 52.5148686]}, "properties": {"id": "318526010", "name": "Viale dei Tigli", "street": "Wilhelmstraße 75", "zip-code": 10117.0, "city": "Berlin", "planning-area-id": 1100205}}, {"type": "Feature", "geometry": {"type": "Point", "coordinates": [13.2888182, 52.5900731]}, "properties": {"id": "318651491", "name": "Zugpferd", "street": "", "zip-code": 13509.0, "city": "Berlin", "planning-area-id": 12500824}}, {"type": "Feature", "geometry": {"type": "Point", "coordinates": [13.4352292, 52.5217]}, "properties": {"id": "319211582", "name": "Madame 82", "street": "Friedrichsberger Straße 39 / 1", "zip-code": 10249.0, "city": "Berlin", "planning-area-id": 2400521}}, {"type": "Feature", "geometry": {"type": "Point", "coordinates": [13.4363335, 52.5296371]}, "properties": {"id": "319211643", "name": "Qadmous", "street": "Am Friedrichshain 1", "zip-code": 10407.0, "city": "Berlin", "planning-area-id": 3701660}}, {"type": "Feature", "geometry": {"type": "Point", "coordinates": [13.4455639, 52.5163455]}, "properties": {"id": "319308741", "name": "Lang Van II", "street": "Karl-Marx-Allee 108", "zip-code": 10243.0, "city": "Berlin", "planning-area-id": 2400624}}, {"type": "Feature", "geometry": {"type": "Point", "coordinates": [13.405011, 52.534207]}, "properties": {"id": "320216715", "name": "Nauta", "street": "Kastanienallee 49", "zip-code": 10119.0, "city": "Berlin", "planning-area-id": 1100416}}, {"type": "Feature", "geometry": {"type": "Point", "coordinates": [13.4048341, 52.5339909]}, "properties": {"id": "320217469", "name": "Aapka", "street": "Kastanienallee 50", "zip-code": 10119.0, "city": "Berlin", "planning-area-id": 1100416}}, {"type": "Feature", "geometry": {"type": "Point", "coordinates": [13.2936581, 52.5767714]}, "properties": {"id": "320855465", "name": "Dubrovnik-Grill", "street": "Berliner Straße 54", "zip-code": 13507.0, "city": "Berlin", "planning-area-id": 12200413}}, {"type": "Feature", "geometry": {"type": "Point", "coordinates": [13.4528749, 52.5326585]}, "properties": {"id": "321347093", "name": "Cantina", "street": "", "zip-code": "", "city": "", "planning-area-id": 3601450}}, {"type": "Feature", "geometry": {"type": "Point", "coordinates": [13.401044, 52.535705]}, "properties": {"id": "321523565", "name": "Roberta kocht", "street": "Zionskirchstraße 5", "zip-code": 10119.0, "city": "Berlin", "planning-area-id": 1100416}}, {"type": "Feature", "geometry": {"type": "Point", "coordinates": [13.4050916, 52.5342862]}, "properties": {"id": "321527319", "name": "W Der Imbiss", "street": "Kastanienallee 49", "zip-code": 10119.0, "city": "", "planning-area-id": 1100416}}, {"type": "Feature", "geometry": {"type": "Point", "coordinates": [13.4447868, 52.5298272]}, "properties": {"id": "321779859", "name": "Al Parco", "street": "Danziger Straße 209", "zip-code": 10407.0, "city": "Berlin", "planning-area-id": 3601452}}, {"type": "Feature", "geometry": {"type": "Point", "coordinates": [13.3461978, 52.5963736]}, "properties": {"id": "322531702", "name": "Sportsbar", "street": "", "zip-code": "", "city": "", "planning-area-id": 12601236}}, {"type": "Feature", "geometry": {"type": "Point", "coordinates": [13.4491113, 52.5286027]}, "properties": {"id": "322822421", "name": "Blaue Adria", "street": "", "zip-code": "", "city": "", "planning-area-id": 3601452}}, {"type": "Feature", "geometry": {"type": "Point", "coordinates": [13.3637958, 52.4137071]}, "properties": {"id": "324792568", "name": "Happy Buddha", "street": "", "zip-code": "", "city": "", "planning-area-id": 7601237}}, {"type": "Feature", "geometry": {"type": "Point", "coordinates": [13.3624551, 52.4134914]}, "properties": {"id": "324792572", "name": "Colombina", "street": "", "zip-code": "", "city": "", "planning-area-id": 7601236}}, {"type": "Feature", "geometry": {"type": "Point", "coordinates": [13.3634937, 52.4131836]}, "properties": {"id": "324792574", "name": "Adrijana Grill", "street": "", "zip-code": "", "city": "", "planning-area-id": 7601237}}, {"type": "Feature", "geometry": {"type": "Point", "coordinates": [13.2986637, 52.5192592]}, "properties": {"id": "327827638", "name": "Palace", "street": "Spandauer Damm 3", "zip-code": 14059.0, "city": "Berlin", "planning-area-id": 4300414}}, {"type": "Feature", "geometry": {"type": "Point", "coordinates": [13.403029, 52.534363]}, "properties": {"id": "329564458", "name": "La Bigoudène", "street": "Zionskirchstraße 28", "zip-code": 10119.0, "city": "Berlin", "planning-area-id": 1100416}}, {"type": "Feature", "geometry": {"type": "Point", "coordinates": [13.406796, 52.523574]}, "properties": {"id": "330160536", "name": "Atame", "street": "Dircksenstraße 40", "zip-code": 10178.0, "city": "Berlin", "planning-area-id": 1100309}}, {"type": "Feature", "geometry": {"type": "Point", "coordinates": [13.404568, 52.534069]}, "properties": {"id": "330259379", "name": "Hangi Sushi", "street": "", "zip-code": "", "city": "", "planning-area-id": 1100416}}, {"type": "Feature", "geometry": {"type": "Point", "coordinates": [13.4034671, 52.5336497]}, "properties": {"id": "330262371", "name": "La Focacceria", "street": "Fehrbelliner Straße 24", "zip-code": 10119.0, "city": "Berlin", "planning-area-id": 1100416}}, {"type": "Feature", "geometry": {"type": "Point", "coordinates": [13.405399, 52.533767]}, "properties": {"id": "330262523", "name": "Thai Sushi & More", "street": "Zionskirchstraße 44", "zip-code": 10119.0, "city": "Berlin", "planning-area-id": 1100416}}, {"type": "Feature", "geometry": {"type": "Point", "coordinates": [13.3220054, 52.5089244]}, "properties": {"id": "330966856", "name": "Satyam", "street": "Goethestraße 5", "zip-code": 10623.0, "city": "Berlin", "planning-area-id": 4300624}}, {"type": "Feature", "geometry": {"type": "Point", "coordinates": [13.3552616, 52.4870643]}, "properties": {"id": "331251821", "name": "Moghul", "street": "Akazienstraße 5", "zip-code": 10823.0, "city": "Berlin", "planning-area-id": 7200409}}, {"type": "Feature", "geometry": {"type": "Point", "coordinates": [13.4073498, 52.4885454]}, "properties": {"id": "331350595", "name": "Kinnaree Thai", "street": "Südstern 14", "zip-code": 10965.0, "city": "Berlin", "planning-area-id": 2200211}}, {"type": "Feature", "geometry": {"type": "Point", "coordinates": [13.3853311, 52.5212101]}, "properties": {"id": "332554285", "name": "Ständige Vertretung", "street": "Schiffbauerdamm 8", "zip-code": 10117.0, "city": "Berlin", "planning-area-id": 1100308}}, {"type": "Feature", "geometry": {"type": "Point", "coordinates": [13.3850126, 52.5216755]}, "properties": {"id": "332554286", "name": "Kartoffelkeller", "street": "Albrechtstraße 14b", "zip-code": 10117.0, "city": "Berlin", "planning-area-id": 1100308}}, {"type": "Feature", "geometry": {"type": "Point", "coordinates": [13.379881, 52.5223526]}, "properties": {"id": "332554290", "name": "Volver", "street": "Luisenstraße 41", "zip-code": 10117.0, "city": "Berlin", "planning-area-id": 1100308}}, {"type": "Feature", "geometry": {"type": "Point", "coordinates": [13.3850412, 52.5210049]}, "properties": {"id": "332625321", "name": "Vaporetto", "street": "Albrechtstraße 12", "zip-code": 10117.0, "city": "Berlin", "planning-area-id": 1100308}}, {"type": "Feature", "geometry": {"type": "Point", "coordinates": [13.3849693, 52.5212138]}, "properties": {"id": "332625330", "name": "Anand", "street": "Albrechtstraße 12", "zip-code": 10117.0, "city": "", "planning-area-id": 1100308}}, {"type": "Feature", "geometry": {"type": "Point", "coordinates": [13.376349, 52.5101889]}, "properties": {"id": "332733314", "name": "Vapiano", "street": "", "zip-code": "", "city": "", "planning-area-id": 1100102}}, {"type": "Feature", "geometry": {"type": "Point", "coordinates": [13.3824135, 52.5228146]}, "properties": {"id": "332733319", "name": "Cinque", "street": "Reinhardtstraße 27 D", "zip-code": 10117.0, "city": "Berlin", "planning-area-id": 1100308}}, {"type": "Feature", "geometry": {"type": "Point", "coordinates": [13.3853444, 52.5236266]}, "properties": {"id": "333136484", "name": "Dehlers", "street": "Reinhardtstraße 14", "zip-code": 10117.0, "city": "Berlin", "planning-area-id": 1100308}}, {"type": "Feature", "geometry": {"type": "Point", "coordinates": [13.3865223, 52.5238004]}, "properties": {"id": "333136582", "name": "Van-Long", "street": "", "zip-code": "", "city": "", "planning-area-id": 1100308}}, {"type": "Feature", "geometry": {"type": "Point", "coordinates": [13.3868725, 52.5238713]}, "properties": {"id": "333136584", "name": "Akito", "street": "", "zip-code": "", "city": "", "planning-area-id": 1100308}}, {"type": "Feature", "geometry": {"type": "Point", "coordinates": [13.3871462, 52.5250993]}, "properties": {"id": "333136586", "name": "Roma", "street": "Friedrichstraße 129", "zip-code": 10117.0, "city": "Berlin", "planning-area-id": 1100308}}, {"type": "Feature", "geometry": {"type": "Point", "coordinates": [13.3871155, 52.5254726]}, "properties": {"id": "333136588", "name": "Lucky Star", "street": "Friedrichstraße 127", "zip-code": 10117.0, "city": "Berlin", "planning-area-id": 1100308}}, {"type": "Feature", "geometry": {"type": "Point", "coordinates": [13.3886693, 52.5261784]}, "properties": {"id": "333136722", "name": "Sausalitos", "street": "Oranienburger Straße 50", "zip-code": 10117.0, "city": "Berlin", "planning-area-id": 1100309}}, {"type": "Feature", "geometry": {"type": "Point", "coordinates": [13.3884968, 52.5231491]}, "properties": {"id": "333136723", "name": "Bombay", "street": "Friedrichstraße 106c", "zip-code": 10117.0, "city": "Berlin", "planning-area-id": 1100309}}, {"type": "Feature", "geometry": {"type": "Point", "coordinates": [13.3884622, 52.5208138]}, "properties": {"id": "333160358", "name": "Peter Pane", "street": "Friedrichstraße 101", "zip-code": 10117.0, "city": "Berlin", "planning-area-id": 1100206}}, {"type": "Feature", "geometry": {"type": "Point", "coordinates": [13.3333174, 52.4297742]}, "properties": {"id": "334136940", "name": "Saigon Kitchen 1985", "street": "Kaiser-Wilhelm-Straße 3", "zip-code": 12247.0, "city": "Berlin", "planning-area-id": 6200314}}, {"type": "Feature", "geometry": {"type": "Point", "coordinates": [13.3440299, 52.4390321]}, "properties": {"id": "334137522", "name": "La Montanara", "street": "Leonorenstraße 67", "zip-code": 12247.0, "city": "Berlin", "planning-area-id": 6200313}}, {"type": "Feature", "geometry": {"type": "Point", "coordinates": [13.3422947, 52.4396315]}, "properties": {"id": "334137883", "name": "Zokis", "street": "", "zip-code": "", "city": "", "planning-area-id": 6200312}}, {"type": "Feature", "geometry": {"type": "Point", "coordinates": [13.4023299, 52.5307267]}, "properties": {"id": "336139117", "name": "Wild & Raw", "street": "Weinbergsweg 5", "zip-code": 10119.0, "city": "Berlin", "planning-area-id": 1100416}}, {"type": "Feature", "geometry": {"type": "Point", "coordinates": [13.394901, 52.5278753]}, "properties": {"id": "336384872", "name": "Lokal", "street": "Linienstraße 160", "zip-code": 10115.0, "city": "", "planning-area-id": 1100309}}, {"type": "Feature", "geometry": {"type": "Point", "coordinates": [13.3926644, 52.5274962]}, "properties": {"id": "336384877", "name": "Bötzow Privat", "street": "Linienstraße 113", "zip-code": 10115.0, "city": "Berlin", "planning-area-id": 1100309}}, {"type": "Feature", "geometry": {"type": "Point", "coordinates": [13.385871, 52.521472]}, "properties": {"id": "336384888", "name": "Brechts", "street": "Schiffbauerdamm 6-7", "zip-code": 10117.0, "city": "Berlin", "planning-area-id": 1100308}}, {"type": "Feature", "geometry": {"type": "Point", "coordinates": [13.3863157, 52.521721]}, "properties": {"id": "336384894", "name": "Ganymed", "street": "Schiffbauerdamm 5", "zip-code": 10117.0, "city": "Berlin", "planning-area-id": 1100308}}, {"type": "Feature", "geometry": {"type": "Point", "coordinates": [13.3899146, 52.5161429]}, "properties": {"id": "337503862", "name": "Bonjour Vietnam", "street": "Rosmarinstraße 8", "zip-code": 10117.0, "city": "", "planning-area-id": 1100206}}, {"type": "Feature", "geometry": {"type": "Point", "coordinates": [13.5579994, 52.5438011]}, "properties": {"id": "339305520", "name": "Zum Fröhlichen Bauernhof", "street": "Alt-Marzahn 22", "zip-code": 12685.0, "city": "Berlin", "planning-area-id": 10100313}}, {"type": "Feature", "geometry": {"type": "Point", "coordinates": [13.3954604, 52.5291046]}, "properties": {"id": "339816979", "name": "3 minutes sur mer", "street": "Torstraße 167", "zip-code": 10115.0, "city": "Berlin", "planning-area-id": 1100415}}, {"type": "Feature", "geometry": {"type": "Point", "coordinates": [13.309887, 52.4517727]}, "properties": {"id": "343314987", "name": "Landhaus Botanischer Garten", "street": "", "zip-code": "", "city": "", "planning-area-id": 6300629}}, {"type": "Feature", "geometry": {"type": "Point", "coordinates": [13.2907097, 52.4576996]}, "properties": {"id": "345127877", "name": "Piaggio", "street": "Königin-Luise-Straße 44", "zip-code": 14195.0, "city": "Berlin", "planning-area-id": 6400843}}, {"type": "Feature", "geometry": {"type": "Point", "coordinates": [13.3217196, 52.4673215]}, "properties": {"id": "345209600", "name": "rheingold", "street": "Rheingaustraße 1", "zip-code": 12161.0, "city": "Berlin", "planning-area-id": 7300516}}, {"type": "Feature", "geometry": {"type": "Point", "coordinates": [13.2951737, 52.443374]}, "properties": {"id": "345786582", "name": "Macedonia", "street": "Hans-Sachs-Straße 4f", "zip-code": 12205.0, "city": "Berlin", "planning-area-id": 6300634}}, {"type": "Feature", "geometry": {"type": "Point", "coordinates": [13.3217637, 52.4726746]}, "properties": {"id": "346135933", "name": "Pino", "street": "Rheingaustraße 14", "zip-code": 12161.0, "city": "Berlin", "planning-area-id": 7300515}}, {"type": "Feature", "geometry": {"type": "Point", "coordinates": [13.330777, 52.4246828]}, "properties": {"id": "346713870", "name": "Cafe Surf Inn", "street": "Parallelstraße 11", "zip-code": 12209.0, "city": "Berlin", "planning-area-id": 6200422}}, {"type": "Feature", "geometry": {"type": "Point", "coordinates": [13.3247457, 52.4280707]}, "properties": {"id": "347293594", "name": "Friedhards", "street": "Königsberger Straße 46", "zip-code": 12207.0, "city": "Berlin", "planning-area-id": 6200421}}, {"type": "Feature", "geometry": {"type": "Point", "coordinates": [13.2984365, 52.5192482]}, "properties": {"id": "349007465", "name": "Opera Italiana", "street": "Spandauer Damm 5", "zip-code": 14059.0, "city": "Berlin", "planning-area-id": 4300414}}, {"type": "Feature", "geometry": {"type": "Point", "coordinates": [13.2973768, 52.5140665]}, "properties": {"id": "349010568", "name": "Trattoria Toscana", "street": "Schloßstraße 45", "zip-code": 14059.0, "city": "Berlin", "planning-area-id": 4300414}}, {"type": "Feature", "geometry": {"type": "Point", "coordinates": [13.1992105, 52.4941059]}, "properties": {"id": "350625402", "name": "Schildhornbaude", "street": "Straße am Schildhorn 12", "zip-code": 14193.0, "city": "Berlin", "planning-area-id": 4200207}}, {"type": "Feature", "geometry": {"type": "Point", "coordinates": [13.2428177, 52.4458169]}, "properties": {"id": "352907185", "name": "Restaurant Gourmet Sud", "street": "Selmaplatz 1", "zip-code": 14163.0, "city": "Berlin", "planning-area-id": 6400838}}, {"type": "Feature", "geometry": {"type": "Point", "coordinates": [13.2432263, 52.4465899]}, "properties": {"id": "352907186", "name": "Wus", "street": "Teschener Weg 5", "zip-code": 14163.0, "city": "Berlin", "planning-area-id": 6400838}}, {"type": "Feature", "geometry": {"type": "Point", "coordinates": [13.5652273, 52.4710833]}, "properties": {"id": "353806601", "name": "Bistro", "street": "", "zip-code": "", "city": "", "planning-area-id": 9502043}}, {"type": "Feature", "geometry": {"type": "Point", "coordinates": [13.5142493, 52.4682137]}, "properties": {"id": "355654539", "name": "Thessaloniki", "street": "Edisonstraße 34", "zip-code": 12459.0, "city": "Berlin", "planning-area-id": 9200511}}, {"type": "Feature", "geometry": {"type": "Point", "coordinates": [13.552511, 52.4557061]}, "properties": {"id": "355654866", "name": "Stella del Köp", "street": "An der Wuhlheide 228B", "zip-code": 12459.0, "city": "Berlin", "planning-area-id": 9200512}}, {"type": "Feature", "geometry": {"type": "Point", "coordinates": [13.4086146, 52.5328438]}, "properties": {"id": "356007033", "name": "Standard Pizza", "street": "Templiner Straße 7", "zip-code": 10119.0, "city": "Berlin", "planning-area-id": 3701554}}, {"type": "Feature", "geometry": {"type": "Point", "coordinates": [13.2180894, 52.427003]}, "properties": {"id": "358574131", "name": "La Serra", "street": "Wiesenschlag 4", "zip-code": 14129.0, "city": "Berlin", "planning-area-id": 6400736}}, {"type": "Feature", "geometry": {"type": "Point", "coordinates": [13.3365051, 52.4802048]}, "properties": {"id": "359754354", "name": "Parkcafé Pusteblume", "street": "Durlacher Straße 2", "zip-code": 10715.0, "city": "Berlin", "planning-area-id": 4501153}}, {"type": "Feature", "geometry": {"type": "Point", "coordinates": [13.3244761, 52.4171466]}, "properties": {"id": "364265473", "name": "Golden Garden", "street": "", "zip-code": "", "city": "", "planning-area-id": 6200423}}, {"type": "Feature", "geometry": {"type": "Point", "coordinates": [13.4573118, 52.5127816]}, "properties": {"id": "365099975", "name": "The Senses", "street": "Simon-Dach-Straße 1", "zip-code": 10245.0, "city": "Berlin", "planning-area-id": 2500833}}, {"type": "Feature", "geometry": {"type": "Point", "coordinates": [13.4304135, 52.4685334]}, "properties": {"id": "365288484", "name": "Döner Zimmer", "street": "", "zip-code": 12051.0, "city": "Berlin", "planning-area-id": 8100104}}, {"type": "Feature", "geometry": {"type": "Point", "coordinates": [13.2845552, 52.5066568]}, "properties": {"id": "365686892", "name": "Asia Restaurant Sonne", "street": "Neue Kantstraße 16", "zip-code": 14057.0, "city": "Berlin", "planning-area-id": 4300415}}, {"type": "Feature", "geometry": {"type": "Point", "coordinates": [13.3092361, 52.5079886]}, "properties": {"id": "366021799", "name": "Thomas-Eck", "street": "Pestalozzistraße 25", "zip-code": 10627.0, "city": "Berlin", "planning-area-id": 4300623}}, {"type": "Feature", "geometry": {"type": "Point", "coordinates": [13.5265088, 52.4864913]}, "properties": {"id": "366943097", "name": "Wernesgrüner B", "street": "Treskowallee 68", "zip-code": 10318.0, "city": "Berlin", "planning-area-id": 11501339}}, {"type": "Feature", "geometry": {"type": "Point", "coordinates": [13.5272764, 52.4866452]}, "properties": {"id": "366943182", "name": "Steakhaus Barbecue", "street": "Treskowallee 65", "zip-code": 10318.0, "city": "Berlin", "planning-area-id": 11501340}}, {"type": "Feature", "geometry": {"type": "Point", "coordinates": [13.3113863, 52.507721]}, "properties": {"id": "366990702", "name": "Ristorante Pizzeria Dino", "street": "Pestalozzistraße 88", "zip-code": 10625.0, "city": "Berlin", "planning-area-id": 4300623}}, {"type": "Feature", "geometry": {"type": "Point", "coordinates": [13.3496508, 52.5466137]}, "properties": {"id": "369035690", "name": "L Escargot", "street": "Brüsseler Straße 39", "zip-code": 13353.0, "city": "Berlin", "planning-area-id": 1400942}}, {"type": "Feature", "geometry": {"type": "Point", "coordinates": [13.3597499, 52.5230939]}, "properties": {"id": "370060150", "name": "Don Giovanni", "street": "Alt-Moabit 129", "zip-code": 10557.0, "city": "Berlin", "planning-area-id": 1200628}}, {"type": "Feature", "geometry": {"type": "Point", "coordinates": [13.4084251, 52.5370279]}, "properties": {"id": "370300841", "name": "Die Schule", "street": "Kastanienallee 82", "zip-code": "", "city": "", "planning-area-id": 3701554}}, {"type": "Feature", "geometry": {"type": "Point", "coordinates": [13.4143029, 52.5474445]}, "properties": {"id": "370852067", "name": "Knödelwirtschaft Nord", "street": "Stargarder Straße 3", "zip-code": 10437.0, "city": "Berlin", "planning-area-id": 3601346}}, {"type": "Feature", "geometry": {"type": "Point", "coordinates": [13.4147301, 52.5476774]}, "properties": {"id": "371157963", "name": "Van Hoa", "street": "Stargarder Straße 79", "zip-code": 10437.0, "city": "Berlin", "planning-area-id": 3601346}}, {"type": "Feature", "geometry": {"type": "Point", "coordinates": [13.3078414, 52.5113714]}, "properties": {"id": "371796449", "name": "Rosati", "street": "Bismarckstraße 88", "zip-code": 10627.0, "city": "Berlin", "planning-area-id": 4300623}}, {"type": "Feature", "geometry": {"type": "Point", "coordinates": [13.4214478, 52.5452831]}, "properties": {"id": "373855813", "name": "Sadhu", "street": "Stargarder Straße 60", "zip-code": 10437.0, "city": "Berlin", "planning-area-id": 3601347}}, {"type": "Feature", "geometry": {"type": "Point", "coordinates": [13.4193202, 52.550285]}, "properties": {"id": "376390572", "name": "Frau Mittenmang", "street": "Rodenbergstraße 37", "zip-code": 10439.0, "city": "Berlin", "planning-area-id": 3601243}}, {"type": "Feature", "geometry": {"type": "Point", "coordinates": [13.396302, 52.53209]}, "properties": {"id": "378714397", "name": "Papà Pane di Sorrento", "street": "Ackerstraße 23", "zip-code": 10115.0, "city": "Berlin", "planning-area-id": 1100415}}, {"type": "Feature", "geometry": {"type": "Point", "coordinates": [13.3965969, 52.5315752]}, "properties": {"id": "378715785", "name": "Asman", "street": "Ackerstraße 20", "zip-code": 10115.0, "city": "Berlin", "planning-area-id": 1100415}}, {"type": "Feature", "geometry": {"type": "Point", "coordinates": [13.3882827, 52.5178945]}, "properties": {"id": "380498268", "name": "Treffpunkt Berlin", "street": "Mittelstraße 55", "zip-code": 10117.0, "city": "Berlin", "planning-area-id": 1100206}}, {"type": "Feature", "geometry": {"type": "Point", "coordinates": [13.4579704, 52.5093265]}, "properties": {"id": "384516275", "name": "Datscha", "street": "Gabriel-Max-Straße 1", "zip-code": 10245.0, "city": "Berlin", "planning-area-id": 2500834}}, {"type": "Feature", "geometry": {"type": "Point", "coordinates": [13.3306356, 52.4239489]}, "properties": {"id": "384791100", "name": "Boccadoro", "street": "Ferdinandstraße 15", "zip-code": 12209.0, "city": "Berlin", "planning-area-id": 6200422}}, {"type": "Feature", "geometry": {"type": "Point", "coordinates": [13.4020087, 52.5339232]}, "properties": {"id": "385406320", "name": "Alimentari", "street": "", "zip-code": "", "city": "", "planning-area-id": 1100416}}, {"type": "Feature", "geometry": {"type": "Point", "coordinates": [13.3882443, 52.5226168]}, "properties": {"id": "387772992", "name": "Italofritzen", "street": "Friedrichstraße 106", "zip-code": "", "city": "Berlin", "planning-area-id": 1100309}}, {"type": "Feature", "geometry": {"type": "Point", "coordinates": [13.2987243, 52.4987072]}, "properties": {"id": "387842300", "name": "Restaurant Tuğra", "street": "Kurfürstendamm 96", "zip-code": 10709.0, "city": "Berlin", "planning-area-id": 4500937}}, {"type": "Feature", "geometry": {"type": "Point", "coordinates": [13.3819714, 52.5931545]}, "properties": {"id": "388290956", "name": "Siena", "street": "Friedrich-Engels-Straße 149", "zip-code": 13158.0, "city": "Berlin", "planning-area-id": 3400618}}, {"type": "Feature", "geometry": {"type": "Point", "coordinates": [13.468952, 52.5050491]}, "properties": {"id": "388591697", "name": "Salt & Pepper", "street": "Neue Bahnhofstraße 33", "zip-code": 10245.0, "city": "Berlin", "planning-area-id": 2500834}}, {"type": "Feature", "geometry": {"type": "Point", "coordinates": [13.1466473, 52.4508283]}, "properties": {"id": "390307273", "name": "Pizzeria La Riviera", "street": "Imchenallee 48", "zip-code": 14089.0, "city": "Berlin", "planning-area-id": 5400944}}, {"type": "Feature", "geometry": {"type": "Point", "coordinates": [13.4695365, 52.6140483]}, "properties": {"id": "391407342", "name": "Viet Duc", "street": "", "zip-code": "", "city": "", "planning-area-id": 3300412}}, {"type": "Feature", "geometry": {"type": "Point", "coordinates": [13.4846958, 52.615191]}, "properties": {"id": "391411289", "name": "Das märchenhafte Ribhouse", "street": "Alt-Karow 35", "zip-code": 13125.0, "city": "Berlin", "planning-area-id": 3300412}}, {"type": "Feature", "geometry": {"type": "Point", "coordinates": [13.713346, 52.432327]}, "properties": {"id": "392389621", "name": "Ristorante Da Giovanni", "street": "", "zip-code": "", "city": "", "planning-area-id": 9501838}}, {"type": "Feature", "geometry": {"type": "Point", "coordinates": [13.7085775, 52.431252]}, "properties": {"id": "392390217", "name": "Neu Venedig", "street": "Finkenweg 348", "zip-code": 12589.0, "city": "Berlin", "planning-area-id": 9501838}}, {"type": "Feature", "geometry": {"type": "Point", "coordinates": [13.4487348, 52.5524002]}, "properties": {"id": "393392247", "name": "Olivetta", "street": "Behaimstraße 64", "zip-code": 13086.0, "city": "Berlin", "planning-area-id": 3500935}}, {"type": "Feature", "geometry": {"type": "Point", "coordinates": [13.4232648, 52.5420573]}, "properties": {"id": "394000635", "name": "Trattoria Zoe", "street": "Senefelderstraße 10", "zip-code": 10437.0, "city": "Berlin", "planning-area-id": 3601348}}, {"type": "Feature", "geometry": {"type": "Point", "coordinates": [13.2710239, 52.5351839]}, "properties": {"id": "394866212", "name": "Il Ducato", "street": "Reisstraße 27", "zip-code": 13629.0, "city": "Berlin", "planning-area-id": 5300841}}, {"type": "Feature", "geometry": {"type": "Point", "coordinates": [13.3016415, 52.4992112]}, "properties": {"id": "406678484", "name": "Francucci’s Ristorante", "street": "Kurfürstendamm 90", "zip-code": 10709.0, "city": "Berlin", "planning-area-id": 4500937}}, {"type": "Feature", "geometry": {"type": "Point", "coordinates": [13.3521024, 52.4874226]}, "properties": {"id": "407730065", "name": "Gasthaus Renger-Patzsch", "street": "Wartburgstraße 54", "zip-code": 10823.0, "city": "Berlin", "planning-area-id": 7200409}}, {"type": "Feature", "geometry": {"type": "Point", "coordinates": [13.3165662, 52.4585364]}, "properties": {"id": "408820957", "name": "La Fattoria", "street": "Grunewaldstraße 8", "zip-code": 12165.0, "city": "Berlin", "planning-area-id": 6100102}}, {"type": "Feature", "geometry": {"type": "Point", "coordinates": [13.4025984, 52.5933981]}, "properties": {"id": "409812328", "name": "Centenario", "street": "Dietzgenstraße 119", "zip-code": 13158.0, "city": "Berlin", "planning-area-id": 3200205}}, {"type": "Feature", "geometry": {"type": "Point", "coordinates": [13.4338383, 52.4900553]}, "properties": {"id": "410135900", "name": "Sorrel", "street": "Pannierstraße 40", "zip-code": 12047.0, "city": "Berlin", "planning-area-id": 8100310}}, {"type": "Feature", "geometry": {"type": "Point", "coordinates": [13.4300106, 52.4936328]}, "properties": {"id": "410135911", "name": "Restaurant VOLT", "street": "Paul-Lincke-Ufer 21", "zip-code": 10999.0, "city": "Berlin", "planning-area-id": 2300418}}, {"type": "Feature", "geometry": {"type": "Point", "coordinates": [13.4435706, 52.4999531]}, "properties": {"id": "410135928", "name": "Vamos!", "street": "", "zip-code": "", "city": "", "planning-area-id": 2300419}}, {"type": "Feature", "geometry": {"type": "Point", "coordinates": [13.4331113, 52.4917372]}, "properties": {"id": "410135934", "name": "Life Berlin", "street": "Maybachufer 39", "zip-code": 12047.0, "city": "Berlin", "planning-area-id": 8100310}}, {"type": "Feature", "geometry": {"type": "Point", "coordinates": [13.4422489, 52.5006645]}, "properties": {"id": "410135954", "name": "Bagdad", "street": "Schlesische Straße 2", "zip-code": 10997.0, "city": "Berlin", "planning-area-id": 2300419}}, {"type": "Feature", "geometry": {"type": "Point", "coordinates": [13.4454305, 52.4994429]}, "properties": {"id": "410135957", "name": "Golden Gingko", "street": "Schlesische Straße 35", "zip-code": 10997.0, "city": "", "planning-area-id": 2300419}}, {"type": "Feature", "geometry": {"type": "Point", "coordinates": [13.2680792, 52.5896663]}, "properties": {"id": "410216990", "name": "Seeigel-Malche Restaurant am See", "street": "Gabrielenstraße 77", "zip-code": 13507.0, "city": "Berlin", "planning-area-id": 12200515}}, {"type": "Feature", "geometry": {"type": "Point", "coordinates": [13.3137992, 52.6202937]}, "properties": {"id": "410741002", "name": "Ristorante Cascina", "street": "", "zip-code": "", "city": "", "planning-area-id": 12400723}}, {"type": "Feature", "geometry": {"type": "Point", "coordinates": [13.3872163, 52.5884453]}, "properties": {"id": "411045544", "name": "Zum Torhaus", "street": "Nordendstraße 46", "zip-code": 13156.0, "city": "Berlin", "planning-area-id": 3200205}}, {"type": "Feature", "geometry": {"type": "Point", "coordinates": [13.414157, 52.5408964]}, "properties": {"id": "411555034", "name": "Schusterjunge", "street": "", "zip-code": "", "city": "", "planning-area-id": 3601347}}, {"type": "Feature", "geometry": {"type": "Point", "coordinates": [13.5817977, 52.5050078]}, "properties": {"id": "411628466", "name": "Asia Koy Restaurant", "street": "Alt-Kaulsdorf 18", "zip-code": 12621.0, "city": "Berlin", "planning-area-id": 10400837}}, {"type": "Feature", "geometry": {"type": "Point", "coordinates": [13.4137758, 52.5174527]}, "properties": {"id": "411728139", "name": "Zur Letzten Instanz", "street": "Waisenstraße 14-16", "zip-code": 10179.0, "city": "Berlin", "planning-area-id": 1100310}}, {"type": "Feature", "geometry": {"type": "Point", "coordinates": [13.327536, 52.5044792]}, "properties": {"id": "412120356", "name": "Thai Elephant", "street": "Fasanenstraße 15", "zip-code": 10623.0, "city": "Berlin", "planning-area-id": 4501042}}, {"type": "Feature", "geometry": {"type": "Point", "coordinates": [13.3151201, 52.4535811]}, "properties": {"id": "413386849", "name": "Hoppegarten", "street": "Schloßstraße 56", "zip-code": 12165.0, "city": "Berlin", "planning-area-id": 6100101}}, {"type": "Feature", "geometry": {"type": "Point", "coordinates": [13.4204637, 52.541897]}, "properties": {"id": "415307587", "name": "LOsteria Del Parlamento", "street": "Raumerstraße 15", "zip-code": 10437.0, "city": "Berlin", "planning-area-id": 3601348}}, {"type": "Feature", "geometry": {"type": "Point", "coordinates": [13.4214974, 52.5416295]}, "properties": {"id": "415310758", "name": "Benedict", "street": "Göhrener Straße 5", "zip-code": 10437.0, "city": "Berlin", "planning-area-id": 3601348}}, {"type": "Feature", "geometry": {"type": "Point", "coordinates": [13.4162989, 52.5444483]}, "properties": {"id": "415311956", "name": "Mido Sushi", "street": "Pappelallee 22", "zip-code": 10437.0, "city": "Berlin", "planning-area-id": 3601347}}, {"type": "Feature", "geometry": {"type": "Point", "coordinates": [13.4184056, 52.5442713]}, "properties": {"id": "415312260", "name": "Sasaya", "street": "Lychener Straße 50", "zip-code": 10437.0, "city": "Berlin", "planning-area-id": 3601347}}, {"type": "Feature", "geometry": {"type": "Point", "coordinates": [13.4148581, 52.5415085]}, "properties": {"id": "415312876", "name": "Meena Kumari", "street": "Lychener Straße 9", "zip-code": 10437.0, "city": "Berlin", "planning-area-id": 3601347}}, {"type": "Feature", "geometry": {"type": "Point", "coordinates": [13.4179349, 52.5464705]}, "properties": {"id": "415549142", "name": "Gate 57", "street": "Pappelallee 57", "zip-code": 10437.0, "city": "Berlin", "planning-area-id": 3601346}}, {"type": "Feature", "geometry": {"type": "Point", "coordinates": [13.4181417, 52.5467004]}, "properties": {"id": "415549143", "name": "Coronita", "street": "Pappelallee 56", "zip-code": 10437.0, "city": "Berlin", "planning-area-id": 3601346}}, {"type": "Feature", "geometry": {"type": "Point", "coordinates": [13.418534, 52.5465503]}, "properties": {"id": "415549144", "name": "Fabbrica del Gusto", "street": "Pappelallee 36", "zip-code": 10437.0, "city": "Berlin", "planning-area-id": 3601347}}, {"type": "Feature", "geometry": {"type": "Point", "coordinates": [13.4175949, 52.5439319]}, "properties": {"id": "415551815", "name": "Trattoria Felice", "street": "Lychener Straße 41", "zip-code": 10437.0, "city": "Berlin", "planning-area-id": 3601347}}, {"type": "Feature", "geometry": {"type": "Point", "coordinates": [13.3535892, 52.4885059]}, "properties": {"id": "416047581", "name": "Sangam", "street": "Akazienstraße 19", "zip-code": 10823.0, "city": "Berlin", "planning-area-id": 7200409}}, {"type": "Feature", "geometry": {"type": "Point", "coordinates": [13.3539428, 52.4873737]}, "properties": {"id": "416063201", "name": "Trattoria Perla Jonica", "street": "Belziger Straße 20", "zip-code": 10823.0, "city": "Berlin", "planning-area-id": 7200409}}, {"type": "Feature", "geometry": {"type": "Point", "coordinates": [13.2933907, 52.4438246]}, "properties": {"id": "416076803", "name": "Il Mulino", "street": "Adolf-Martens-Straße 2", "zip-code": 12205.0, "city": "Berlin", "planning-area-id": 6300629}}, {"type": "Feature", "geometry": {"type": "Point", "coordinates": [13.3546489, 52.4891914]}, "properties": {"id": "416634865", "name": "Villa Franca", "street": "Vorbergstraße 10", "zip-code": 10823.0, "city": "Berlin", "planning-area-id": 7200409}}, {"type": "Feature", "geometry": {"type": "Point", "coordinates": [13.3544624, 52.4892061]}, "properties": {"id": "416634868", "name": "La Cocotte", "street": "Vorbergstraße 10", "zip-code": 10823.0, "city": "Berlin", "planning-area-id": 7200409}}, {"type": "Feature", "geometry": {"type": "Point", "coordinates": [13.3342, 52.5229748]}, "properties": {"id": "416973372", "name": "Taverna Phaestos", "street": "Jagowstraße 16", "zip-code": 10555.0, "city": "Berlin", "planning-area-id": 1200522}}, {"type": "Feature", "geometry": {"type": "Point", "coordinates": [13.339427, 52.5240477]}, "properties": {"id": "417191722", "name": "Walhalla", "street": "Krefelder Straße 6", "zip-code": 10555.0, "city": "Berlin", "planning-area-id": 1200522}}, {"type": "Feature", "geometry": {"type": "Point", "coordinates": [13.458063, 52.5107157]}, "properties": {"id": "417302873", "name": "Papaya", "street": "Krossener Straße 11a", "zip-code": 10245.0, "city": "Berlin", "planning-area-id": 2500833}}, {"type": "Feature", "geometry": {"type": "Point", "coordinates": [13.4230203, 52.5415706]}, "properties": {"id": "418653178", "name": "Girasol", "street": "Raumerstraße 30", "zip-code": 10437.0, "city": "", "planning-area-id": 3601348}}, {"type": "Feature", "geometry": {"type": "Point", "coordinates": [13.2998164, 52.5199967]}, "properties": {"id": "420511325", "name": "Brauhaus Lemke am Schloss", "street": "Luisenplatz 1", "zip-code": 10585.0, "city": "Berlin", "planning-area-id": 4300619}}, {"type": "Feature", "geometry": {"type": "Point", "coordinates": [13.2977576, 52.5263335]}, "properties": {"id": "420511889", "name": "Dante", "street": "Tegeler Weg 16", "zip-code": "", "city": "Berlin", "planning-area-id": 4300517}}, {"type": "Feature", "geometry": {"type": "Point", "coordinates": [13.2008364, 52.5117446]}, "properties": {"id": "422556709", "name": "Ristorante Fratelli", "street": "Alt-Pichelsdorf 6a", "zip-code": 13595.0, "city": "Berlin", "planning-area-id": 5200634}}, {"type": "Feature", "geometry": {"type": "Point", "coordinates": [13.3929966, 52.5275979]}, "properties": {"id": "423780249", "name": "Schwarzwaldstuben", "street": "Tucholskystraße 48", "zip-code": 10117.0, "city": "Berlin", "planning-area-id": 1100309}}, {"type": "Feature", "geometry": {"type": "Point", "coordinates": [13.3851298, 52.5500834]}, "properties": {"id": "426581081", "name": "La Femme", "street": "Badstraße 67", "zip-code": 13357.0, "city": "Berlin", "planning-area-id": 1300836}}, {"type": "Feature", "geometry": {"type": "Point", "coordinates": [13.3232543, 52.4604524]}, "properties": {"id": "426973259", "name": "Akiko Sushi", "street": "Ahornstraße 32", "zip-code": 12163.0, "city": "Berlin", "planning-area-id": 6100102}}, {"type": "Feature", "geometry": {"type": "Point", "coordinates": [13.4954972, 52.5122149]}, "properties": {"id": "427670043", "name": "Yoko Sushi", "street": "Frankfurter Allee 229", "zip-code": 10365.0, "city": "Berlin", "planning-area-id": 11300725}}, {"type": "Feature", "geometry": {"type": "Point", "coordinates": [13.3149563, 52.4467346]}, "properties": {"id": "428114282", "name": "Lakshmi", "street": "Hindenburgdamm 79", "zip-code": 12203.0, "city": "Berlin", "planning-area-id": 6300633}}, {"type": "Feature", "geometry": {"type": "Point", "coordinates": [13.3105132, 52.5018681]}, "properties": {"id": "428288168", "name": "BRLO Charlottenburg", "street": "Giesebrechtstraße 15", "zip-code": 10629.0, "city": "Berlin", "planning-area-id": 4501040}}, {"type": "Feature", "geometry": {"type": "Point", "coordinates": [13.4646065, 52.5157506]}, "properties": {"id": "428511315", "name": "MIO Feinkost", "street": "Samariterstraße 36", "zip-code": 10247.0, "city": "Berlin", "planning-area-id": 2500728}}, {"type": "Feature", "geometry": {"type": "Point", "coordinates": [13.6089419, 52.534622]}, "properties": {"id": "428999675", "name": "Yogi-Haus", "street": "Rathener Straße 10", "zip-code": 12627.0, "city": "Berlin", "planning-area-id": 10200524}}, {"type": "Feature", "geometry": {"type": "Point", "coordinates": [13.3953395, 52.5290596]}, "properties": {"id": "429740990", "name": "Bandol", "street": "", "zip-code": "", "city": "", "planning-area-id": 1100415}}, {"type": "Feature", "geometry": {"type": "Point", "coordinates": [13.4308377, 52.6128827]}, "properties": {"id": "429878216", "name": "Fu Duo", "street": "", "zip-code": "", "city": "", "planning-area-id": 3200310}}, {"type": "Feature", "geometry": {"type": "Point", "coordinates": [13.2794606, 52.5172176]}, "properties": {"id": "430181450", "name": "Lotus Lounge", "street": "Soorstraße 85", "zip-code": 14050.0, "city": "Berlin", "planning-area-id": 4200311}}, {"type": "Feature", "geometry": {"type": "Point", "coordinates": [13.3068303, 52.4994072]}, "properties": {"id": "430343269", "name": "Trattoria Bellucci", "street": "Brandenburgische Straße 35", "zip-code": 10707.0, "city": "Berlin", "planning-area-id": 4500938}}, {"type": "Feature", "geometry": {"type": "Point", "coordinates": [13.4584972, 52.5549089]}, "properties": {"id": "431128269", "name": "Parkstern", "street": "Parkstraße 31", "zip-code": 13086.0, "city": "Berlin", "planning-area-id": 3500933}}, {"type": "Feature", "geometry": {"type": "Point", "coordinates": [13.4889601, 52.6170996]}, "properties": {"id": "432469209", "name": "India Haus", "street": "", "zip-code": "", "city": "", "planning-area-id": 3300411}}, {"type": "Feature", "geometry": {"type": "Point", "coordinates": [13.1468189, 52.4512888]}, "properties": {"id": "432472652", "name": "Palais am See", "street": "Imchenallee 46", "zip-code": 14089.0, "city": "Berlin", "planning-area-id": 5400944}}, {"type": "Feature", "geometry": {"type": "Point", "coordinates": [13.1470106, 52.4516006]}, "properties": {"id": "432472653", "name": "Regent", "street": "", "zip-code": "", "city": "", "planning-area-id": 5400944}}, {"type": "Feature", "geometry": {"type": "Point", "coordinates": [13.2612613, 52.4888871]}, "properties": {"id": "432563362", "name": "Restaurant Scheune", "street": "Eichkampstraße 155", "zip-code": 14055.0, "city": "Berlin", "planning-area-id": 4400729}}, {"type": "Feature", "geometry": {"type": "Point", "coordinates": [13.2153011, 52.437868]}, "properties": {"id": "433876501", "name": "Gabana", "street": "Breisgauer Straße 12", "zip-code": 14129.0, "city": "Berlin", "planning-area-id": 6400737}}, {"type": "Feature", "geometry": {"type": "Point", "coordinates": [13.409291, 52.5190043]}, "properties": {"id": "437190321", "name": "Piazza Rossa", "street": "Rathausstraße 5", "zip-code": "", "city": "", "planning-area-id": 1100310}}, {"type": "Feature", "geometry": {"type": "Point", "coordinates": [13.4051631, 52.5205315]}, "properties": {"id": "437612731", "name": "BLOCK HOUSE", "street": "Karl-Liebknecht-Straße 7", "zip-code": 10178.0, "city": "Berlin", "planning-area-id": 1100310}}, {"type": "Feature", "geometry": {"type": "Point", "coordinates": [13.4062159, 52.5211493]}, "properties": {"id": "437613252", "name": "Kartoffelhaus", "street": "Karl-Liebknecht-Straße 9", "zip-code": 10178.0, "city": "Berlin", "planning-area-id": 1100310}}, {"type": "Feature", "geometry": {"type": "Point", "coordinates": [13.4059828, 52.5213454]}, "properties": {"id": "437614448", "name": "Schlögls Altberliner Gaststube", "street": "Karl-Liebknecht-Straße 9", "zip-code": 10178.0, "city": "Berlin", "planning-area-id": 1100310}}, {"type": "Feature", "geometry": {"type": "Point", "coordinates": [13.4289238, 52.5177152]}, "properties": {"id": "438098471", "name": "China-Restaurant Hua Ting", "street": "Strausberger Platz 13", "zip-code": 10243.0, "city": "Berlin", "planning-area-id": 2400623}}, {"type": "Feature", "geometry": {"type": "Point", "coordinates": [13.4295589, 52.5190513]}, "properties": {"id": "438098472", "name": "Trattoria Vesuvio", "street": "Strausberger Platz 8", "zip-code": 10243.0, "city": "Berlin", "planning-area-id": 2400521}}, {"type": "Feature", "geometry": {"type": "Point", "coordinates": [13.3008448, 52.5018008]}, "properties": {"id": "438174855", "name": "Trattoria Pane e Vino", "street": "", "zip-code": "", "city": "", "planning-area-id": 4500936}}, {"type": "Feature", "geometry": {"type": "Point", "coordinates": [13.3105291, 52.4788039]}, "properties": {"id": "438385047", "name": "Heidelbeere", "street": "Heidelberger Platz 1", "zip-code": 14197.0, "city": "Berlin", "planning-area-id": 4400834}}, {"type": "Feature", "geometry": {"type": "Point", "coordinates": [13.6250449, 52.4559737]}, "properties": {"id": "439234906", "name": "LAnnam", "street": "Bölschestraße 76", "zip-code": 12587.0, "city": "Berlin", "planning-area-id": 9501737}}, {"type": "Feature", "geometry": {"type": "Point", "coordinates": [13.2021169, 52.5381807]}, "properties": {"id": "441306011", "name": "Alt-Spandau", "street": "Moritzstraße 7", "zip-code": 13597.0, "city": "Berlin", "planning-area-id": 5100316}}, {"type": "Feature", "geometry": {"type": "Point", "coordinates": [13.4163784, 52.4625588]}, "properties": {"id": "442366636", "name": "Gepetto", "street": "", "zip-code": "", "city": "", "planning-area-id": 7400928}}, {"type": "Feature", "geometry": {"type": "Point", "coordinates": [13.3836821, 52.457185]}, "properties": {"id": "442390302", "name": "Amma", "street": "Tempelhofer Damm 214", "zip-code": 12099.0, "city": "Berlin", "planning-area-id": 7400825}}, {"type": "Feature", "geometry": {"type": "Point", "coordinates": [13.3835339, 52.4566994]}, "properties": {"id": "442390305", "name": "Taverna Ta Dio Aderfia", "street": "Tempelhofer Damm 218", "zip-code": 12099.0, "city": "Berlin", "planning-area-id": 7400825}}, {"type": "Feature", "geometry": {"type": "Point", "coordinates": [13.3845074, 52.454788]}, "properties": {"id": "442390881", "name": "Pomodori", "street": "Tempelhofer Damm 227", "zip-code": 12099.0, "city": "Berlin", "planning-area-id": 7400927}}, {"type": "Feature", "geometry": {"type": "Point", "coordinates": [13.384953, 52.4483231]}, "properties": {"id": "442392126", "name": "Becerro", "street": "", "zip-code": 12109.0, "city": "Berlin", "planning-area-id": 7501030}}, {"type": "Feature", "geometry": {"type": "Point", "coordinates": [13.40215, 52.4465056]}, "properties": {"id": "442395109", "name": "Restaurant Split", "street": "Rixdorfer Straße 89", "zip-code": 12109.0, "city": "Berlin", "planning-area-id": 7501032}}, {"type": "Feature", "geometry": {"type": "Point", "coordinates": [13.424598, 52.5328024]}, "properties": {"id": "442985383", "name": "Herr Rossi", "street": "Winsstraße 11", "zip-code": 10405.0, "city": "", "planning-area-id": 3701659}}, {"type": "Feature", "geometry": {"type": "Point", "coordinates": [13.4485127, 52.553178]}, "properties": {"id": "443254201", "name": "Restaurant Platon", "street": "Pistoriusstraße 31", "zip-code": 13086.0, "city": "Berlin", "planning-area-id": 3500933}}, {"type": "Feature", "geometry": {"type": "Point", "coordinates": [13.4424151, 52.4651626]}, "properties": {"id": "443294714", "name": "Balgaran 2", "street": "Karl-Marx-Straße 266", "zip-code": 12057.0, "city": "Berlin", "planning-area-id": 8100209}}, {"type": "Feature", "geometry": {"type": "Point", "coordinates": [13.3886757, 52.5197446]}, "properties": {"id": "443458065", "name": "Nonnas", "street": "", "zip-code": "", "city": "", "planning-area-id": 1100206}}, {"type": "Feature", "geometry": {"type": "Point", "coordinates": [13.3968219, 52.4887412]}, "properties": {"id": "443604357", "name": "Austria", "street": "Bergmannstraße 30", "zip-code": 10961.0, "city": "Berlin", "planning-area-id": 2200211}}, {"type": "Feature", "geometry": {"type": "Point", "coordinates": [13.2046599, 52.5365752]}, "properties": {"id": "443719580", "name": "La Bottega Da Franco", "street": "Breite Straße 56", "zip-code": 13597.0, "city": "Berlin", "planning-area-id": 5100316}}, {"type": "Feature", "geometry": {"type": "Point", "coordinates": [13.2918904, 52.4975767]}, "properties": {"id": "444580773", "name": "Rapallo Ristorante", "street": "Kurfürstendamm 111", "zip-code": 10711.0, "city": "Berlin", "planning-area-id": 4500937}}, {"type": "Feature", "geometry": {"type": "Point", "coordinates": [13.4666124, 52.518969]}, "properties": {"id": "444600059", "name": "Englers Unikat", "street": "Samariterstraße 17", "zip-code": 10247.0, "city": "Berlin", "planning-area-id": 2500728}}, {"type": "Feature", "geometry": {"type": "Point", "coordinates": [13.2994295, 52.4988369]}, "properties": {"id": "444722765", "name": "Piazza Brà", "street": "Kurfürstendamm 94-95", "zip-code": 10709.0, "city": "Berlin", "planning-area-id": 4500937}}, {"type": "Feature", "geometry": {"type": "Point", "coordinates": [13.4374342, 52.4566984]}, "properties": {"id": "445821369", "name": "El Toro", "street": "", "zip-code": 12347.0, "city": "Berlin", "planning-area-id": 8200623}}, {"type": "Feature", "geometry": {"type": "Point", "coordinates": [13.4373731, 52.4562254]}, "properties": {"id": "445821372", "name": "Avala-Grill", "street": "", "zip-code": 12347.0, "city": "Berlin", "planning-area-id": 8200623}}, {"type": "Feature", "geometry": {"type": "Point", "coordinates": [13.4456038, 52.4612374]}, "properties": {"id": "445821400", "name": "Mona Mia", "street": "Buschkrugallee 32", "zip-code": 12359.0, "city": "Berlin", "planning-area-id": 8200622}}, {"type": "Feature", "geometry": {"type": "Point", "coordinates": [13.4341134, 52.4640182]}, "properties": {"id": "446907423", "name": "Zerhosh", "street": "Glasower Straße 38", "zip-code": 12051.0, "city": "Berlin", "planning-area-id": 8100209}}, {"type": "Feature", "geometry": {"type": "Point", "coordinates": [13.1943253, 52.5255102]}, "properties": {"id": "448081428", "name": "Cafe Bricks", "street": "Wilhelmstraße 152", "zip-code": 13595.0, "city": "Berlin", "planning-area-id": 5200630}}, {"type": "Feature", "geometry": {"type": "Point", "coordinates": [13.4410055, 52.5010695]}, "properties": {"id": "448603850", "name": "Mikoto", "street": "Skalitzer Straße 73", "zip-code": 10997.0, "city": "", "planning-area-id": 2300316}},