{"type": "FeatureCollection", "features": [{"type": "Feature", "geometry": {"type": "Point", "coordinates": [13.3117903, 52.5846088]}, "properties": {"id": "277958275", "name": "Kieser Training", "street": "Holzhauser Straße 140d", "zip-code": 13509.0, "city": "Berlin", "planning-area-id": 12500825}}, {"type": "Feature", "geometry": {"type": "Point", "coordinates": [13.4425034, 52.5467638]}, "properties": {"id": "277958277", "name": "Kieser Training", "street": "Ostseestraße 107", "zip-code": 10409.0, "city": "Berlin", "planning-area-id": 3601245}}, {"type": "Feature", "geometry": {"type": "Point", "coordinates": [13.3051873, 52.4799991]}, "properties": {"id": "277958288", "name": "Kieser Training", "street": "Forckenbeckstraße 9-13", "zip-code": 14199.0, "city": "Berlin", "planning-area-id": 4400830}}, {"type": "Feature", "geometry": {"type": "Point", "coordinates": [13.3296947, 52.4429012]}, "properties": {"id": "277958289", "name": "Kieser Training", "street": "Teltowkanalstraße 2", "zip-code": 12247.0, "city": "Berlin", "planning-area-id": 6200312}}, {"type": "Feature", "geometry": {"type": "Point", "coordinates": [13.4691087, 52.43395]}, "properties": {"id": "277958291", "name": "Kieser Training", "street": "Rudower Straße 132", "zip-code": 12351.0, "city": "Berlin", "planning-area-id": 8401139}}, {"type": "Feature", "geometry": {"type": "Point", "coordinates": [13.4746956, 52.5361874]}, "properties": {"id": "617268225", "name": "McFit", "street": "Konrad-Wolf-Straße 56-60", "zip-code": 13055.0, "city": "Berlin", "planning-area-id": 11200514}}, {"type": "Feature", "geometry": {"type": "Point", "coordinates": [13.333241, 52.5267655]}, "properties": {"id": "645677448", "name": "Fitbox", "street": "Turmstraße 74", "zip-code": 10551.0, "city": "Berlin", "planning-area-id": 1200521}}, {"type": "Feature", "geometry": {"type": "Point", "coordinates": [13.3080794, 52.5021593]}, "properties": {"id": "673611600", "name": "Viva Studio", "street": "Wilmersdorfer Straße 98", "zip-code": 10629.0, "city": "Berlin", "planning-area-id": 4501040}}, {"type": "Feature", "geometry": {"type": "Point", "coordinates": [13.2943126, 52.5005987]}, "properties": {"id": "810590618", "name": "Aspria", "street": "", "zip-code": "", "city": "", "planning-area-id": 4500937}}, {"type": "Feature", "geometry": {"type": "Point", "coordinates": [13.3269685, 52.4644342]}, "properties": {"id": "812219708", "name": "Superfit", "street": "Schloßstraße 1", "zip-code": 12163.0, "city": "Berlin", "planning-area-id": 6100103}}, {"type": "Feature", "geometry": {"type": "Point", "coordinates": [13.3283776, 52.4866239]}, "properties": {"id": "823473534", "name": "McFit", "street": "Berliner Straße 148", "zip-code": 10715.0, "city": "Berlin", "planning-area-id": 4501150}}, {"type": "Feature", "geometry": {"type": "Point", "coordinates": [13.3277034, 52.4648869]}, "properties": {"id": "833174269", "name": "Elbgym", "street": "Walther-Schreiber-Platz 1", "zip-code": 12161.0, "city": "Berlin", "planning-area-id": 7300516}}, {"type": "Feature", "geometry": {"type": "Point", "coordinates": [13.3908216, 52.5123998]}, "properties": {"id": "879311582", "name": "Holmes Place", "street": "Mohrenstraße 50", "zip-code": 10117.0, "city": "Berlin", "planning-area-id": 1100206}}, {"type": "Feature", "geometry": {"type": "Point", "coordinates": [13.3082059, 52.5258921]}, "properties": {"id": "891052374", "name": "Tayfun Personal Trainer", "street": "Kaiserin-Augusta-Allee 45", "zip-code": 10589.0, "city": "Berlin", "planning-area-id": 4300518}}, {"type": "Feature", "geometry": {"type": "Point", "coordinates": [13.4988651, 52.5218057]}, "properties": {"id": "901662461", "name": "McFit", "street": "Siegfriedstraße 177", "zip-code": 10365.0, "city": "Berlin", "planning-area-id": 11300721}}, {"type": "Feature", "geometry": {"type": "Point", "coordinates": [13.3373165, 52.5045718]}, "properties": {"id": "925525521", "name": "SuperFit", "street": "", "zip-code": "", "city": "", "planning-area-id": 4501042}}, {"type": "Feature", "geometry": {"type": "Point", "coordinates": [13.3250803, 52.4609717]}, "properties": {"id": "928931970", "name": "Fitness First", "street": "Schloßstraße 110", "zip-code": 12163.0, "city": "Berlin", "planning-area-id": 6100103}}, {"type": "Feature", "geometry": {"type": "Point", "coordinates": [13.4488022, 52.5110587]}, "properties": {"id": "932651529", "name": "SunYoga", "street": "Torellstraße 7", "zip-code": 10243.0, "city": "Berlin", "planning-area-id": 2400624}}, {"type": "Feature", "geometry": {"type": "Point", "coordinates": [13.4142438, 52.4927563]}, "properties": {"id": "958096426", "name": "Yoga im Graefekiez", "street": "Grimmstraße 19", "zip-code": 10967.0, "city": "Berlin", "planning-area-id": 2200213}}, {"type": "Feature", "geometry": {"type": "Point", "coordinates": [13.3270583, 52.4645372]}, "properties": {"id": "970070951", "name": "Superfit Woman", "street": "Schloßstraße 1", "zip-code": 12163.0, "city": "Berlin", "planning-area-id": 6100103}}, {"type": "Feature", "geometry": {"type": "Point", "coordinates": [13.2638613, 52.4374123]}, "properties": {"id": "1056915608", "name": "Fitness First", "street": "Clayallee 328-334", "zip-code": 14169.0, "city": "Berlin", "planning-area-id": 6400841}}, {"type": "Feature", "geometry": {"type": "Point", "coordinates": [13.2641914, 52.4378498]}, "properties": {"id": "1056915620", "name": "Fitness First", "street": "Clayallee 328-334", "zip-code": 14169.0, "city": "Berlin", "planning-area-id": 6400841}}, {"type": "Feature", "geometry": {"type": "Point", "coordinates": [13.4548892, 52.5100356]}, "properties": {"id": "1094853553", "name": "Beat 81", "street": "Libauer Straße 1", "zip-code": 10245.0, "city": "Berlin", "planning-area-id": 2500834}}, {"type": "Feature", "geometry": {"type": "Point", "coordinates": [13.2611651, 52.4296407]}, "properties": {"id": "1112755252", "name": "Mrs. Sporty", "street": "Mühlenstraße 4", "zip-code": 14167.0, "city": "Berlin", "planning-area-id": 6300526}}, {"type": "Feature", "geometry": {"type": "Point", "coordinates": [13.4147198, 52.5496432]}, "properties": {"id": "1120057604", "name": "Fitness First", "street": "Schönhauser Allee 80", "zip-code": 10439.0, "city": "Berlin", "planning-area-id": 3601243}}, {"type": "Feature", "geometry": {"type": "Point", "coordinates": [13.425576, 52.5293516]}, "properties": {"id": "1218312075", "name": "Yoga Hub Berlin", "street": "Greifswalder Straße 8d", "zip-code": 10405.0, "city": "Berlin", "planning-area-id": 3701660}}, {"type": "Feature", "geometry": {"type": "Point", "coordinates": [13.4409043, 52.5129482]}, "properties": {"id": "1270475988", "name": "Fitness Company Berlin", "street": "Rüdersdorfer Straße 71", "zip-code": 10243.0, "city": "Berlin", "planning-area-id": 2400625}}, {"type": "Feature", "geometry": {"type": "Point", "coordinates": [13.3262582, 52.5072487]}, "properties": {"id": "1279265631", "name": "Fitness and More", "street": "", "zip-code": "", "city": "", "planning-area-id": 4300622}}, {"type": "Feature", "geometry": {"type": "Point", "coordinates": [13.3310663, 52.470673]}, "properties": {"id": "1333143675", "name": "Sivananda Yoga", "street": "Schmiljanstraße 24", "zip-code": 12161.0, "city": "Berlin", "planning-area-id": 7300517}}, {"type": "Feature", "geometry": {"type": "Point", "coordinates": [13.2058468, 52.5371165]}, "properties": {"id": "1336704497", "name": "Gymfit", "street": "", "zip-code": "", "city": "", "planning-area-id": 5100316}}, {"type": "Feature", "geometry": {"type": "Point", "coordinates": [13.2895103, 52.4772069]}, "properties": {"id": "1387894027", "name": "Mrs. Sporty", "street": "", "zip-code": "", "city": "", "planning-area-id": 4400830}}, {"type": "Feature", "geometry": {"type": "Point", "coordinates": [13.4278041, 52.531302]}, "properties": {"id": "1389043773", "name": "B23 Space", "street": "Greifswalder Straße 23", "zip-code": 10405.0, "city": "Berlin", "planning-area-id": 3701660}}, {"type": "Feature", "geometry": {"type": "Point", "coordinates": [13.3059323, 52.5083534]}, "properties": {"id": "1438454178", "name": "Superfit", "street": "Wilmersdorfer Straße 54", "zip-code": 10627.0, "city": "Berlin", "planning-area-id": 4300623}}, {"type": "Feature", "geometry": {"type": "Point", "coordinates": [13.4160003, 52.5186131]}, "properties": {"id": "1438455119", "name": "SuperFit", "street": "Grunerstraße 20", "zip-code": 10179.0, "city": "Berlin", "planning-area-id": 1100311}}, {"type": "Feature", "geometry": {"type": "Point", "coordinates": [13.3604139, 52.5537674]}, "properties": {"id": "1457608587", "name": "McFit", "street": "Seestraße 64", "zip-code": 13347.0, "city": "Berlin", "planning-area-id": 1401048}}, {"type": "Feature", "geometry": {"type": "Point", "coordinates": [13.3886695, 52.4934118]}, "properties": {"id": "1470020226", "name": "SunYoga", "street": "Mehringdamm 33", "zip-code": 10961.0, "city": "Berlin", "planning-area-id": 2200210}}, {"type": "Feature", "geometry": {"type": "Point", "coordinates": [13.4079903, 52.5489078]}, "properties": {"id": "1471968739", "name": "", "street": "", "zip-code": "", "city": "", "planning-area-id": 3601142}}, {"type": "Feature", "geometry": {"type": "Point", "coordinates": [13.4379849, 52.4223527]}, "properties": {"id": "1577855726", "name": "M&M Fitness-Center", "street": "", "zip-code": "", "city": "", "planning-area-id": 8200833}}, {"type": "Feature", "geometry": {"type": "Point", "coordinates": [13.6123631, 52.5052223]}, "properties": {"id": "1583959145", "name": "McFit", "street": "Alt-Mahlsdorf 24", "zip-code": 12623.0, "city": "Berlin", "planning-area-id": 10400939}}, {"type": "Feature", "geometry": {"type": "Point", "coordinates": [13.4215361, 52.5391543]}, "properties": {"id": "1584743772", "name": "Hadi Zalzadeh", "street": "Kollwitzstraße 102", "zip-code": 10435.0, "city": "Berlin", "planning-area-id": 3701555}}, {"type": "Feature", "geometry": {"type": "Point", "coordinates": [13.354639, 52.5492489]}, "properties": {"id": "1715298789", "name": "Fit T9 Frauenfitness", "street": "Müllerstraße 36", "zip-code": 13353.0, "city": "Berlin", "planning-area-id": 1401048}}, {"type": "Feature", "geometry": {"type": "Point", "coordinates": [13.3294195, 52.4764214]}, "properties": {"id": "1718478056", "name": "myoga", "street": "Sieglindestraße 7", "zip-code": 12159.0, "city": "Berlin", "planning-area-id": 7300517}}, {"type": "Feature", "geometry": {"type": "Point", "coordinates": [13.3755423, 52.4306176]}, "properties": {"id": "1762116722", "name": "McFit", "street": "", "zip-code": "", "city": "", "planning-area-id": 7501133}}, {"type": "Feature", "geometry": {"type": "Point", "coordinates": [13.3504955, 52.4974065]}, "properties": {"id": "1870398737", "name": "Rent-A-Trainer-Berlin Gym", "street": "Nollendorfstraße 23", "zip-code": 10777.0, "city": "Berlin", "planning-area-id": 7100102}}, {"type": "Feature", "geometry": {"type": "Point", "coordinates": [13.3192394, 52.4979231]}, "properties": {"id": "1915070108", "name": "Urban Boost", "street": "Pariser Straße 43", "zip-code": 10707.0, "city": "Berlin", "planning-area-id": 4501044}}, {"type": "Feature", "geometry": {"type": "Point", "coordinates": [13.286039, 52.477839]}, "properties": {"id": "1918474939", "name": "Zentrum für Yoga & Qigong", "street": "", "zip-code": "", "city": "", "planning-area-id": 4400830}}, {"type": "Feature", "geometry": {"type": "Point", "coordinates": [13.419858, 52.6069668]}, "properties": {"id": "1970628072", "name": "Mrs. Sporty", "street": "Hugenottenplatz 3", "zip-code": 13127.0, "city": "Berlin", "planning-area-id": 3200310}}, {"type": "Feature", "geometry": {"type": "Point", "coordinates": [13.5469767, 52.4376876]}, "properties": {"id": "1981014509", "name": "Impuls EMS-Studio", "street": "Genossenschaftsstraße 69", "zip-code": 12489.0, "city": "Berlin", "planning-area-id": 9200716}}, {"type": "Feature", "geometry": {"type": "Point", "coordinates": [13.3071048, 52.5063071]}, "properties": {"id": "2082268403", "name": "Fitness First", "street": "", "zip-code": "", "city": "", "planning-area-id": 4300623}}, {"type": "Feature", "geometry": {"type": "Point", "coordinates": [13.3211747, 52.5115671]}, "properties": {"id": "2116638898", "name": "Kieser Training", "street": "", "zip-code": "", "city": "", "planning-area-id": 4300622}}, {"type": "Feature", "geometry": {"type": "Point", "coordinates": [13.3743607, 52.4696804]}, "properties": {"id": "2149937826", "name": "McFit", "street": "Schöneberger Straße 12-15", "zip-code": 12103.0, "city": "Berlin", "planning-area-id": 7400823}}, {"type": "Feature", "geometry": {"type": "Point", "coordinates": [13.3049113, 52.5119376]}, "properties": {"id": "2187588493", "name": "Holmes Place", "street": "Wilmersdorfer Straße 38", "zip-code": 10585.0, "city": "Berlin", "planning-area-id": 4300621}}, {"type": "Feature", "geometry": {"type": "Point", "coordinates": [13.34569, 52.5248857]}, "properties": {"id": "2306175948", "name": "McFit", "street": "Alt-Moabit 96D", "zip-code": 10559.0, "city": "Berlin", "planning-area-id": 1200626}}, {"type": "Feature", "geometry": {"type": "Point", "coordinates": [13.4983345, 52.4639256]}, "properties": {"id": "2427830701", "name": "McFit", "street": "", "zip-code": "", "city": "", "planning-area-id": 9200613}}, {"type": "Feature", "geometry": {"type": "Point", "coordinates": [13.4201449, 52.4953419]}, "properties": {"id": "2445179072", "name": "JOHN REED Fitness", "street": "Kottbusser Damm 1", "zip-code": 10967.0, "city": "Berlin", "planning-area-id": 2200213}}, {"type": "Feature", "geometry": {"type": "Point", "coordinates": [13.525466, 52.4830416]}, "properties": {"id": "2445856559", "name": "EMSLounge", "street": "", "zip-code": "", "city": "", "planning-area-id": 11501339}}, {"type": "Feature", "geometry": {"type": "Point", "coordinates": [13.2757823, 52.5360507]}, "properties": {"id": "2449154365", "name": "Sport & Therapiezentrum", "street": "", "zip-code": "", "city": "", "planning-area-id": 5300841}}, {"type": "Feature", "geometry": {"type": "Point", "coordinates": [13.4242905, 52.4774666]}, "properties": {"id": "2477046562", "name": "Tagtigall", "street": "Herrfurthstraße 6a", "zip-code": 12049.0, "city": "Berlin", "planning-area-id": 8100102}}, {"type": "Feature", "geometry": {"type": "Point", "coordinates": [13.4094238, 52.5471967]}, "properties": {"id": "2489837401", "name": "Mindful Life Berlin", "street": "Gleimstraße 19", "zip-code": 10437.0, "city": "Berlin", "planning-area-id": 3601142}}, {"type": "Feature", "geometry": {"type": "Point", "coordinates": [13.3552267, 52.596692]}, "properties": {"id": "2690994059", "name": "Crunchfit", "street": "Wilhelmsruher Damm 128", "zip-code": 13439.0, "city": "Berlin", "planning-area-id": 12601235}}, {"type": "Feature", "geometry": {"type": "Point", "coordinates": [13.4095226, 52.528312]}, "properties": {"id": "2764574468", "name": "Rocycle Berlin Mitte", "street": "Linienstraße 41", "zip-code": 10119.0, "city": "Berlin", "planning-area-id": 1100310}}, {"type": "Feature", "geometry": {"type": "Point", "coordinates": [13.4029448, 52.5246455]}, "properties": {"id": "2796742915", "name": "Peloton", "street": "Rosenthaler Straße 34-35", "zip-code": 10178.0, "city": "Berlin", "planning-area-id": 1100309}}, {"type": "Feature", "geometry": {"type": "Point", "coordinates": [13.4290189, 52.4550011]}, "properties": {"id": "2821190540", "name": "Venice Sporting Club", "street": "Tempelhofer Weg 44", "zip-code": 12347.0, "city": "Berlin", "planning-area-id": 8200624}}, {"type": "Feature", "geometry": {"type": "Point", "coordinates": [13.6244217, 52.4569686]}, "properties": {"id": "2840752454", "name": "Localfit", "street": "Fürstenwalder Damm 479", "zip-code": 12587.0, "city": "Berlin", "planning-area-id": 9501736}}, {"type": "Feature", "geometry": {"type": "Point", "coordinates": [13.4135056, 52.5509763]}, "properties": {"id": "2850021274", "name": "John Reed Womens Club", "street": "Schönhauser Allee 112", "zip-code": 10439.0, "city": "Berlin", "planning-area-id": 3601141}}, {"type": "Feature", "geometry": {"type": "Point", "coordinates": [13.2271875, 52.537428]}, "properties": {"id": "2851949842", "name": "McFit", "street": "Am Juliusturm 19", "zip-code": 13599.0, "city": "Berlin", "planning-area-id": 5300736}}, {"type": "Feature", "geometry": {"type": "Point", "coordinates": [13.3235204, 52.6072123]}, "properties": {"id": "2851949843", "name": "McFit", "street": "Oraniendamm 64", "zip-code": 13469.0, "city": "Berlin", "planning-area-id": 12601032}}, {"type": "Feature", "geometry": {"type": "Point", "coordinates": [13.1972779, 52.5164644]}, "properties": {"id": "2901372702", "name": "VIP’n’Fit", "street": "Pichelsdorfer Straße 31", "zip-code": 13595.0, "city": "Berlin", "planning-area-id": 5200630}}, {"type": "Feature", "geometry": {"type": "Point", "coordinates": [13.3990861, 52.5349746]}, "properties": {"id": "2935486803", "name": "Körperformen", "street": "Anklamer Straße 17", "zip-code": 10115.0, "city": "Berlin", "planning-area-id": 1100416}}, {"type": "Feature", "geometry": {"type": "Point", "coordinates": [13.4200588, 52.6059139]}, "properties": {"id": "2960514356", "name": "Clever fit", "street": "Rosenthaler Weg 24B", "zip-code": 13127.0, "city": "Berlin", "planning-area-id": 3200308}}, {"type": "Feature", "geometry": {"type": "Point", "coordinates": [13.3388804, 52.5037293]}, "properties": {"id": "2985821756", "name": "McFit", "street": "Tauentzienstraße 8", "zip-code": 10789.0, "city": "Berlin", "planning-area-id": 4501042}}, {"type": "Feature", "geometry": {"type": "Point", "coordinates": [13.4555779, 52.5075111]}, "properties": {"id": "2995644691", "name": "Berlin Strength", "street": "Revaler Straße 99", "zip-code": 10245.0, "city": "Berlin", "planning-area-id": 2500834}}, {"type": "Feature", "geometry": {"type": "Point", "coordinates": [13.6026916, 52.536285]}, "properties": {"id": "3021116630", "name": "FitX", "street": "Hellersdorfer Straße 235", "zip-code": 12627.0, "city": "Berlin", "planning-area-id": 10200421}}, {"type": "Feature", "geometry": {"type": "Point", "coordinates": [13.3347483, 52.5306508]}, "properties": {"id": "3045401463", "name": "Pole Sport Studio Berlin", "street": "Wiclefstraße 18", "zip-code": 10551.0, "city": "Berlin", "planning-area-id": 1200519}}, {"type": "Feature", "geometry": {"type": "Point", "coordinates": [13.3805488, 52.5277244]}, "properties": {"id": "3140164400", "name": "Kieser Training", "street": "Hannoversche Straße 19", "zip-code": 10115.0, "city": "Berlin", "planning-area-id": 1100308}}, {"type": "Feature", "geometry": {"type": "Point", "coordinates": [13.2701269, 52.4519462]}, "properties": {"id": "3176577534", "name": "Clays", "street": "Clayallee 171", "zip-code": 14195.0, "city": "Berlin", "planning-area-id": 6400842}}, {"type": "Feature", "geometry": {"type": "Point", "coordinates": [13.5491064, 52.4309414]}, "properties": {"id": "3266506461", "name": "McFit", "street": "Adlergestell 299", "zip-code": 12489.0, "city": "Berlin", "planning-area-id": 9200716}}, {"type": "Feature", "geometry": {"type": "Point", "coordinates": [13.4329149, 52.4821233]}, "properties": {"id": "3267299482", "name": "Superfit", "street": "Karl-Marx-Straße 64-72", "zip-code": 12043.0, "city": "Berlin", "planning-area-id": 8100206}}, {"type": "Feature", "geometry": {"type": "Point", "coordinates": [13.3848984, 52.4524755]}, "properties": {"id": "3317540786", "name": "Clever fit", "street": "", "zip-code": "", "city": "", "planning-area-id": 7501031}}, {"type": "Feature", "geometry": {"type": "Point", "coordinates": [13.3028762, 52.4984906]}, "properties": {"id": "3385637223", "name": "FitX", "street": "Kurfürstendamm 156", "zip-code": 10709.0, "city": "Berlin", "planning-area-id": 4500938}}, {"type": "Feature", "geometry": {"type": "Point", "coordinates": [13.4421641, 52.5433678]}, "properties": {"id": "3411940909", "name": "Clever fit", "street": "Greifswalder Straße 90", "zip-code": 10409.0, "city": "Berlin", "planning-area-id": 3601449}}, {"type": "Feature", "geometry": {"type": "Point", "coordinates": [13.4262968, 52.5201114]}, "properties": {"id": "3432289622", "name": "Sportcafé Mitte", "street": "", "zip-code": "", "city": "", "planning-area-id": 1100311}}, {"type": "Feature", "geometry": {"type": "Point", "coordinates": [13.365517, 52.481665]}, "properties": {"id": "3453943122", "name": "CrossFit Icke", "street": "Wilhelm-Kabus-Straße 40", "zip-code": 10829.0, "city": "Berlin", "planning-area-id": 7200413}}, {"type": "Feature", "geometry": {"type": "Point", "coordinates": [13.4083022, 52.5529857]}, "properties": {"id": "3464981113", "name": "Yoga am Arnimplatz", "street": "Schönfließer Straße 11", "zip-code": 10439.0, "city": "Berlin", "planning-area-id": 3601141}}, {"type": "Feature", "geometry": {"type": "Point", "coordinates": [13.4207441, 52.5018092]}, "properties": {"id": "3475027209", "name": "EFX Sport-Gruppe - Fitness", "street": "", "zip-code": "", "city": "", "planning-area-id": 2300314}}, {"type": "Feature", "geometry": {"type": "Point", "coordinates": [13.5763726, 52.4582572]}, "properties": {"id": "3566958751", "name": "Kieser Training", "street": "Bahnhofstraße 33-38", "zip-code": 12555.0, "city": "Berlin", "planning-area-id": 9501939}}, {"type": "Feature", "geometry": {"type": "Point", "coordinates": [13.4066615, 52.5698026]}, "properties": {"id": "3658141193", "name": "Fitness First", "street": "", "zip-code": "", "city": "", "planning-area-id": 3400723}}, {"type": "Feature", "geometry": {"type": "Point", "coordinates": [13.3299541, 52.429498]}, "properties": {"id": "3670161823", "name": "Elixia", "street": "", "zip-code": "", "city": "", "planning-area-id": 6200422}}, {"type": "Feature", "geometry": {"type": "Point", "coordinates": [13.330782, 52.5013707]}, "properties": {"id": "3782374475", "name": "Clever fit", "street": "Joachimsthaler Straße 19", "zip-code": 10719.0, "city": "", "planning-area-id": 4501042}}, {"type": "Feature", "geometry": {"type": "Point", "coordinates": [13.3511448, 52.4985987]}, "properties": {"id": "3826014915", "name": "Stromtown. The modern art of fitness", "street": "Motzstraße 9", "zip-code": 10777.0, "city": "Berlin", "planning-area-id": 7100102}}, {"type": "Feature", "geometry": {"type": "Point", "coordinates": [13.3252442, 52.4622743]}, "properties": {"id": "3841253417", "name": "Holmes Place", "street": "Schildhornstraße 1", "zip-code": 12163.0, "city": "Berlin", "planning-area-id": 6100103}}, {"type": "Feature", "geometry": {"type": "Point", "coordinates": [13.3453454, 52.485107]}, "properties": {"id": "3853848970", "name": "fitbox", "street": "Martin-Luther-Straße 103", "zip-code": 10825.0, "city": "Berlin", "planning-area-id": 7200409}}, {"type": "Feature", "geometry": {"type": "Point", "coordinates": [13.5157065, 52.5054239]}, "properties": {"id": "3862712290", "name": "Mrs. Sporty", "street": "", "zip-code": "", "city": "", "planning-area-id": 11401137}}, {"type": "Feature", "geometry": {"type": "Point", "coordinates": [13.5372478, 52.5324374]}, "properties": {"id": "3874310962", "name": "McFit", "street": "Märkische Allee 160a", "zip-code": 12681.0, "city": "Berlin", "planning-area-id": 10100312}}, {"type": "Feature", "geometry": {"type": "Point", "coordinates": [13.5486137, 52.5438059]}, "properties": {"id": "3957099326", "name": "Kieser Training", "street": "", "zip-code": "", "city": "", "planning-area-id": 10100210}}, {"type": "Feature", "geometry": {"type": "Point", "coordinates": [13.3236082, 52.5088747]}, "properties": {"id": "4077227106", "name": "Spirit Joga", "street": "Goethestraße 2-3", "zip-code": 10623.0, "city": "Berlin", "planning-area-id": 4300624}}, {"type": "Feature", "geometry": {"type": "Point", "coordinates": [13.5789766, 52.4578111]}, "properties": {"id": "4128610787", "name": "Superfit", "street": "Bahnhofstraße 23-25", "zip-code": 12555.0, "city": "Berlin", "planning-area-id": 9501939}}, {"type": "Feature", "geometry": {"type": "Point", "coordinates": [13.4737156, 52.5142755]}, "properties": {"id": "4128610788", "name": "Superfit", "street": "Frankfurter Allee 111", "zip-code": 10247.0, "city": "Berlin", "planning-area-id": 2500729}}, {"type": "Feature", "geometry": {"type": "Point", "coordinates": [13.6026618, 52.5364805]}, "properties": {"id": "4235017790", "name": "Fit T9", "street": "Janusz-Korczak-Straße 4-8", "zip-code": 12627.0, "city": "", "planning-area-id": 10200421}}, {"type": "Feature", "geometry": {"type": "Point", "coordinates": [13.3870103, 52.52648]}, "properties": {"id": "4253980789", "name": "Crossfit Grenzgänger", "street": "", "zip-code": "", "city": "", "planning-area-id": 1100308}}, {"type": "Feature", "geometry": {"type": "Point", "coordinates": [13.3672762, 52.5308414]}, "properties": {"id": "4253995591", "name": "Crossfit Mitte", "street": "Heidestraße 48", "zip-code": 10557.0, "city": "Berlin", "planning-area-id": 1200624}}, {"type": "Feature", "geometry": {"type": "Point", "coordinates": [13.3802487, 52.5323394]}, "properties": {"id": "4254495166", "name": "Hauptstadt Crossfit", "street": "", "zip-code": "", "city": "", "planning-area-id": 1100308}}, {"type": "Feature", "geometry": {"type": "Point", "coordinates": [13.3872264, 52.4888821]}, "properties": {"id": "4254944691", "name": "Crossfit gute Hoffnungshütte", "street": "", "zip-code": "", "city": "", "planning-area-id": 2200211}}, {"type": "Feature", "geometry": {"type": "Point", "coordinates": [13.575983, 52.454105]}, "properties": {"id": "4304263292", "name": "Figurenzentrum Köpenick", "street": "", "zip-code": "", "city": "", "planning-area-id": 9501939}}, {"type": "Feature", "geometry": {"type": "Point", "coordinates": [13.5911324, 52.5452832]}, "properties": {"id": "4308049689", "name": "CITI-Frauen-Fitness", "street": "Alte Hellersdorfer Straße 119", "zip-code": 12629.0, "city": "", "planning-area-id": 10200417}}, {"type": "Feature", "geometry": {"type": "Point", "coordinates": [13.2010323, 52.5433244]}, "properties": {"id": "4316237225", "name": "ladys spandau", "street": "Bismarckstraße 17", "zip-code": 13585.0, "city": "Berlin", "planning-area-id": 5100315}}, {"type": "Feature", "geometry": {"type": "Point", "coordinates": [13.4460907, 52.5163412]}, "properties": {"id": "4320893092", "name": "Bodystreet", "street": "Karl-Marx-Allee 110", "zip-code": 10243.0, "city": "", "planning-area-id": 2400624}}, {"type": "Feature", "geometry": {"type": "Point", "coordinates": [13.415554, 52.5177528]}, "properties": {"id": "4333951890", "name": "Beat81", "street": "Dircksenstraße 90", "zip-code": 10178.0, "city": "Berlin", "planning-area-id": 1100310}}, {"type": "Feature", "geometry": {"type": "Point", "coordinates": [13.4161276, 52.5230415]}, "properties": {"id": "4420021957", "name": "FitX", "street": "Alexanderstraße 7", "zip-code": 10178.0, "city": "Berlin", "planning-area-id": 1100310}}, {"type": "Feature", "geometry": {"type": "Point", "coordinates": [13.3172363, 52.48997]}, "properties": {"id": "4437696196", "name": "7 circles", "street": "Sächsische Straße 39", "zip-code": "", "city": "", "planning-area-id": 4501147}}, {"type": "Feature", "geometry": {"type": "Point", "coordinates": [13.3424696, 52.4467195]}, "properties": {"id": "4446537033", "name": "Sporteve", "street": "", "zip-code": "", "city": "", "planning-area-id": 6100206}}, {"type": "Feature", "geometry": {"type": "Point", "coordinates": [13.3157383, 52.4537146]}, "properties": {"id": "4459534982", "name": "Kreuzretter", "street": "Schloßstraße 54", "zip-code": 12165.0, "city": "Berlin", "planning-area-id": 6100101}}, {"type": "Feature", "geometry": {"type": "Point", "coordinates": [13.3256887, 52.6051549]}, "properties": {"id": "4474870489", "name": "Therapiezentrum Waidmannslust", "street": "Oranienburger Straße 141", "zip-code": 13437.0, "city": "", "planning-area-id": 12601031}}, {"type": "Feature", "geometry": {"type": "Point", "coordinates": [13.3954862, 52.5139697]}, "properties": {"id": "4514846830", "name": "Fitness First", "street": "Jägerstraße 27", "zip-code": 10117.0, "city": "Berlin", "planning-area-id": 1100206}}, {"type": "Feature", "geometry": {"type": "Point", "coordinates": [13.3954966, 52.5322556]}, "properties": {"id": "4539202778", "name": "Fitbox", "street": "Invalidenstraße 152", "zip-code": "", "city": "", "planning-area-id": 1100415}}, {"type": "Feature", "geometry": {"type": "Point", "coordinates": [13.2912082, 52.5825276]}, "properties": {"id": "4555677789", "name": "Fit in Tegel", "street": "Ernststraße 2", "zip-code": 13509.0, "city": "", "planning-area-id": 12200412}}, {"type": "Feature", "geometry": {"type": "Point", "coordinates": [13.3286889, 52.4274451]}, "properties": {"id": "4572112192", "name": "Freiraum", "street": "", "zip-code": "", "city": "", "planning-area-id": 6200422}}, {"type": "Feature", "geometry": {"type": "Point", "coordinates": [13.3917379, 52.5079287]}, "properties": {"id": "4604863055", "name": "Bodystreet", "street": "", "zip-code": "", "city": "", "planning-area-id": 1100207}}, {"type": "Feature", "geometry": {"type": "Point", "coordinates": [13.4594528, 52.5123551]}, "properties": {"id": "4611801889", "name": "Yogibar", "street": "Boxhagener Straße 31", "zip-code": 10245.0, "city": "Berlin", "planning-area-id": 2500833}}, {"type": "Feature", "geometry": {"type": "Point", "coordinates": [13.398546, 52.5345204]}, "properties": {"id": "4614154589", "name": "Jivamukti Yoga Berlin", "street": "Brunnenstraße 29", "zip-code": 10119.0, "city": "Berlin", "planning-area-id": 1100416}}, {"type": "Feature", "geometry": {"type": "Point", "coordinates": [13.4637843, 52.4993986]}, "properties": {"id": "4672876466", "name": "EagleCoach", "street": "Corinthstraße 51", "zip-code": 10245.0, "city": "Berlin", "planning-area-id": 2500835}}, {"type": "Feature", "geometry": {"type": "Point", "coordinates": [13.4352226, 52.4846716]}, "properties": {"id": "4673478561", "name": "Studio Sonne", "street": "Sonnenallee 67", "zip-code": 12045.0, "city": "Berlin", "planning-area-id": 8100312}}, {"type": "Feature", "geometry": {"type": "Point", "coordinates": [13.5468105, 52.4373459]}, "properties": {"id": "4797313796", "name": "Clever fit", "street": "", "zip-code": "", "city": "", "planning-area-id": 9200716}}, {"type": "Feature", "geometry": {"type": "Point", "coordinates": [13.3047525, 52.5167107]}, "properties": {"id": "4809118969", "name": "Power Bär", "street": "Wilmersdorfer Straße 163", "zip-code": 10585.0, "city": "Berlin", "planning-area-id": 4300621}}, {"type": "Feature", "geometry": {"type": "Point", "coordinates": [13.3984173, 52.5680064]}, "properties": {"id": "4812222804", "name": "Ki-Haus", "street": "Wollankstraße 6", "zip-code": 13187.0, "city": "Berlin", "planning-area-id": 3400721}}, {"type": "Feature", "geometry": {"type": "Point", "coordinates": [13.389102, 52.5191433]}, "properties": {"id": "4815247561", "name": "DocOrtho", "street": "", "zip-code": "", "city": "", "planning-area-id": 1100206}}, {"type": "Feature", "geometry": {"type": "Point", "coordinates": [13.4366613, 52.4919236]}, "properties": {"id": "4819499443", "name": "Peace Yoga Berlin", "street": "Glogauer Straße 19", "zip-code": 10999.0, "city": "Berlin", "planning-area-id": 2300418}}, {"type": "Feature", "geometry": {"type": "Point", "coordinates": [13.389607, 52.5479608]}, "properties": {"id": "4825870145", "name": "JOHN REED Fitness", "street": "Brunnenstraße 105-109", "zip-code": 13355.0, "city": "Berlin", "planning-area-id": 1300834}}, {"type": "Feature", "geometry": {"type": "Point", "coordinates": [13.3957917, 52.5248995]}, "properties": {"id": "4849302124", "name": "Bikram Yoga Berlin-Mitte", "street": "Krausnickstraße 23", "zip-code": 10115.0, "city": "Berlin", "planning-area-id": 1100309}}, {"type": "Feature", "geometry": {"type": "Point", "coordinates": [13.2879531, 52.4183617]}, "properties": {"id": "4861464949", "name": "McFit", "street": "Goerzallee 188", "zip-code": 14167.0, "city": "Berlin", "planning-area-id": 6300632}}, {"type": "Feature", "geometry": {"type": "Point", "coordinates": [13.3368666, 52.5010537]}, "properties": {"id": "4907663397", "name": "Fitbox", "street": "", "zip-code": "", "city": "", "planning-area-id": 4501042}}, {"type": "Feature", "geometry": {"type": "Point", "coordinates": [13.4575495, 52.5115029]}, "properties": {"id": "4908049913", "name": "Fitbox", "street": "Grünberger Straße 62", "zip-code": 10245.0, "city": "Berlin", "planning-area-id": 2500833}}, {"type": "Feature", "geometry": {"type": "Point", "coordinates": [13.323731, 52.5102406]}, "properties": {"id": "4970131824", "name": "Slim-Gym Club", "street": "Hardenbergstraße 7", "zip-code": 10623.0, "city": "Berlin", "planning-area-id": 4300624}}, {"type": "Feature", "geometry": {"type": "Point", "coordinates": [13.2944444, 52.4972395]}, "properties": {"id": "5051041621", "name": "Athlin", "street": "", "zip-code": "", "city": "", "planning-area-id": 4500938}}, {"type": "Feature", "geometry": {"type": "Point", "coordinates": [13.3002669, 52.4978459]}, "properties": {"id": "5051041622", "name": "Mrs. Sporty", "street": "", "zip-code": "", "city": "", "planning-area-id": 4500938}}, {"type": "Feature", "geometry": {"type": "Point", "coordinates": [13.3213517, 52.4894447]}, "properties": {"id": "5082292600", "name": "Yoga Vidya Center Berlin-Wilmersdorf", "street": "Pfalzburger Straße 43", "zip-code": 10717.0, "city": "Berlin", "planning-area-id": 4501147}}, {"type": "Feature", "geometry": {"type": "Point", "coordinates": [13.5039111, 52.5648847]}, "properties": {"id": "5147968721", "name": "Active Ladies", "street": "Zingster Straße 4", "zip-code": 13051.0, "city": "", "planning-area-id": 11100307}}, {"type": "Feature", "geometry": {"type": "Point", "coordinates": [13.609346, 52.5377691]}, "properties": {"id": "5248623193", "name": "Power Factory GmbH", "street": "Tangermünder Straße 129", "zip-code": 12627.0, "city": "Berlin", "planning-area-id": 10200422}}, {"type": "Feature", "geometry": {"type": "Point", "coordinates": [13.5421497, 52.5419445]}, "properties": {"id": "5248861547", "name": "Ladycompany", "street": "", "zip-code": "", "city": "", "planning-area-id": 10100210}}, {"type": "Feature", "geometry": {"type": "Point", "coordinates": [13.4460611, 52.4789617]}, "properties": {"id": "5321891322", "name": "Tayopi", "street": "Sonnenallee 147", "zip-code": 12059.0, "city": "Berlin", "planning-area-id": 8100418}}, {"type": "Feature", "geometry": {"type": "Point", "coordinates": [13.4214152, 52.485211]}, "properties": {"id": "5337021037", "name": "Holmes Place", "street": "", "zip-code": "", "city": "", "planning-area-id": 8100101}}, {"type": "Feature", "geometry": {"type": "Point", "coordinates": [13.4017754, 52.5530222]}, "properties": {"id": "5339159802", "name": "Yoga", "street": "", "zip-code": "", "city": "", "planning-area-id": 3601140}}, {"type": "Feature", "geometry": {"type": "Point", "coordinates": [13.4889231, 52.505358]}, "properties": {"id": "5348822589", "name": "Yoga Barn", "street": "Münsterlandstraße 5", "zip-code": 10317.0, "city": "Berlin", "planning-area-id": 11400929}}, {"type": "Feature", "geometry": {"type": "Point", "coordinates": [13.3359151, 52.4847501]}, "properties": {"id": "5396107633", "name": "sportraum bs", "street": "", "zip-code": "", "city": "", "planning-area-id": 4501153}}, {"type": "Feature", "geometry": {"type": "Point", "coordinates": [13.2997785, 52.5069538]}, "properties": {"id": "5408274151", "name": "Bodystreet", "street": "Kantstraße 72", "zip-code": 10627.0, "city": "Berlin", "planning-area-id": 4300416}}, {"type": "Feature", "geometry": {"type": "Point", "coordinates": [13.3772335, 52.5354955]}, "properties": {"id": "5424563451", "name": "Slim-Gym Club", "street": "Chausseestraße 51", "zip-code": 10115.0, "city": "Berlin", "planning-area-id": 1100414}}, {"type": "Feature", "geometry": {"type": "Point", "coordinates": [13.3254356, 52.607932]}, "properties": {"id": "5443162245", "name": "FitX", "street": "Oraniendamm 6-10", "zip-code": 13469.0, "city": "Berlin", "planning-area-id": 12601032}}, {"type": "Feature", "geometry": {"type": "Point", "coordinates": [13.3874764, 52.4538703]}, "properties": {"id": "5525155938", "name": "FitX", "street": "", "zip-code": "", "city": "", "planning-area-id": 7400927}}, {"type": "Feature", "geometry": {"type": "Point", "coordinates": [13.4095229, 52.5642337]}, "properties": {"id": "5552228830", "name": "Argo Athletics", "street": "Mühlenstraße 62-65", "zip-code": 13187.0, "city": "Berlin", "planning-area-id": 3400826}}, {"type": "Feature", "geometry": {"type": "Point", "coordinates": [13.410259, 52.524584]}, "properties": {"id": "5656522305", "name": "Evo Berlin Rosa", "street": "Rosa-Luxemburg-Straße 14", "zip-code": 10178.0, "city": "Berlin", "planning-area-id": 1100310}}, {"type": "Feature", "geometry": {"type": "Point", "coordinates": [13.4695348, 52.5079023]}, "properties": {"id": "5659022957", "name": "Berlin Hot Yoga", "street": "", "zip-code": "", "city": "", "planning-area-id": 2500832}}, {"type": "Feature", "geometry": {"type": "Point", "coordinates": [13.3611761, 52.4965751]}, "properties": {"id": "5718697030", "name": "Boxsport Berlin e.V.", "street": "", "zip-code": "", "city": "", "planning-area-id": 7100103}}, {"type": "Feature", "geometry": {"type": "Point", "coordinates": [13.2651845, 52.5133825]}, "properties": {"id": "5796921707", "name": "Mrs. Sporty", "street": "", "zip-code": "", "city": "", "planning-area-id": 4200310}}, {"type": "Feature", "geometry": {"type": "Point", "coordinates": [13.4101265, 52.5649347]}, "properties": {"id": "5825069584", "name": "Casa de Quilombo", "street": "", "zip-code": "", "city": "", "planning-area-id": 3400826}}, {"type": "Feature", "geometry": {"type": "Point", "coordinates": [13.4062541, 52.5266763]}, "properties": {"id": "5913018282", "name": "Just Fit", "street": "Steinstraße 5", "zip-code": 10119.0, "city": "Berlin", "planning-area-id": 1100309}}, {"type": "Feature", "geometry": {"type": "Point", "coordinates": [13.5096069, 52.5745393]}, "properties": {"id": "5916346085", "name": "Mrs. Sporty", "street": "Rostocker Straße 15", "zip-code": 13059.0, "city": "Berlin", "planning-area-id": 11100206}}, {"type": "Feature", "geometry": {"type": "Point", "coordinates": [13.437719, 52.4989674]}, "properties": {"id": "5980998064", "name": "Kreuzberg Yoga", "street": "Lübbener Straße 9", "zip-code": 10997.0, "city": "Berlin", "planning-area-id": 2300419}}, {"type": "Feature", "geometry": {"type": "Point", "coordinates": [13.426096, 52.4955816]}, "properties": {"id": "5981095822", "name": "Zentrum für Yoga und Stimme", "street": "Paul-Lincke-Ufer 30", "zip-code": 10999.0, "city": "Berlin", "planning-area-id": 2300417}}, {"type": "Feature", "geometry": {"type": "Point", "coordinates": [13.4373568, 52.4788359]}, "properties": {"id": "5985950308", "name": "fitbox.de", "street": "Karl-Marx-Straße 108", "zip-code": 12043.0, "city": "Berlin", "planning-area-id": 8100207}}, {"type": "Feature", "geometry": {"type": "Point", "coordinates": [13.2582451, 52.4350839]}, "properties": {"id": "6006913091", "name": "Clever fit", "street": "Martin-Buber-Straße 12", "zip-code": 14163.0, "city": "", "planning-area-id": 6300526}}, {"type": "Feature", "geometry": {"type": "Point", "coordinates": [13.4455578, 52.5058788]}, "properties": {"id": "6029322205", "name": "FitX", "street": "Tamara-Danz-Straße 11", "zip-code": 10243.0, "city": "Berlin", "planning-area-id": 2400625}}, {"type": "Feature", "geometry": {"type": "Point", "coordinates": [13.4617302, 52.5304776]}, "properties": {"id": "6141321914", "name": "FitX", "street": "Oderbruchstraße 14", "zip-code": 10369.0, "city": "Berlin", "planning-area-id": 11300616}}, {"type": "Feature", "geometry": {"type": "Point", "coordinates": [13.4625301, 52.4845339]}, "properties": {"id": "6217415536", "name": "Paramount Fitness", "street": "Puderstraße 8", "zip-code": 12435.0, "city": "Berlin", "planning-area-id": 9100202}}, {"type": "Feature", "geometry": {"type": "Point", "coordinates": [13.3694456, 52.4905624]}, "properties": {"id": "6245373115", "name": "Iyengar Yoga Zentrum", "street": "Hochkirchstraße 9/2", "zip-code": 10829.0, "city": "Berlin", "planning-area-id": 7100206}}, {"type": "Feature", "geometry": {"type": "Point", "coordinates": [13.3172922, 52.4937501]}, "properties": {"id": "6249985337", "name": "taohealth", "street": "Wittelsbacherstraße 37", "zip-code": 10707.0, "city": "Berlin", "planning-area-id": 4501043}}, {"type": "Feature", "geometry": {"type": "Point", "coordinates": [13.5602985, 52.5062441]}, "properties": {"id": "6261885939", "name": "FitX", "street": "Weißenhöher Straße 108", "zip-code": 12683.0, "city": "Berlin", "planning-area-id": 10300733}}, {"type": "Feature", "geometry": {"type": "Point", "coordinates": [13.4239752, 52.5007181]}, "properties": {"id": "6269985404", "name": "Gelber Raum", "street": "Mariannenstraße 48", "zip-code": 10997.0, "city": "Berlin", "planning-area-id": 2300315}}, {"type": "Feature", "geometry": {"type": "Point", "coordinates": [13.4096666, 52.5484219]}, "properties": {"id": "6287061378", "name": "Yoga Pankow", "street": "", "zip-code": "", "city": "", "planning-area-id": 3601142}}, {"type": "Feature", "geometry": {"type": "Point", "coordinates": [13.4037515, 52.5530718]}, "properties": {"id": "6339499872", "name": "Afra Senter", "street": "", "zip-code": "", "city": "", "planning-area-id": 3601140}}, {"type": "Feature", "geometry": {"type": "Point", "coordinates": [13.4627564, 52.5136199]}, "properties": {"id": "6357893262", "name": "Lotos Yoga", "street": "", "zip-code": "", "city": "", "planning-area-id": 2500831}}, {"type": "Feature", "geometry": {"type": "Point", "coordinates": [13.6253449, 52.4528952]}, "properties": {"id": "6388113852", "name": "Fitbox", "street": "Bölschestraße 45", "zip-code": 12587.0, "city": "Berlin", "planning-area-id": 9501737}}, {"type": "Feature", "geometry": {"type": "Point", "coordinates": [13.4487446, 52.4938947]}, "properties": {"id": "6398137732", "name": "Urban Street Gym", "street": "Bouchéstraße 12", "zip-code": 12435.0, "city": "Berlin", "planning-area-id": 9100101}}, {"type": "Feature", "geometry": {"type": "Point", "coordinates": [13.465678, 52.5148233]}, "properties": {"id": "6414803768", "name": "Fitness First", "street": "Frankfurter Allee 57", "zip-code": "", "city": "Berlin", "planning-area-id": 2500728}}, {"type": "Feature", "geometry": {"type": "Point", "coordinates": [13.3445657, 52.5250018]}, "properties": {"id": "6415868985", "name": "Slim-Gym", "street": "Alt-Moabit 92", "zip-code": 10559.0, "city": "Berlin", "planning-area-id": 1200626}}, {"type": "Feature", "geometry": {"type": "Point", "coordinates": [13.5864319, 52.5231862]}, "properties": {"id": "6421090392", "name": "Five Star Fitness", "street": "Hellersdorfer Straße 83", "zip-code": 12619.0, "city": "Berlin", "planning-area-id": 10200629}}, {"type": "Feature", "geometry": {"type": "Point", "coordinates": [13.3238482, 52.5122911]}, "properties": {"id": "6447122889", "name": "Fitnessstudio TU Sport", "street": "Straße des 17. Juni 145", "zip-code": 10623.0, "city": "Berlin", "planning-area-id": 4300622}}, {"type": "Feature", "geometry": {"type": "Point", "coordinates": [13.4254971, 52.4763605]}, "properties": {"id": "6451531078", "name": "Dharma Yoga", "street": "Kienitzer Straße 98", "zip-code": 12049.0, "city": "Berlin", "planning-area-id": 8100102}}, {"type": "Feature", "geometry": {"type": "Point", "coordinates": [13.3210363, 52.464957]}, "properties": {"id": "6458744287", "name": "Steglitzer Dance & Aerobic Center", "street": "Lepsiusstraße 14", "zip-code": 12163.0, "city": "Berlin", "planning-area-id": 6100103}}, {"type": "Feature", "geometry": {"type": "Point", "coordinates": [13.3268218, 52.4927896]}, "properties": {"id": "6469985311", "name": "Aum Yoga Studio", "street": "Nassauische Straße 62", "zip-code": 10717.0, "city": "Berlin", "planning-area-id": 4501149}}, {"type": "Feature", "geometry": {"type": "Point", "coordinates": [13.1874325, 52.5318788]}, "properties": {"id": "6497580485", "name": "McFit", "street": "Altonaer Straße 59-61", "zip-code": 13581.0, "city": "", "planning-area-id": 5200629}}, {"type": "Feature", "geometry": {"type": "Point", "coordinates": [13.341843, 52.5265415]}, "properties": {"id": "6508696785", "name": "Fit Star", "street": "Turmstraße 29", "zip-code": 10551.0, "city": "Berlin", "planning-area-id": 1200520}}, {"type": "Feature", "geometry": {"type": "Point", "coordinates": [13.4029924, 52.5279738]}, "properties": {"id": "6550896785", "name": "John & Jane‘s", "street": "Rosenthaler Straße 63", "zip-code": "", "city": "", "planning-area-id": 1100309}}, {"type": "Feature", "geometry": {"type": "Point", "coordinates": [13.5389857, 52.5281086]}, "properties": {"id": "6563440585", "name": "Clever fit", "street": "Helene-Weigel-Platz 5", "zip-code": 12681.0, "city": "Berlin", "planning-area-id": 10100312}}, {"type": "Feature", "geometry": {"type": "Point", "coordinates": [13.3551586, 52.5490334]}, "properties": {"id": "6586374601", "name": "FIT/ONE", "street": "Müllerstraße 35", "zip-code": 13353.0, "city": "", "planning-area-id": 1401048}}, {"type": "Feature", "geometry": {"type": "Point", "coordinates": [13.3126382, 52.5087065]}, "properties": {"id": "6620963678", "name": "Mrs. Sporty", "street": "Goethestraße 59", "zip-code": 10625.0, "city": "Berlin", "planning-area-id": 4300623}}, {"type": "Feature", "geometry": {"type": "Point", "coordinates": [13.4213383, 52.5379127]}, "properties": {"id": "6693475018", "name": "Green Yoga", "street": "Sredzkistraße 59", "zip-code": 10405.0, "city": "Berlin", "planning-area-id": 3701555}}, {"type": "Feature", "geometry": {"type": "Point", "coordinates": [13.4027986, 52.5858073]}, "properties": {"id": "6757633586", "name": "Green Yoga", "street": "Dietzgenstraße 56", "zip-code": 13156.0, "city": "Berlin", "planning-area-id": 3200207}}, {"type": "Feature", "geometry": {"type": "Point", "coordinates": [13.4623488, 52.5063988]}, "properties": {"id": "6759112267", "name": "Studio Glücksmama", "street": "Döringstraße 2", "zip-code": 10245.0, "city": "Berlin", "planning-area-id": 2500834}}, {"type": "Feature", "geometry": {"type": "Point", "coordinates": [13.3713067, 52.492162]}, "properties": {"id": "6789070129", "name": "Fit/One", "street": "Bautzener Straße 20-24", "zip-code": 10829.0, "city": "Berlin", "planning-area-id": 7100206}}, {"type": "Feature", "geometry": {"type": "Point", "coordinates": [13.4263004, 52.5000182]}, "properties": {"id": "6841151512", "name": "Sportetage", "street": "Manteuffelstraße 40", "zip-code": 10997.0, "city": "Berlin", "planning-area-id": 2300315}}, {"type": "Feature", "geometry": {"type": "Point", "coordinates": [13.3097604, 52.5094167]}, "properties": {"id": "6899045752", "name": "Iyengar Yoga", "street": "Krumme Straße 61", "zip-code": 10627.0, "city": "Berlin", "planning-area-id": 4300623}}, {"type": "Feature", "geometry": {"type": "Point", "coordinates": [13.3844025, 52.5025396]}, "properties": {"id": "7006749859", "name": "Forde Fitness", "street": "Stresemannstraße 65", "zip-code": 10963.0, "city": "Berlin", "planning-area-id": 2100101}}, {"type": "Feature", "geometry": {"type": "Point", "coordinates": [13.4518778, 52.4790244]}, "properties": {"id": "7057578051", "name": "Yoga im Gartenstudio", "street": "", "zip-code": "", "city": "", "planning-area-id": 8100418}}, {"type": "Feature", "geometry": {"type": "Point", "coordinates": [13.3556988, 52.4855668]}, "properties": {"id": "7066762906", "name": "FitX", "street": "Hauptstraße 141", "zip-code": 10827.0, "city": "Berlin", "planning-area-id": 7200410}}, {"type": "Feature", "geometry": {"type": "Point", "coordinates": [13.4329339, 52.5316555]}, "properties": {"id": "7069825849", "name": "InLight Yoga", "street": "Hufelandstraße 23", "zip-code": 10407.0, "city": "Berlin", "planning-area-id": 3701660}}, {"type": "Feature", "geometry": {"type": "Point", "coordinates": [13.432789, 52.5317118]}, "properties": {"id": "7069825850", "name": "EMS Sport und Bewegung", "street": "Hufelandstraße 23", "zip-code": 10407.0, "city": "Berlin", "planning-area-id": 3701660}}, {"type": "Feature", "geometry": {"type": "Point", "coordinates": [13.4340409, 52.5331143]}, "properties": {"id": "7095755738", "name": "Makeda", "street": "Pasteurstraße 20", "zip-code": 10407.0, "city": "Berlin", "planning-area-id": 3701660}}, {"type": "Feature", "geometry": {"type": "Point", "coordinates": [13.3778323, 52.5494998]}, "properties": {"id": "7133818467", "name": "CrunchFit", "street": "Pankstraße 32-39", "zip-code": "", "city": "", "planning-area-id": 1300836}}, {"type": "Feature", "geometry": {"type": "Point", "coordinates": [13.4241071, 52.4880071]}, "properties": {"id": "7161037005", "name": "American Fitness", "street": "Hermannplatz 10", "zip-code": 10967.0, "city": "Berlin", "planning-area-id": 2200212}}, {"type": "Feature", "geometry": {"type": "Point", "coordinates": [13.4361377, 52.5336363]}, "properties": {"id": "7194124792", "name": "Kindersport Sven Bora", "street": "Dietrich-Bonhoeffer-Straße 17a", "zip-code": 10407.0, "city": "Berlin", "planning-area-id": 3701660}}, {"type": "Feature", "geometry": {"type": "Point", "coordinates": [13.4361912, 52.5336164]}, "properties": {"id": "7194124793", "name": "yogi", "street": "Dietrich-Bonhoeffer-Straße 17a", "zip-code": 10407.0, "city": "Berlin", "planning-area-id": 3701660}}, {"type": "Feature", "geometry": {"type": "Point", "coordinates": [13.4467666, 52.4758032]}, "properties": {"id": "7231134046", "name": "yogaraum Am Richardplatz", "street": "Hertzbergstraße 27", "zip-code": "", "city": "", "planning-area-id": 8100416}}, {"type": "Feature", "geometry": {"type": "Point", "coordinates": [13.3746045, 52.5954367]}, "properties": {"id": "7239669952", "name": "Mrs. Sporty", "street": "Hauptstraße 101B", "zip-code": 13158.0, "city": "Berlin", "planning-area-id": 3400618}}, {"type": "Feature", "geometry": {"type": "Point", "coordinates": [13.4668695, 52.50798]}, "properties": {"id": "7252377721", "name": "TSX Sportsclub", "street": "", "zip-code": "", "city": "", "planning-area-id": 2500833}}, {"type": "Feature", "geometry": {"type": "Point", "coordinates": [13.4223608, 52.5439907]}, "properties": {"id": "7272720758", "name": "Formwandler", "street": "Dunckerstraße 21", "zip-code": 10437.0, "city": "Berlin", "planning-area-id": 3601348}}, {"type": "Feature", "geometry": {"type": "Point", "coordinates": [13.419718, 52.5416201]}, "properties": {"id": "7275474348", "name": "Via Pilates", "street": "Dunckerstraße 84", "zip-code": 10437.0, "city": "Berlin", "planning-area-id": 3601347}}, {"type": "Feature", "geometry": {"type": "Point", "coordinates": [13.4228163, 52.5450586]}, "properties": {"id": "7279178744", "name": "House of Healing", "street": "Dunckerstraße 70", "zip-code": 10437.0, "city": "Berlin", "planning-area-id": 3601347}}, {"type": "Feature", "geometry": {"type": "Point", "coordinates": [13.4207853, 52.5445551]}, "properties": {"id": "7279405008", "name": "YogaCircle", "street": "Schliemannstraße 22", "zip-code": 10437.0, "city": "Berlin", "planning-area-id": 3601347}}, {"type": "Feature", "geometry": {"type": "Point", "coordinates": [13.7153681, 52.4313095]}, "properties": {"id": "7296568749", "name": "fit & feminin", "street": "Fürstenwalder Allee 318", "zip-code": 12589.0, "city": "Berlin", "planning-area-id": 9501838}}, {"type": "Feature", "geometry": {"type": "Point", "coordinates": [13.4235503, 52.5395343]}, "properties": {"id": "7311293615", "name": "My Sports", "street": "Danziger Straße 69", "zip-code": 10435.0, "city": "Berlin", "planning-area-id": 3601348}}, {"type": "Feature", "geometry": {"type": "Point", "coordinates": [13.3246233, 52.475808]}, "properties": {"id": "7544210933", "name": "EMS Training Berlin", "street": "", "zip-code": "", "city": "", "planning-area-id": 7300515}}, {"type": "Feature", "geometry": {"type": "Point", "coordinates": [13.332784, 52.4694551]}, "properties": {"id": "7554171386", "name": "fitbox", "street": "Rheinstraße 17", "zip-code": 12159.0, "city": "Berlin", "planning-area-id": 7300517}}, {"type": "Feature", "geometry": {"type": "Point", "coordinates": [13.3424248, 52.5527066]}, "properties": {"id": "7623775571", "name": "Blue Panta", "street": "Transvaalstraße 11", "zip-code": 13351.0, "city": "Berlin", "planning-area-id": 1400937}}, {"type": "Feature", "geometry": {"type": "Point", "coordinates": [13.3401936, 52.4758116]}, "properties": {"id": "7640755748", "name": "Yogazeit Stråla", "street": "Hauptstraße 69", "zip-code": 12159.0, "city": "Berlin", "planning-area-id": 7300517}}, {"type": "Feature", "geometry": {"type": "Point", "coordinates": [13.3044631, 52.5162635]}, "properties": {"id": "7650571611", "name": "Yogavihar", "street": "", "zip-code": "", "city": "", "planning-area-id": 4300621}}, {"type": "Feature", "geometry": {"type": "Point", "coordinates": [13.3396573, 52.4670632]}, "properties": {"id": "7680118565", "name": "Entspannt mit Yoga", "street": "Beckerstraße 9", "zip-code": 12157.0, "city": "Berlin", "planning-area-id": 7300619}}, {"type": "Feature", "geometry": {"type": "Point", "coordinates": [13.3324358, 52.4726259]}, "properties": {"id": "7683719224", "name": "Raum für Bewegung Quan Dao", "street": "Niedstraße 12", "zip-code": 12159.0, "city": "Berlin", "planning-area-id": 7300517}}, {"type": "Feature", "geometry": {"type": "Point", "coordinates": [13.3259026, 52.4726648]}, "properties": {"id": "7749923385", "name": "Akademie für Yoga Berlin", "street": "Wilhelmshöher Straße 5", "zip-code": 12161.0, "city": "Berlin", "planning-area-id": 7300515}}, {"type": "Feature", "geometry": {"type": "Point", "coordinates": [13.3306922, 52.4667964]}, "properties": {"id": "7776107176", "name": "Donna Mobile", "street": "Rheinstraße 46", "zip-code": 12161.0, "city": "Berlin", "planning-area-id": 7300618}}, {"type": "Feature", "geometry": {"type": "Point", "coordinates": [13.3370775, 52.4702542]}, "properties": {"id": "7776239760", "name": "Flow Fitness", "street": "Fregestraße 11", "zip-code": 12159.0, "city": "Berlin", "planning-area-id": 7300618}}, {"type": "Feature", "geometry": {"type": "Point", "coordinates": [13.3231711, 52.4723634]}, "properties": {"id": "7777530626", "name": "Peronal Pilates", "street": "Wilhelmshöher Straße 20", "zip-code": 12161.0, "city": "Berlin", "planning-area-id": 7300515}}, {"type": "Feature", "geometry": {"type": "Point", "coordinates": [13.3236197, 52.4867414]}, "properties": {"id": "7804846347", "name": "CrossFit", "street": "Berliner Straße 30", "zip-code": 10715.0, "city": "Berlin", "planning-area-id": 4501149}}, {"type": "Feature", "geometry": {"type": "Point", "coordinates": [13.5599114, 52.508509]}, "properties": {"id": "7836953685", "name": "Health Gym Berlin", "street": "", "zip-code": "", "city": "", "planning-area-id": 10300733}}, {"type": "Feature", "geometry": {"type": "Point", "coordinates": [13.3577898, 52.4945812]}, "properties": {"id": "7850361039", "name": "Ashtanga Yoga Schule", "street": "", "zip-code": "", "city": "", "planning-area-id": 7100103}}, {"type": "Feature", "geometry": {"type": "Point", "coordinates": [13.4277953, 52.536809]}, "properties": {"id": "7867810048", "name": "Mrs. Sporty", "street": "Winsstraße 42", "zip-code": 10405.0, "city": "Berlin", "planning-area-id": 3701658}}, {"type": "Feature", "geometry": {"type": "Point", "coordinates": [13.3325115, 52.4792746]}, "properties": {"id": "8042827117", "name": "Strom-Linien", "street": "Prinzregentenstraße 42", "zip-code": 10715.0, "city": "Berlin", "planning-area-id": 4501153}}, {"type": "Feature", "geometry": {"type": "Point", "coordinates": [13.4118011, 52.5444176]}, "properties": {"id": "8066147155", "name": "Ready Set Move – Personal Training Berlin", "street": "Schönhauser Allee 134", "zip-code": 10437.0, "city": "Berlin", "planning-area-id": 3601142}}, {"type": "Feature", "geometry": {"type": "Point", "coordinates": [13.3313311, 52.4909974]}, "properties": {"id": "8077205619", "name": "Fitbox", "street": "", "zip-code": "", "city": "", "planning-area-id": 4501152}}, {"type": "Feature", "geometry": {"type": "Point", "coordinates": [13.3304973, 52.4526924]}, "properties": {"id": "8091797796", "name": "EMS Training Berlin", "street": "Klingsorstraße 8", "zip-code": 12167.0, "city": "Berlin", "planning-area-id": 6100207}}, {"type": "Feature", "geometry": {"type": "Point", "coordinates": [13.3202746, 52.4709457]}, "properties": {"id": "8094802649", "name": "Sporteve", "street": "Laubacher Straße 12", "zip-code": 14197.0, "city": "Berlin", "planning-area-id": 7300516}}, {"type": "Feature", "geometry": {"type": "Point", "coordinates": [13.3208065, 52.4575255]}, "properties": {"id": "8120989341", "name": "Fitness First Ladies", "street": "", "zip-code": "", "city": "", "planning-area-id": 6100102}}, {"type": "Feature", "geometry": {"type": "Point", "coordinates": [13.320908, 52.4714277]}, "properties": {"id": "8143925996", "name": "Pilates On The Go", "street": "Wiesbadener Straße 79", "zip-code": 12161.0, "city": "Berlin", "planning-area-id": 7300516}}, {"type": "Feature", "geometry": {"type": "Point", "coordinates": [13.3103661, 52.5005866]}, "properties": {"id": "8197441972", "name": "Rocycle", "street": "", "zip-code": "", "city": "", "planning-area-id": 4501040}}, {"type": "Feature", "geometry": {"type": "Point", "coordinates": [13.3231656, 52.4703204]}, "properties": {"id": "8199219273", "name": "pilaME", "street": "Homuthstraße 6", "zip-code": 12161.0, "city": "Berlin", "planning-area-id": 7300516}}, {"type": "Feature", "geometry": {"type": "Point", "coordinates": [13.3289566, 52.4697929]}, "properties": {"id": "8222836706", "name": "Praxis für die Seele", "street": "Bundesallee 123", "zip-code": 12161.0, "city": "Berlin", "planning-area-id": 7300516}}, {"type": "Feature", "geometry": {"type": "Point", "coordinates": [13.5479174, 52.4395292]}, "properties": {"id": "8231100116", "name": "Yoga Glück", "street": "Hackenbergstraße 7", "zip-code": 12489.0, "city": "Berlin", "planning-area-id": 9200717}}, {"type": "Feature", "geometry": {"type": "Point", "coordinates": [13.3673041, 52.6048775]}, "properties": {"id": "8330198881", "name": "Fitnessclub Vitalis", "street": "Zerpenschleuser Ring 37", "zip-code": 13439.0, "city": "Berlin", "planning-area-id": 12601133}}, {"type": "Feature", "geometry": {"type": "Point", "coordinates": [13.3345576, 52.4877092]}, "properties": {"id": "8422865852", "name": "Hundred & Friends", "street": "Berliner Straße 161", "zip-code": 10715.0, "city": "Berlin", "planning-area-id": 4501153}}, {"type": "Feature", "geometry": {"type": "Point", "coordinates": [13.4984219, 52.5603992]}, "properties": {"id": "8462294818", "name": "FIT/ONE", "street": "Hansastraße 236", "zip-code": 13051.0, "city": "Berlin", "planning-area-id": 11200410}}, {"type": "Feature", "geometry": {"type": "Point", "coordinates": [13.4052242, 52.5535695]}, "properties": {"id": "8558365378", "name": "Centerline Pilates", "street": "", "zip-code": "", "city": "", "planning-area-id": 3601140}}, {"type": "Feature", "geometry": {"type": "Point", "coordinates": [13.4225943, 52.5371215]}, "properties": {"id": "8621664469", "name": "Fitbox", "street": "Prenzlauer Allee 207", "zip-code": 10405.0, "city": "Berlin", "planning-area-id": 3701555}}, {"type": "Feature", "geometry": {"type": "Point", "coordinates": [13.4177211, 52.5399323]}, "properties": {"id": "8622816454", "name": "ride-berlin.com", "street": "", "zip-code": "", "city": "", "planning-area-id": 3701555}}, {"type": "Feature", "geometry": {"type": "Point", "coordinates": [13.2913584, 52.5110332]}, "properties": {"id": "8626109382", "name": "Iyengar Yoga", "street": "", "zip-code": "", "city": "", "planning-area-id": 4300414}}, {"type": "Feature", "geometry": {"type": "Point", "coordinates": [13.3407554, 52.4872648]}, "properties": {"id": "8637655134", "name": "Schule für Yoga und Prana", "street": "Innsbrucker Straße 56", "zip-code": 10825.0, "city": "Berlin", "planning-area-id": 7200307}}, {"type": "Feature", "geometry": {"type": "Point", "coordinates": [13.4485371, 52.5121345]}, "properties": {"id": "8662502304", "name": "Soulsport Yoga", "street": "Gubener Straße 47", "zip-code": 10243.0, "city": "Berlin", "planning-area-id": 2400624}}, {"type": "Feature", "geometry": {"type": "Point", "coordinates": [13.3471371, 52.5492037]}, "properties": {"id": "8679795668", "name": "pilatique, Pilatesstudio", "street": "", "zip-code": "", "city": "", "planning-area-id": 1400938}}, {"type": "Feature", "geometry": {"type": "Point", "coordinates": [13.2960862, 52.4990796]}, "properties": {"id": "8839649644", "name": "Be Your Star Fitnesscoaching", "street": "Joachim-Friedrich-Straße 41", "zip-code": 10711.0, "city": "Berlin", "planning-area-id": 4500937}}, {"type": "Feature", "geometry": {"type": "Point", "coordinates": [13.3816579, 52.4825358]}, "properties": {"id": "8989690901", "name": "", "street": "", "zip-code": "", "city": "", "planning-area-id": 7400720}}, {"type": "Feature", "geometry": {"type": "Point", "coordinates": [13.3756597, 52.500659]}, "properties": {"id": "9067697047", "name": "X-Step", "street": "Tempelhofer Ufer 36", "zip-code": 10963.0, "city": "Berlin", "planning-area-id": 2200207}}, {"type": "Feature", "geometry": {"type": "Point", "coordinates": [13.4534306, 52.5478641]}, "properties": {"id": "9402426708", "name": "BiSee Yoga", "street": "Bizetstraße 43", "zip-code": 13088.0, "city": "Berlin", "planning-area-id": 3500936}}, {"type": "Feature", "geometry": {"type": "Point", "coordinates": [13.3395351, 52.4623323]}, "properties": {"id": "9404573372", "name": "Bodystreet", "street": "Bismarckstraße 70", "zip-code": 12157.0, "city": "Berlin", "planning-area-id": 6100210}}, {"type": "Feature", "geometry": {"type": "Point", "coordinates": [13.4596077, 52.5500839]}, "properties": {"id": "9431775959", "name": "Fitbox", "street": "Berliner Allee 108", "zip-code": 13088.0, "city": "Berlin", "planning-area-id": 3500936}}, {"type": "Feature", "geometry": {"type": "Point", "coordinates": [13.4572285, 52.5476997]}, "properties": {"id": "9504311194", "name": "Sonne Mond & Sterne", "street": "Meyerbeerstraße 59", "zip-code": 13088.0, "city": "Berlin", "planning-area-id": 3500936}}, {"type": "Feature", "geometry": {"type": "Point", "coordinates": [13.3982992, 52.4939117]}, "properties": {"id": "9524144982", "name": "PRO-STAGE", "street": "", "zip-code": "", "city": "", "planning-area-id": 2200210}}, {"type": "Feature", "geometry": {"type": "Point", "coordinates": [13.2726237, 52.508465]}, "properties": {"id": "9529221826", "name": "LovFit", "street": "", "zip-code": "", "city": "", "planning-area-id": 4200310}}, {"type": "Feature", "geometry": {"type": "Point", "coordinates": [13.3328601, 52.4951128]}, "properties": {"id": "9532970248", "name": "Minimal Yoga", "street": "Nachodstraße 18", "zip-code": 10779.0, "city": "Berlin", "planning-area-id": 4501152}}, {"type": "Feature", "geometry": {"type": "Point", "coordinates": [13.306013, 52.5097577]}, "properties": {"id": "9592884391", "name": "JOHN REED Fitness", "street": "Wilmersdorfer Straße 126-127", "zip-code": 10627.0, "city": "Berlin", "planning-area-id": 4300623}}, {"type": "Feature", "geometry": {"type": "Point", "coordinates": [13.3408491, 52.462798]}, "properties": {"id": "9632071018", "name": "MO.VE", "street": "Kissinger Straße 9", "zip-code": 12157.0, "city": "Berlin", "planning-area-id": 6100210}}, {"type": "Feature", "geometry": {"type": "Point", "coordinates": [13.432989, 52.5016941]}, "properties": {"id": "9662767223", "name": "Peace Yoga Berlin", "street": "Eisenbahnstraße 5", "zip-code": 10997.0, "city": "Berlin", "planning-area-id": 2300315}}, {"type": "Feature", "geometry": {"type": "Point", "coordinates": [13.4103995, 52.5702216]}, "properties": {"id": "9708780370", "name": "Bodystreet", "street": "Berliner Straße 2", "zip-code": 13187.0, "city": "Berlin", "planning-area-id": 3400723}}, {"type": "Feature", "geometry": {"type": "Point", "coordinates": [13.4041015, 52.5209499]}, "properties": {"id": "9728794514", "name": "Ladycompany - Fitness für Frauen", "street": "Spandauer Straße 4", "zip-code": 10178.0, "city": "Berlin", "planning-area-id": 1100310}}, {"type": "Feature", "geometry": {"type": "Point", "coordinates": [13.4654729, 52.5151023]}, "properties": {"id": "9775820813", "name": "yogafürdich Berlin", "street": "", "zip-code": "", "city": "", "planning-area-id": 2500728}}, {"type": "Feature", "geometry": {"type": "Point", "coordinates": [13.4558403, 52.511239]}, "properties": {"id": "9830837796", "name": "Bunker Berlin", "street": "Grünberger Straße 54", "zip-code": 10245.0, "city": "Berlin", "planning-area-id": 2500833}}, {"type": "Feature", "geometry": {"type": "Point", "coordinates": [13.4633274, 52.5133709]}, "properties": {"id": "9846635117", "name": "Lotos Yoga Berlin - YOGA LOFT", "street": "Scharnweberstraße 30", "zip-code": "", "city": "", "planning-area-id": 2500831}}, {"type": "Feature", "geometry": {"type": "Point", "coordinates": [13.489293, 52.4919528]}, "properties": {"id": "9852432518", "name": "AXT CrossFit", "street": "Hauptstraße 13", "zip-code": 10317.0, "city": "Berlin", "planning-area-id": 11501238}}, {"type": "Feature", "geometry": {"type": "Point", "coordinates": [13.4769045, 52.5232792]}, "properties": {"id": "9867335575", "name": "", "street": "Storkower Straße 225", "zip-code": 10367.0, "city": "Berlin", "planning-area-id": 11300619}}, {"type": "Feature", "geometry": {"type": "Point", "coordinates": [13.4575902, 52.4913262]}, "properties": {"id": "9906919513", "name": "Fitness am Park", "street": "Elsenstraße 113", "zip-code": "", "city": "", "planning-area-id": 9100101}}, {"type": "Feature", "geometry": {"type": "Point", "coordinates": [13.387549, 52.4888923]}, "properties": {"id": "9906938038", "name": "FitnessCenter aTB", "street": "Am Tempelhofer Berg 6", "zip-code": "", "city": "", "planning-area-id": 2200211}}, {"type": "Feature", "geometry": {"type": "Point", "coordinates": [13.3814085, 52.5101818]}, "properties": {"id": "9928786051", "name": "AllStar Gym", "street": "Leipziger Platz 12", "zip-code": 10117.0, "city": "Berlin", "planning-area-id": 1100205}}, {"type": "Feature", "geometry": {"type": "Point", "coordinates": [13.4095769, 52.5646061]}, "properties": {"id": "9985456517", "name": "mPointUp", "street": "", "zip-code": "", "city": "", "planning-area-id": 3400826}}, {"type": "Feature", "geometry": {"type": "Point", "coordinates": [13.30329, 52.4908896]}, "properties": {"id": "10000479377", "name": "Lokai Loft", "street": "", "zip-code": "", "city": "", "planning-area-id": 4500939}}, {"type": "Feature", "geometry": {"type": "Point", "coordinates": [13.4127951, 52.5438448]}, "properties": {"id": "10035842242", "name": "Future Fit", "street": "Schönhauser Allee 57", "zip-code": 10437.0, "city": "Berlin", "planning-area-id": 3601346}}, {"type": "Feature", "geometry": {"type": "Point", "coordinates": [13.4279151, 52.544999]}, "properties": {"id": "10045257318", "name": "Bodystreet", "street": "Prenzlauer Allee 88", "zip-code": "", "city": "", "planning-area-id": 3601245}}, {"type": "Feature", "geometry": {"type": "Point", "coordinates": [13.4111529, 52.544723]}, "properties": {"id": "10056214905", "name": "Arcoverde Pilates Zentrum", "street": "Cantianstraße 11", "zip-code": 10437.0, "city": "Berlin", "planning-area-id": 3601142}}, {"type": "Feature", "geometry": {"type": "Point", "coordinates": [13.4215563, 52.5313866]}, "properties": {"id": "10100682968", "name": "Marion Röhrig Pilates", "street": "Heinrich-Roller-Straße 24", "zip-code": 10405.0, "city": "Berlin", "planning-area-id": 3701659}}, {"type": "Feature", "geometry": {"type": "Point", "coordinates": [13.4247709, 52.5335247]}, "properties": {"id": "10100813297", "name": "Pantarei Approach", "street": "Winsstraße 60", "zip-code": 10405.0, "city": "Berlin", "planning-area-id": 3701659}}, {"type": "Feature", "geometry": {"type": "Point", "coordinates": [13.3279458, 52.4690894]}, "properties": {"id": "10121509310", "name": "Twenty Minutes Fitness Lounge", "street": "Stubenrauchstraße 1", "zip-code": 12161.0, "city": "Berlin", "planning-area-id": 7300516}}, {"type": "Feature", "geometry": {"type": "Point", "coordinates": [13.3223719, 52.4532489]}, "properties": {"id": "10124188468", "name": "Indiv Sports", "street": "Schützenstraße 16", "zip-code": "", "city": "", "planning-area-id": 6100207}}, {"type": "Feature", "geometry": {"type": "Point", "coordinates": [13.3674509, 52.462578]}, "properties": {"id": "10131167926", "name": "Crunch Fit Studio Berlin-Schöneberg", "street": "Bessemerstrasse 57-75", "zip-code": 12103.0, "city": "Berlin", "planning-area-id": 7400822}}, {"type": "Feature", "geometry": {"type": "Point", "coordinates": [13.3845448, 52.503731]}, "properties": {"id": "10175951317", "name": "Basement Boulderstudio", "street": "Stresemannstraße 72", "zip-code": 10963.0, "city": "", "planning-area-id": 2100101}}, {"type": "Feature", "geometry": {"type": "Point", "coordinates": [13.3266094, 52.4978481]}, "properties": {"id": "10248360663", "name": "stromtown", "street": "", "zip-code": "", "city": "", "planning-area-id": 4501045}}, {"type": "Feature", "geometry": {"type": "Point", "coordinates": [13.415099, 52.5187846]}, "properties": {"id": "10282680110", "name": "Beat 81", "street": "Dircksenstraße 99", "zip-code": 10178.0, "city": "Berlin", "planning-area-id": 1100310}}, {"type": "Feature", "geometry": {"type": "Point", "coordinates": [13.3680776, 52.531081]}, "properties": {"id": "10293894600", "name": "Getimpulse", "street": "Heidestraße 12", "zip-code": "", "city": "", "planning-area-id": 1200624}}, {"type": "Feature", "geometry": {"type": "Point", "coordinates": [13.3559614, 52.4900414]}, "properties": {"id": "10314570434", "name": "Die Schönebergerin", "street": "Grunewaldstraße 86", "zip-code": 10823.0, "city": "Berlin", "planning-area-id": 7200409}}, {"type": "Feature", "geometry": {"type": "Point", "coordinates": [13.3102202, 52.4794998]}, "properties": {"id": "10594955331", "name": "Classic Crossfit", "street": "Mecklenburgische Straße 24a", "zip-code": 14197.0, "city": "Berlin", "planning-area-id": 4400830}}, {"type": "Feature", "geometry": {"type": "Point", "coordinates": [13.4129051, 52.5472139]}, "properties": {"id": "10609414411", "name": "fitbox", "street": "", "zip-code": "", "city": "", "planning-area-id": 3601142}}, {"type": "Feature", "geometry": {"type": "Point", "coordinates": [13.2963353, 52.5057198]}, "properties": {"id": "10648363519", "name": "Warias Kosmetik & Yoga", "street": "", "zip-code": "", "city": "", "planning-area-id": 4300416}}, {"type": "Feature", "geometry": {"type": "Point", "coordinates": [13.4787593, 52.5268844]}, "properties": {"id": "10675679016", "name": "Crunch Fit", "street": "Weißenseer Weg 112", "zip-code": 10369.0, "city": "Berlin", "planning-area-id": 11300617}}, {"type": "Feature", "geometry": {"type": "Point", "coordinates": [13.4876781, 52.5384092]}, "properties": {"id": "10702130505", "name": "VitalInn", "street": "", "zip-code": "", "city": "", "planning-area-id": 11200513}}, {"type": "Feature", "geometry": {"type": "Point", "coordinates": [13.623723, 52.4469431]}, "properties": {"id": "10727283773", "name": "Vibra Fitness Lounge", "street": "", "zip-code": "", "city": "", "planning-area-id": 9501737}}, {"type": "Feature", "geometry": {"type": "Point", "coordinates": [13.3115118, 52.5084656]}, "properties": {"id": "10780033147", "name": "Feldenkrais & QiGong", "street": "", "zip-code": "", "city": "", "planning-area-id": 4300623}}, {"type": "Feature", "geometry": {"type": "Point", "coordinates": [13.3305061, 52.466586]}, "properties": {"id": "10788427170", "name": "Strike First Krav Maga", "street": "Rheinstraße 45-46", "zip-code": 12161.0, "city": "Berlin", "planning-area-id": 7300618}}, {"type": "Feature", "geometry": {"type": "Point", "coordinates": [13.3274238, 52.4585685]}, "properties": {"id": "10788867287", "name": "Krav Maga Berlin Headquarters", "street": "Bergstraße 93", "zip-code": 12169.0, "city": "Berlin", "planning-area-id": 6100208}}, {"type": "Feature", "geometry": {"type": "Point", "coordinates": [13.326358, 52.5069366]}, "properties": {"id": "10792875944", "name": "Fitness Unlimited", "street": "Uhlandstraße 194", "zip-code": 10623.0, "city": "Berlin", "planning-area-id": 4300622}}, {"type": "Feature", "geometry": {"type": "Point", "coordinates": [13.3160563, 52.4538251]}, "properties": {"id": "10797454234", "name": "Bodystreet", "street": "", "zip-code": "", "city": "", "planning-area-id": 6100101}}, {"type": "Feature", "geometry": {"type": "Point", "coordinates": [13.4306675, 52.5311208]}, "properties": {"id": "10802968151", "name": "yogibar", "street": "", "zip-code": "", "city": "", "planning-area-id": 3701660}}, {"type": "Feature", "geometry": {"type": "Point", "coordinates": [13.5221442, 52.4976583]}, "properties": {"id": "10804733989", "name": "FitX", "street": "Otto-Schmirgal-Straße 7", "zip-code": 10319.0, "city": "Berlin", "planning-area-id": 11401137}}, {"type": "Feature", "geometry": {"type": "Point", "coordinates": [13.3646654, 52.4781146]}, "properties": {"id": "10881753305", "name": "FitX", "street": "Wilhelm-Kabus-Straße 77", "zip-code": 10829.0, "city": "Berlin", "planning-area-id": 7200413}}, {"type": "Feature", "geometry": {"type": "Point", "coordinates": [13.5585447, 52.5305105]}, "properties": {"id": "10909471605", "name": "Sportstudio", "street": "", "zip-code": "", "city": "", "planning-area-id": 10300731}}, {"type": "Feature", "geometry": {"type": "Point", "coordinates": [13.3367913, 52.5218757]}, "properties": {"id": "10936515611", "name": "Yogaschule Petersen", "street": "Dortmunder Straße 6", "zip-code": 10555.0, "city": "Berlin", "planning-area-id": 1200522}}, {"type": "Feature", "geometry": {"type": "Point", "coordinates": [13.3610272, 52.5085275]}, "properties": {"id": "10973845906", "name": "BMVg Sportcontainer", "street": "", "zip-code": "", "city": "", "planning-area-id": 1100102}}, {"type": "Feature", "geometry": {"type": "Point", "coordinates": [13.6020198, 52.4828083]}, "properties": {"id": "10978245699", "name": "Clever fit", "street": "", "zip-code": "", "city": "", "planning-area-id": 10400941}}, {"type": "Feature", "geometry": {"type": "Point", "coordinates": [13.6023922, 52.4833807]}, "properties": {"id": "10978245702", "name": "", "street": "", "zip-code": "", "city": "", "planning-area-id": 10400941}}, {"type": "Feature", "geometry": {"type": "Point", "coordinates": [13.4966691, 52.6340691]}, "properties": {"id": "11010271941", "name": "Clever fit", "street": "", "zip-code": "", "city": "", "planning-area-id": 3100103}}, {"type": "Feature", "geometry": {"type": "Point", "coordinates": [13.396507, 52.5310799]}, "properties": {"id": "11014339720", "name": "HIT BLN", "street": "Ackerstraße 155", "zip-code": "", "city": "", "planning-area-id": 1100415}}, {"type": "Feature", "geometry": {"type": "Point", "coordinates": [13.3983889, 52.5673491]}, "properties": {"id": "11026581858", "name": "Studio 108", "street": "", "zip-code": "", "city": "", "planning-area-id": 3400721}}, {"type": "Feature", "geometry": {"type": "Point", "coordinates": [13.4816451, 52.5142111]}, "properties": {"id": "11046023605", "name": "BLN Athletics", "street": "", "zip-code": "", "city": "", "planning-area-id": 11300722}}, {"type": "Feature", "geometry": {"type": "Point", "coordinates": [13.295109, 52.6402199]}, "properties": {"id": "11061882780", "name": "B-touched Yoga by Bianca", "street": "Königsbacher Zeile 23", "zip-code": 13465.0, "city": "Berlin", "planning-area-id": 12400721}}, {"type": "Feature", "geometry": {"type": "Point", "coordinates": [13.4507477, 52.5365531]}, "properties": {"id": "11107054359", "name": "EVOPE Performance Center", "street": "Storkower Str. 105", "zip-code": 10407.0, "city": "Berlin", "planning-area-id": 3601450}}, {"type": "Feature", "geometry": {"type": "Point", "coordinates": [13.3611178, 52.5509589]}, "properties": {"id": "11109294278", "name": "Sensing Yoga", "street": "", "zip-code": "", "city": "", "planning-area-id": 1401048}}, {"type": "Feature", "geometry": {"type": "Point", "coordinates": [13.6509908, 52.4069695]}, "properties": {"id": "11143206743", "name": "Nature Womb", "street": "Eppenbrunner Weg 30", "zip-code": 12559.0, "city": "Berlin", "planning-area-id": 9401635}}, {"type": "Feature", "geometry": {"type": "Point", "coordinates": [13.3991704, 52.5244747]}, "properties": {"id": "11181712344", "name": "Yogatribe", "street": "Große Hamburger Straße 19A", "zip-code": "", "city": "", "planning-area-id": 1100309}}, {"type": "Feature", "geometry": {"type": "Point", "coordinates": [13.4161686, 52.5296219]}, "properties": {"id": "11201598334", "name": "John Reed Bötzow", "street": "Saarbrücker Straße 4", "zip-code": "", "city": "", "planning-area-id": 3701556}}, {"type": "Feature", "geometry": {"type": "Point", "coordinates": [13.4189229, 52.5503767]}, "properties": {"id": "11211952137", "name": "Mrs. Sporty", "street": "Rodenbergstraße 35", "zip-code": 10439.0, "city": "", "planning-area-id": 3601243}}, {"type": "Feature", "geometry": {"type": "Point", "coordinates": [13.3752868, 52.5054645]}, "properties": {"id": "11227904749", "name": "Holmes Place", "street": "", "zip-code": "", "city": "", "planning-area-id": 1100102}}, {"type": "Feature", "geometry": {"type": "Point", "coordinates": [13.3113031, 52.5162056]}, "properties": {"id": "11291360614", "name": "Abnehmen Im Liegen", "street": "", "zip-code": "", "city": "", "planning-area-id": 4300619}}, {"type": "Feature", "geometry": {"type": "Point", "coordinates": [13.3970753, 52.532346]}, "properties": {"id": "11410528669", "name": "La Candela Salsa", "street": "Invalidenstraße 158", "zip-code": 10115.0, "city": "", "planning-area-id": 1100415}}, {"type": "Feature", "geometry": {"type": "Point", "coordinates": [13.410098, 52.5666674]}, "properties": {"id": "11433087561", "name": "", "street": "", "zip-code": "", "city": "", "planning-area-id": 3400723}}, {"type": "Feature", "geometry": {"type": "Point", "coordinates": [13.3905026, 52.5250199]}, "properties": {"id": "11506333461", "name": "Shapesty", "street": "Aaron-Bernstein-Platz 3", "zip-code": 10117.0, "city": "Berlin", "planning-area-id": 1100309}}]}