{"version": 0.6, "generator": "Overpass API 0.7.61.5 4133829e", "osm3s": {"timestamp_osm_base": "2024-01-02T13:45:02Z", "copyright": "The data included in this document is from www.openstreetmap.org. The data is made available under ODbL."}, "elements": [{"type": "node", "id": 259845846, "lat": 52.4913696, "lon": 13.3931533, "tags": {"addr:city": "Berlin", "addr:country": "DE", "addr:housenumber": "18", "addr:postcode": "10961", "addr:street": "Gneisenaustraße", "addr:suburb": "Kreuzberg", "amenity": "nightclub", "name": "Junction-Bar", "phone": "+49306946602", "website": "https://www.junction-bar.de/", "wheelchair": "no"}}, {"type": "node", "id": 262818281, "lat": 52.5232268, "lon": 13.4164254, "tags": {"addr:city": "Berlin", "addr:housenumber": "7", "addr:postcode": "10178", "addr:street": "Alexanderstraße", "amenity": "nightclub", "name": "ASeven Club", "opening_hours": "Fr 23:30-06:00, Sa 19:00-06:00", "website": "https://www.aseven.de", "wheelchair": "limited"}}, {"type": "node", "id": 304034426, "lat": 52.3857456, "lon": 13.1089325, "tags": {"addr:city": "Potsdam", "addr:country": "DE", "addr:housenumber": "123-135", "addr:postcode": "14482", "addr:street": "Großbeerenstraße", "addr:suburb": "Babelsberg", "amenity": "nightclub", "check_date:opening_hours": "2020-12-25", "contact:facebook": "https://www.facebook.com/parkdeck.potsdam", "contact:phone": "+49 331 280 2800", "contact:website": "https://www.parkdeck-potsdam.de", "name": "Parkdeck by Clärchens", "old_name": "Clärchens Tanzcafé", "opening_hours": "Fr,Sa 21:30+", "operator:type": "business", "wheelchair": "yes"}}, {"type": "node", "id": 339749949, "lat": 52.5046782, "lon": 13.4490212, "tags": {"addr:city": "Berlin", "addr:country": "DE", "addr:housenumber": "18", "addr:postcode": "10245", "addr:street": "Warschauer Platz", "addr:suburb": "Friedrichshain", "amenity": "nightclub", "contact:email": "hallo@matrix-berlin.de", "contact:phone": "+49 30 29369990", "contact:website": "https://www.matrix-berlin.de/", "level": "0", "name": "Matrix", "opening_hours": "Mo-Su 22:00-07:00", "smoking": "isolated", "toilets:wheelchair": "no", "wheelchair": "limited", "wikidata": "Q552863", "wikimedia_commons": "Category:Matrix (club)", "wikipedia": "en:Matrix (club)"}}, {"type": "node", "id": 360111407, "lat": 52.4992172, "lon": 13.4450748, "tags": {"addr:city": "Berlin", "addr:country": "DE", "addr:housenumber": "7", "addr:postcode": "10997", "addr:street": "Cuvrystraße", "addr:suburb": "Kreuzberg", "amenity": "nightclub", "contact:facebook": "https://www.facebook.com/lidoberlin/", "contact:phone": "+49 30 69566840", "contact:website": "https://www.lido-berlin.de/", "drink:club-mate": "yes", "name": "Lido", "smoking": "isolated", "toilets:wheelchair": "yes", "wheelchair": "yes", "wheelchair:description": "Stufe am Haupteingang, Rampe vorhanden. Für das rolligerechte WC bitte vor Ort nach dem Schlüssel fragen.", "wikidata": "Q100256393", "wikimedia_commons": "Category:Lido (Berlin)"}}, {"type": "node", "id": 373095675, "lat": 52.5441625, "lon": 13.3787124, "tags": {"addr:city": "Berlin", "addr:housenumber": "46", "addr:postcode": "13357", "addr:street": "Hochstraße", "amenity": "nightclub", "check_date": "2023-08-29", "name": "Humboldthain Club", "opening_hours": "Tu 18:00-04:00, Th 19:00-04:00, Sa-Su 23:00-09:00", "website": "http://www.humboldthain.com/", "wheelchair": "no"}}, {"type": "node", "id": 383210462, "lat": 52.5045582, "lon": 13.4489112, "tags": {"amenity": "nightclub", "check_date": "2023-10-31", "name": "Narva Lounge", "wheelchair": "yes"}}, {"type": "node", "id": 410135945, "lat": 52.4974686, "lon": 13.4310967, "tags": {"amenity": "nightclub", "check_date": "2023-11-01", "name": "Wild at Heart", "opening_hours": "\"When they host a concert, doors opens at 20h. Otherwise they are closed\"", "wheelchair": "no"}}, {"type": "node", "id": 429735547, "lat": 52.5264743, "lon": 13.39691, "tags": {"addr:city": "Berlin", "addr:country": "DE", "addr:housenumber": "24", "addr:postcode": "10117", "addr:street": "Auguststraße", "addr:suburb": "Mitte", "amenity": "nightclub", "contact:phone": "+49 30 2829295", "email": "reservierungen@ballhaus.de", "name": "Clärchens Ballhaus", "opening_hours": "Tu-Fr 17:00-23:00; Sa-Su 14:00-23:00", "smoking": "outside", "toilets:wheelchair": "no", "website": "https://www.ballhaus.de/", "wheelchair": "no", "wikidata": "Q1103846", "wikimedia_commons": "Category:Clärchens Ballhaus", "wikipedia": "de:Clärchens Ballhaus"}}, {"type": "node", "id": 438437327, "lat": 52.3670251, "lon": 13.5941103, "tags": {"amenity": "nightclub", "name": "Butze (Kultur Klub Schulzendorf)", "website": "http://www.kultur-klub-online.de", "wheelchair": "yes"}}, {"type": "node", "id": 461623768, "lat": 52.5179462, "lon": 13.441495, "tags": {"amenity": "nightclub", "name": "Sun Chiller Lounge", "old_name": "Café Warschau", "opening_hours": "We-Sa 16:00-24:00+, Su 14:00-24:00+; PH 14:00-24:00+", "wheelchair": "limited"}}, {"type": "node", "id": 475153994, "lat": 52.5086309, "lon": 13.4363946, "tags": {"addr:city": "Berlin", "addr:country": "DE", "addr:housenumber": "8", "addr:postcode": "10243", "addr:street": "Straße der Pariser Kommune", "addr:suburb": "Friedrichshain", "alt_name": "Postbahnhof am Ostbahnhof", "amenity": "nightclub", "contact:email": "events@postbahnhof.com", "contact:facebook": "https://www.facebook.com/PostbahnhofEvent/", "contact:mobile": "+49 152 5374 4760", "contact:website": "https://postbahnhof.com/", "name": "Postbahnhof", "old_name": "Fritzclub", "wheelchair": "yes", "wikidata": "Q62011644", "wikimedia_commons": "Category:Postbahnhof (venue)"}}, {"type": "node", "id": 485353651, "lat": 52.49694, "lon": 13.4540533, "tags": {"addr:city": "Berlin", "addr:country": "DE", "addr:housenumber": "4", "addr:postcode": "12435", "addr:street": "Eichenstraße", "addr:suburb": "Alt-Treptow", "amenity": "nightclub", "contact:facebook": "https://www.facebook.com/ARENABERLIN", "contact:instagram": "https://www.instagram.com/arenaberlin/", "contact:phone": "+49 30 53320339", "contact:website": "http://www.arena-berlin.de", "name": "arena Berlin", "toilets:wheelchair": "yes", "wheelchair": "yes", "wikidata": "Q641323", "wikimedia_commons": "Category:Arena Berlin", "wikipedia": "de:Arena Berlin"}}, {"type": "node", "id": 485354535, "lat": 52.4973833, "lon": 13.4530728, "tags": {"amenity": "nightclub", "name": "Glashaus"}}, {"type": "node", "id": 485640732, "lat": 52.4973901, "lon": 13.4653065, "tags": {"addr:city": "Berlin", "addr:country": "DE", "addr:housenumber": "70", "addr:postcode": "10245", "addr:street": "Alt-Stralau", "addr:suburb": "Friedrichshain", "amenity": "nightclub", "check_date:currency:XBT": "2023-03-07", "contact:fax": "+49 30 25041427", "contact:instagram": "https://www.instagram.com/wilderenate", "contact:phone": "+49 30 25041426", "contact:website": "https://www.renate.cc", "currency:XBT": "yes", "drink:club-mate": "served", "loc_name": "Renate", "name": "Zur Wilden Renate", "name:en": "Wilde Renate", "old_name": "Salon zur Wilden Renate", "opening_hours:description": "\"At night. since 23.00h till early in the morning.\"", "operator": "Zur Wilden Renate oHG", "outdoor_seating": "yes", "payment:credit_cards": "yes", "payment:debit_cards": "yes", "payment:lightning": "yes", "payment:lightning_contactless": "yes", "payment:onchain": "yes", "smoking": "yes", "website": "https://www.renate.cc/", "wheelchair": "no", "wikidata": "Q21036513", "wikipedia": "de:Wilde Renate"}}, {"type": "node", "id": 492849637, "lat": 52.5076615, "lon": 13.454537, "tags": {"addr:city": "Berlin", "addr:country": "DE", "addr:housenumber": "99", "addr:postcode": "10245", "addr:street": "Revaler Straße", "addr:suburb": "Friedrichshain", "amenity": "nightclub", "contact:website": "http://www.raw-tempel.de/", "name": "RAW 99", "wheelchair": "limited"}}, {"type": "node", "id": 621429565, "lat": 52.5091003, "lon": 13.4560428, "tags": {"addr:city": "Berlin", "addr:country": "DE", "addr:housenumber": "32", "addr:postcode": "10245", "addr:street": "Simon-Dach-Straße", "addr:suburb": "Friedrichshain", "amenity": "nightclub", "check_date:opening_hours": "2022-12-05", "name": "Berndhain", "opening_hours:signed": "no"}}, {"type": "node", "id": 652884290, "lat": 52.5336193, "lon": 13.4007592, "tags": {"addr:city": "Berlin", "addr:country": "DE", "addr:housenumber": "21", "addr:postcode": "10119", "addr:street": "Veteranenstraße", "addr:suburb": "Mitte", "amenity": "nightclub", "contact:phone": "+49 30 83030144", "name": "Calabash"}}, {"type": "node", "id": 667842214, "lat": 52.5110197, "lon": 13.4169088, "tags": {"addr:city": "Berlin", "addr:country": "DE", "addr:housenumber": "76", "addr:postcode": "10179", "addr:street": "Köpenicker Straße", "addr:suburb": "Mitte", "amenity": "nightclub", "contact:facebook": "https://www.facebook.com/RockatSageBerlin/", "contact:instagram": "https://www.instagram.com/rockatsage/", "name": "Sage", "note": "subsidiary of KitKat", "toilets:wheelchair": "yes", "website": "https://www.sage-club.de/", "wheelchair": "yes", "wikidata": "Q2211685", "wikipedia": "de:Sage Club"}}, {"type": "node", "id": 670069373, "lat": 52.53567, "lon": 13.401179, "tags": {"addr:city": "Berlin", "addr:country": "DE", "addr:housenumber": "5", "addr:postcode": "10119", "addr:street": "Zionskirchstraße", "addr:suburb": "Mitte", "amenity": "nightclub", "check_date": "2023-06-04", "contact:phone": "+49 179 4261189", "contact:website": "http://www.neueberlinerinitiative.de", "name": "NBI Club", "opening_hours": "Mo-Su 20:00+", "wheelchair": "no"}}, {"type": "node", "id": 729294555, "lat": 52.5112074, "lon": 13.4169157, "tags": {"addr:city": "Berlin", "addr:country": "DE", "addr:housenumber": "76", "addr:postcode": "10179", "addr:street": "Köpenicker Straße", "addr:suburb": "Mitte", "alt_name": "KitKat Club;KitKatClub", "amenity": "nightclub", "contact:phone": "+49 30 7871896", "contact:website": "http://www.kitkatclub.org", "kinky": "yes", "name": "Kit Kat Club", "smoking": "yes", "toilets:wheelchair": "yes", "wheelchair": "limited", "wikidata": "Q322135", "wikimedia_commons": "Category:KitKatClub", "wikipedia": "de:KitKatClub"}}, {"type": "node", "id": 736787851, "lat": 52.526786, "lon": 13.4107036, "tags": {"access": "customers", "addr:city": "Berlin", "addr:country": "DE", "addr:housenumber": "41", "addr:postcode": "10178", "addr:street": "Rosa-Luxemburg-Straße", "addr:suburb": "Mitte", "amenity": "nightclub", "entrance": "yes", "name": "1820", "opening_hours": "Mo-Su 19:00-00:00", "phone": "+493081453960", "smoking": "yes", "website": "https://www.belushis.com/bars/berlin", "wheelchair": "no"}}, {"type": "node", "id": 739305494, "lat": 52.4655581, "lon": 13.3860876, "tags": {"addr:city": "Berlin", "addr:country": "DE", "addr:housenumber": "17", "addr:postcode": "12099", "addr:street": "Alt-Tempelhof", "addr:suburb": "Tempelhof", "amenity": "nightclub", "brothel:swingerclub": "events", "description": "Erotic Nightclub", "email": "dominique@insomnia-berlin.de", "fax": "+49 30 51654143", "kinky": "yes", "min_age": "18", "mobile": "+49 177 2333878", "name": "Insomnia", "opening_hours": "Tu 19:00-02:00, We 20:00-02:00, Th 14:00-24:00; Fr-Sa 22:00+, Su 19:00-02:00", "operator": "Insomnia GbR", "phone": "+49 30 51654143", "website": "https://www.insomnia-berlin.de/"}}, {"type": "node", "id": 821646254, "lat": 52.5156316, "lon": 13.452579, "tags": {"addr:city": "Berlin", "addr:country": "DE", "addr:postcode": "10243", "addr:street": "Karl-Marx-Allee", "addr:suburb": "Friedrichshain", "amenity": "nightclub", "check_date:opening_hours": "2023-11-29", "name": "Abgedreht Klub", "opening_hours:signed": "no"}}, {"type": "node", "id": 898983650, "lat": 52.4972653, "lon": 13.2932442, "tags": {"addr:city": "Berlin", "addr:country": "DE", "addr:housenumber": "133/134", "addr:postcode": "10711", "addr:street": "Kurfürstendamm", "addr:suburb": "Halensee", "amenity": "nightclub", "contact:website": "http://night-lounge.net/", "name": "K133 Night Lounge", "wheelchair": "no"}}, {"type": "node", "id": 910429971, "lat": 52.5320796, "lon": 13.380294, "tags": {"addr:city": "Berlin", "addr:country": "DE", "addr:housenumber": "102", "addr:postcode": "10115", "addr:street": "Chausseestraße", "addr:suburb": "Mitte", "amenity": "nightclub", "email": "info@ballhaus-berlin.de", "facebook": "https://www.facebook.com/ballhaus.berlin", "image": "https://media04.berliner-woche.de/event/2016/05/18/6/16526_XXL.png", "instagram": "https://www.instagram.com/ballhausberlin/", "name": "Ballhaus Berlin", "opening_hours": "Mo-Sa 15:00-04:00, Su 15:00-01:00", "operator": "Ballhaus Berlin GmbH", "phone": "+49 30 2827575", "start_date": "1905", "website": "https://www.ballhaus-berlin.de/", "wheelchair": "yes", "wikimedia_commons": "File:Ballhaus Berlin Chausseestraße.jpg"}}, {"type": "node", "id": 918183904, "lat": 52.5161783, "lon": 13.3899473, "tags": {"addr:city": "Berlin", "addr:country": "DE", "addr:housenumber": "8", "addr:postcode": "10117", "addr:street": "Rosmarinstraße", "addr:suburb": "Mitte", "amenity": "nightclub", "contact:phone": "+49 30 544 69663", "name": "Club R8", "website": "http://www.clubr8.com/", "wheelchair": "limited"}}, {"type": "node", "id": 959344243, "lat": 52.4794629, "lon": 13.4337837, "tags": {"addr:city": "Berlin", "addr:country": "DE", "addr:housenumber": "26", "addr:postcode": "12053", "addr:street": "Rollbergstraße", "addr:suburb": "Neukölln", "amenity": "nightclub", "contact:email": "pr@schwuz.de", "contact:fax": "+49 30 5770 227-10", "contact:phone": "+49 30 5770 227-0", "contact:website": "http://www.schwuz.de", "email": "pr@schwuz.de", "fax": "+49 30 5770 227-10", "gay": "yes", "image": "https://www.schwuz.de/wp-content/uploads/2022/03/2013-gruendung-schwuz-verwaltungs-gmbh-berlin.jpg", "lgbtq": "primary", "name": "SchwuZ", "operator": "SchwuZ Kulturveranstaltungs GmbH", "phone": "+49 30 5770 227-0", "smoking": "isolated", "toilets:wheelchair": "yes", "website": "http://www.schwuz.de", "wheelchair": "yes", "wikidata": "Q834245", "wikimedia_commons": "Category:SchwuZ", "wikipedia": "de:SchwuZ"}}, {"type": "node", "id": 959625062, "lat": 52.4852704, "lon": 13.3534485, "tags": {"addr:city": "Berlin", "addr:housenumber": "30", "addr:postcode": "10827", "addr:street": "Hauptstraße", "alt_name": "Havanna Club", "amenity": "nightclub", "name": "Havanna", "opening_hours": "We 20:00+; Fr-Sa 22:00+", "phone": "+49 30 788 996 55", "start_date": "1997", "website": "https://www.havanna-berlin.de/", "wheelchair": "yes"}}, {"type": "node", "id": 975700421, "lat": 52.4864896, "lon": 13.4217418, "tags": {"addr:city": "Berlin", "addr:country": "DE", "addr:housenumber": "107-113", "addr:postcode": "10967", "addr:street": "Hasenheide", "addr:suburb": "Neukölln", "amenity": "nightclub", "contact:phone": "+49 30 78099810", "contact:website": "https://huxleysneuewelt.com/", "name": "Huxleys Neue Welt", "toilets:wheelchair": "yes", "wheelchair": "yes"}}, {"type": "node", "id": 979969868, "lat": 52.5030121, "lon": 13.4081361, "tags": {"addr:city": "Berlin", "addr:country": "DE", "addr:housenumber": "26", "addr:postcode": "10969", "addr:street": "Ritterstraße", "addr:suburb": "Kreuzberg", "amenity": "nightclub", "contact:facebook": "https://facebook.com/ritterbutzkeberlin", "contact:ra": "https://ra.co/clubs/6950", "contact:website": "https://club.ritterbutzke.com", "image": "https://www.theclubmap.com/wp-content/uploads/2021/09/ritter-butzke-club-berlin-7.jpg", "name": "Ritter Butzke", "operator": "Ritter Butzke Production UG", "short_name": "Butzke", "wheelchair": "yes", "wheelchair:description": "WC war gerade kaputt, ansonsten im EG alles ok erreichbar", "wikidata": "Q21036533", "wikipedia": "de:Ritter Butzke"}}, {"type": "node", "id": 984158735, "lat": 52.5050011, "lon": 13.3280883, "tags": {"addr:city": "Berlin", "addr:country": "DE", "addr:housenumber": "81", "addr:postcode": "10623", "addr:street": "Fasanenstraße", "addr:suburb": "Charlottenburg", "amenity": "nightclub", "contact:website": "http://www.thepearl-berlin.de/", "entrance": "main", "image": "https://architizer-prod.imgix.net/media/1423331932184Lounge_02.JPG", "name": "The Pearl", "toilets:wheelchair": "yes", "wheelchair": "yes"}}, {"type": "node", "id": 988192687, "lat": 52.4835867, "lon": 13.390553, "tags": {"amenity": "nightclub", "name": "Silverwings", "website": "https://silverwings.de/", "wheelchair": "no", "wheelchair:description": "Befindet sich im 1. Stock. Achtung: Ignoriert das Nichtraucherschutzgesetz."}}, {"type": "node", "id": 1077583254, "lat": 52.5054899, "lon": 13.3022495, "tags": {"addr:city": "Berlin", "addr:country": "DE", "addr:housenumber": "63", "addr:postcode": "10627", "addr:street": "Kaiser-Friedrich-Straße", "addr:suburb": "Charlottenburg", "amenity": "nightclub", "name": "Golden Gate"}}, {"type": "node", "id": 1144034120, "lat": 52.5229379, "lon": 13.4034635, "tags": {"addr:city": "Berlin", "addr:country": "DE", "addr:housenumber": "2", "addr:postcode": "10178", "addr:street": "Am Zwirngraben", "addr:suburb": "Mitte", "amenity": "nightclub", "contact:phone": "+49-30-24085301", "name": "am to pm", "opening_hours": "Mo-Su 12:00-00:00", "toilets:wheelchair": "no", "url": "http://www.amtopm.de/", "wheelchair": "no"}}, {"type": "node", "id": 1145853246, "lat": 52.5217615, "lon": 13.4075481, "tags": {"addr:city": "Berlin", "addr:country": "DE", "addr:housenumber": "11", "addr:postcode": "10178", "addr:street": "Karl-Liebknecht-Straße", "addr:suburb": "Mitte", "amenity": "nightclub", "contact:phone": "+49302828593", "music_genre": "schlager", "name": "Hafenbar", "opening_hours": "Fr-Sa 21:00-05:00", "website": "https://www.hafenbar-berlin.de/", "wheelchair": "no"}}, {"type": "node", "id": 1162812586, "lat": 52.5229029, "lon": 13.4164231, "tags": {"addr:city": "Berlin", "addr:country": "DE", "addr:housenumber": "7", "addr:postcode": "10178", "addr:street": "Alexanderstraße", "addr:suburb": "Mitte", "amenity": "nightclub", "contact:phone": "+49 30 24631676", "contact:website": "http://www.week-end-berlin.de/", "name": "Weekend Club", "opening_hours": "Fr,Tu 22:00-06:00, Sa 19:00-06:00", "wheelchair": "limited"}}, {"type": "node", "id": 1165008486, "lat": 52.5395232, "lon": 13.4142448, "tags": {"addr:city": "Berlin", "addr:country": "DE", "addr:housenumber": "97", "addr:postcode": "10435", "addr:street": "Knaackstraße", "addr:suburb": "Prenzlauer Berg", "amenity": "nightclub", "check_date": "2023-11-10", "internet_access": "no", "level": "1", "name": "Soda Club", "opening_hours": "Th,So 19:00-02:00; Fr-Sa 22:00-06:00", "payment:cash": "yes", "payment:credit_cards": "yes", "payment:debit_cards": "yes", "payment:free": "yes", "website": "https://www.soda-berlin.de/", "wheelchair": "limited"}}, {"type": "node", "id": 1228317932, "lat": 52.5114893, "lon": 13.3084909, "tags": {"addr:city": "Berlin", "addr:country": "DE", "addr:housenumber": "90", "addr:postcode": "10627", "addr:street": "Bismarckstraße", "addr:suburb": "Charlottenburg", "amenity": "nightclub", "check_date": "2023-11-27", "contact:phone": "+49 172 3858879", "contact:website": "https://www.tabuclub.de/", "level": "0", "name": "Tabu", "wheelchair": "limited"}}, {"type": "node", "id": 1255437354, "lat": 52.553279, "lon": 13.415789, "tags": {"addr:city": "Berlin", "addr:country": "DE", "addr:housenumber": "3", "addr:postcode": "10439", "addr:street": "Wisbyer Straße", "addr:suburb": "Prenzlauer Berg", "amenity": "nightclub", "bar": "yes", "name": "Club Maitresse", "wheelchair": "no"}}, {"type": "node", "id": 1282629054, "lat": 52.5010412, "lon": 13.445176, "tags": {"addr:city": "Berlin", "addr:country": "DE", "addr:housenumber": "49", "addr:postcode": "10997", "addr:street": "Falckensteinstraße", "addr:suburb": "Kreuzberg", "amenity": "nightclub", "contact:facebook": "https://www.facebook.com/watergate.club", "contact:instagram": "https://www.instagram.com/watergate.club.official", "contact:phone": "+49 30 61280394", "contact:ra": "https://ra.co/clubs/3213", "contact:website": "http://www.water-gate.de", "name": "Watergate", "toilets:wheelchair": "yes", "wheelchair": "limited", "wikidata": "Q3566680", "wikimedia_commons": "Category:Watergate (Berlin)", "wikipedia": "de:Watergate (Club)"}}, {"type": "node", "id": 1310466406, "lat": 52.5121321, "lon": 13.3932376, "tags": {"addr:city": "Berlin", "addr:housenumber": "30", "addr:postcode": "10117", "addr:street": "Mohrenstraße", "amenity": "nightclub", "name": "BRICKS Club", "operator": "BRICKS Gastronomie GmbH", "website": "https://bricks-berlin.club", "wheelchair": "yes"}}, {"type": "node", "id": 1361259244, "lat": 52.503615, "lon": 13.448261, "tags": {"addr:city": "Berlin", "addr:country": "DE", "addr:housenumber": "18", "addr:postcode": "10245", "addr:street": "Warschauer Platz", "addr:suburb": "Friedrichshain", "amenity": "nightclub", "check_date": "2023-11-03", "contact:facebook": "https://www.facebook.com/diebuscheberlin", "contact:instagram": "https://www.instagram.com/discothek_die_busche/", "contact:phone": "+49 30 2960800", "contact:website": "http://www.diebusche.de", "email": "mail@diebusche.de", "gay": "yes", "lgbtq": "primary", "name": "Die Busche", "opening_hours": "We 23:00-05:00,Fr 22:00-07:00,Sa 22:00-07:00", "phone": "+49 30 2960800", "toilets:wheelchair": "yes", "wheelchair": "limited"}}, {"type": "node", "id": 1370001597, "lat": 52.5032996, "lon": 13.4087274, "tags": {"addr:city": "Berlin", "addr:housenumber": "85f", "addr:postcode": "10969", "addr:street": "Prinzenstraße", "amenity": "nightclub", "contact:email": "info@princecharlesberlin.com", "contact:website": "https://www.princecharlesberlin.com/", "image": "https://groove.de/wp-content/uploads/2019/05/prince-charles-final.jpg", "name": "Prince Charles", "smoking": "yes", "wheelchair": "yes"}}, {"type": "node", "id": 1402543376, "lat": 52.5040556, "lon": 13.3379413, "tags": {"addr:city": "Berlin", "addr:country": "DE", "addr:housename": "Europa-Center", "addr:housenumber": "9-12", "addr:postcode": "10789", "addr:street": "Tauentzienstraße", "addr:suburb": "Charlottenburg", "amenity": "nightclub", "contact:website": "http://www.puroberlin.de/", "level": "20", "name": "Puro Sky Lounge Berlin"}}, {"type": "node", "id": 1429037824, "lat": 52.4965979, "lon": 13.4203676, "tags": {"addr:city": "Berlin", "addr:country": "DE", "addr:housenumber": "26 A", "addr:postcode": "10999", "addr:street": "Mariannenstraße", "addr:suburb": "Kreuzberg", "amenity": "nightclub", "contact:phone": "+493084118433", "contact:website": "http://dashotelclassic.blogspot.com/", "name": "Das Hotel", "wheelchair": "no"}}, {"type": "node", "id": 1450635676, "lat": 52.5271131, "lon": 13.4116224, "tags": {"addr:city": "Berlin", "addr:country": "DE", "addr:housenumber": "1", "addr:postcode": "10178", "addr:street": "Rosa-Luxemburg-Platz", "addr:suburb": "Mitte", "amenity": "nightclub", "name": "Roter Salon", "opening_hours": "Mo-Sa 11:00-18:00", "operator": "Volksbühne am Rosa-Luxemburg-Platz", "wheelchair": "no"}}, {"type": "node", "id": 1485800803, "lat": 52.5136642, "lon": 13.4727613, "tags": {"addr:city": "Berlin", "addr:country": "DE", "addr:housenumber": "98", "addr:postcode": "10247", "addr:street": "Frankfurter Allee", "addr:suburb": "Friedrichshain", "amenity": "nightclub", "contact:phone": "+4917144 43 881", "contact:website": "http://www.triplex-club.de", "name": "Triplex Club", "wheelchair": "no"}}, {"type": "node", "id": 1667559178, "lat": 52.5007558, "lon": 13.4414613, "tags": {"amenity": "nightclub", "leisure": "music_venue", "name": "Bi Nuu", "toilets:wheelchair": "yes", "website": "http://www.bi-nuu.de/", "wheelchair": "yes"}}, {"type": "node", "id": 1693456696, "lat": 52.4192321, "lon": 13.4982998, "tags": {"amenity": "nightclub", "name": "ReMix"}}, {"type": "node", "id": 1724527904, "lat": 52.531751, "lon": 13.499794, "tags": {"amenity": "nightclub", "name": "Tollhaus", "source": "TOLLHAUS"}}, {"type": "node", "id": 1820069776, "lat": 52.5235538, "lon": 13.4069893, "tags": {"addr:city": "Berlin", "addr:country": "DE", "addr:housenumber": "40", "addr:postcode": "10178", "addr:street": "Dircksenstraße", "addr:suburb": "Mitte", "amenity": "nightclub", "contact:email": "mail@b-flat-berlin.de", "contact:phone": "+49 30 2833123", "contact:website": "http://b-flat-berlin.de/", "level": "-1", "live_music": "yes", "name": "b-flat", "opening_hours": "Mo-Su 20:00-01:00", "outdoor_seating": "no", "payment:cash": "yes", "payment:credit_cards": "no", "payment:debit_cards": "no", "wheelchair": "no"}}, {"type": "node", "id": 1882869375, "lat": 52.4990172, "lon": 13.3424928, "tags": {"addr:city": "Berlin", "addr:country": "DE", "addr:housenumber": "33", "addr:postcode": "10777", "addr:street": "Fuggerstraße", "addr:suburb": "Schöneberg", "amenity": "nightclub", "contact:email": "info@connection-berlin.de", "contact:fax": "+49 30 2177686", "contact:phone": "+49 30 2181432", "contact:website": "http://www.connection-berlin.de", "cruising": "yes", "gay": "yes", "gay:men": "only", "lgbtq": "primary", "lgbtq:cruising": "yes", "lgbtq:men": "only", "name": "Connection", "opening_hours": "Mo-Th 10:00-01:00, Fr-Sa 10:00-05:00, Su 14:00-01:00", "operator": "Michael Sonntag, Michael Klatt", "wheelchair": "limited"}}, {"type": "node", "id": 1897123562, "lat": 52.5029678, "lon": 13.4411582, "tags": {"amenity": "nightclub", "name": "FluxBau", "toilets:wheelchair": "no", "website": "https://www.fluxfm.de/fluxbau/", "wheelchair": "no"}}, {"type": "node", "id": 1934211315, "lat": 52.504062, "lon": 13.3224146, "tags": {"addr:city": "Berlin", "addr:country": "DE", "addr:housenumber": "77", "addr:postcode": "10623", "addr:street": "Knesebeckstraße", "addr:suburb": "Charlottenburg", "amenity": "nightclub", "name": "Vagabund Club", "opening_hours": "00:00+", "opening_hours:signed": "no", "website": "http://www.vagabund-berlin.com/", "wheelchair": "limited"}}, {"type": "node", "id": 1941952571, "lat": 52.4993312, "lon": 13.4242521, "tags": {"addr:city": "Berlin", "addr:country": "DE", "addr:housenumber": "114", "addr:postcode": "10999", "addr:street": "Skalitzer Straße", "addr:suburb": "Kreuzberg", "amenity": "nightclub", "contact:email": "mail@bulbulberlin.de", "contact:facebook": "https://www.facebook.com/BulbulBerlin/", "contact:phone": "+49 30 53091711", "name": "Bulbul Berlin"}}, {"type": "node", "id": 1954332576, "lat": 52.5344022, "lon": 13.3597082, "tags": {"addr:city": "Berlin", "addr:country": "DE", "addr:housenumber": "35", "addr:postcode": "10557", "addr:street": "Lehrter Straße", "addr:suburb": "Moabit", "amenity": "nightclub", "contact:phone": "+49 30 3975056", "email": "info@slaughterhouse-berlin.de", "name": "Slaughterhouse", "toilets:wheelchair": "yes", "website": "https://www.slaughterhouse-berlin.de/", "wheelchair": "limited"}}, {"type": "node", "id": 2126202628, "lat": 52.551145, "lon": 13.3672515, "tags": {"addr:city": "Berlin", "addr:country": "DE", "addr:housenumber": "74", "addr:postcode": "13347", "addr:street": "Reinickendorfer Straße", "addr:suburb": "Wedding", "amenity": "nightclub", "contact:phone": "+49 157 79 13 79 14", "name": "Orchidea", "wheelchair": "no", "wheelchair:description": "eine Rollstuhlrampe wird auf Anfrage ausgelegt"}}, {"type": "node", "id": 2147941967, "lat": 52.5000715, "lon": 13.4348491, "tags": {"addr:city": "Berlin", "addr:country": "DE", "addr:housenumber": "85-86", "addr:postcode": "10997", "addr:street": "Skalitzer Straße", "addr:suburb": "Kreuzberg", "amenity": "nightclub", "contact:facebook": "https://www.facebook.com/privatclub", "contact:instagram": "https://www.instagram.com/privatclub_berlin/", "contact:website": "http://www.privatclub-berlin.de", "leisure": "music_venue", "name": "Privatclub", "opening_hours:office": "Mo-Fr 11:00-16:00", "opening_hours:signed": "no", "operator": "Milchmädchen Musikkultur GmbH", "phone": "+49 30 35522598", "toilets:wheelchair": "yes", "wheelchair": "yes", "wheelchair:description": "Es gibt zwar eine rollstuhlgerechte Toilette, aber auch Treppen am Eingang. Man kann wohl hinten rum über einen Lastenaufzug...", "wikidata": "Q105762300"}}, {"type": "node", "id": 2147953685, "lat": 52.5029659, "lon": 13.4474984, "tags": {"amenity": "nightclub", "name": "Metrom Lounge"}}, {"type": "node", "id": 2188253833, "lat": 52.5008789, "lon": 13.3311044, "tags": {"addr:city": "Berlin", "addr:housenumber": "25", "addr:postcode": "10719", "addr:street": "Joachimsthaler Straße", "amenity": "nightclub", "name": "The Door", "unused:amenity": "nightclub", "website": "https://thedoor.club/", "wheelchair": "limited"}}, {"type": "node", "id": 2347398754, "lat": 52.5019061, "lon": 13.3308361, "tags": {"addr:city": "Berlin", "addr:country": "DE", "addr:housenumber": "15", "addr:postcode": "10719", "addr:street": "Joachimsthaler Straße", "addr:suburb": "Charlottenburg", "amenity": "nightclub", "name": "Maxxim Club", "phone": "+49 30 41766240", "wheelchair": "no"}}, {"type": "node", "id": 2381034158, "lat": 52.4961326, "lon": 13.4351165, "tags": {"amenity": "nightclub", "name": "Reset", "opening_hours": "\"abhängig von Veranstaltungen\"", "toilets:wheelchair": "no", "wheelchair": "no"}}, {"type": "node", "id": 2435092394, "lat": 52.4643506, "lon": 13.4333842, "tags": {"addr:city": "Berlin", "addr:country": "DE", "addr:housenumber": "146", "addr:postcode": "12051", "addr:street": "Hermannstraße", "addr:suburb": "Neukölln", "alt_name": "Hole Berlin", "amenity": "nightclub", "name": "Hole 44", "website": "https://hole-berlin.de/"}}, {"type": "node", "id": 2665268971, "lat": 52.502437, "lon": 13.4311437, "tags": {"amenity": "nightclub", "contact:facebook": "https://www.facebook.com/auster.berlin/", "name": "Auster-Club", "opening_hours": "Mo-Su 12:00-18:00+", "smoking": "isolated", "wheelchair": "no"}}, {"type": "node", "id": 2774920018, "lat": 52.4810266, "lon": 13.4293652, "tags": {"amenity": "nightclub", "culture": "kleinkunst", "name": "The Zone", "smoking": "yes", "website": "http://www.thezoneberlin.org/"}}, {"type": "node", "id": 2876098523, "lat": 52.5105954, "lon": 13.4197888, "tags": {"addr:city": "Berlin", "addr:country": "DE", "addr:housenumber": "70", "addr:postcode": "10179", "addr:street": "Köpenicker Straße", "addr:suburb": "Mitte", "amenity": "nightclub", "contact:facebook": "https://www.facebook.com/shiftberlin", "contact:instagram": "https://www.instagram.com/ohmberlin/", "name": "Ohm", "website": "http://www.ohmberlin.com/"}}, {"type": "node", "id": 2968181705, "lat": 52.5126865, "lon": 13.4247322, "tags": {"addr:city": "Berlin", "addr:country": "DE", "addr:housenumber": "25", "addr:postcode": "10243", "addr:street": "Holzmarktstraße", "addr:suburb": "Friedrichshain", "amenity": "nightclub", "entrance": "main", "name": "Säälchen", "website": "https://meow.berlin/project/saalchen/"}}, {"type": "node", "id": 3121055734, "lat": 52.5261173, "lon": 13.393681, "tags": {"addr:city": "Berlin", "addr:country": "DE", "addr:housenumber": "32", "addr:postcode": "10117", "addr:street": "Tucholskystraße", "addr:suburb": "Mitte", "amenity": "nightclub", "name": "Flow Bar", "opening_hours": "Su,Mo,Tu off, We,Th 21:00-05:00, Fr,Sa 21:00-06:00", "toilets:wheelchair": "no", "wheelchair": "no"}}, {"type": "node", "id": 3298592393, "lat": 52.5112236, "lon": 13.3961493, "tags": {"amenity": "nightclub", "name": "Konzulát", "opening_hours:signed": "no"}}, {"type": "node", "id": 3469247893, "lat": 52.5395329, "lon": 13.4136676, "tags": {"addr:city": "Berlin", "addr:country": "DE", "addr:housenumber": "97", "addr:postcode": "10435", "addr:street": "Knaackstraße", "addr:suburb": "Prenzlauer Berg", "amenity": "nightclub", "contact:phone": "+49 30 44341952", "mapillary": "458394502129423", "name": "Alte Kantine", "opening_hours": "Mo 22:00-06:00; Th 22:00-05:00; Fr 19:00-06:00; Sa 20:00-06:30", "smoking": "isolated", "toilets:wheelchair": "yes", "website": "https://alte-kantine.eu", "wheelchair": "limited"}}, {"type": "node", "id": 3610779779, "lat": 52.5075429, "lon": 13.4758087, "tags": {"addr:city": "Berlin", "addr:country": "DE", "addr:housenumber": "5", "addr:postcode": "10365", "addr:street": "Wiesenweg", "addr:suburb": "Lichtenberg", "amenity": "nightclub", "contact:website": "http://www.void-club.de/", "name": "Void"}}, {"type": "node", "id": 3777579770, "lat": 52.4260543, "lon": 13.4833923, "tags": {"amenity": "nightclub", "check_date": "2023-07-23", "name": "Top Disco Berlin", "opening_hours": "Fr,Sa 22:00+", "phone": "+49 30 720 15 430", "toilets:wheelchair": "yes", "website": "http://topdisco-berlin.de/home/", "wheelchair": "yes"}}, {"type": "node", "id": 3783242657, "lat": 52.5226335, "lon": 13.4092179, "tags": {"addr:city": "Berlin", "addr:country": "DE", "addr:housenumber": "123-124", "addr:postcode": "10178", "addr:street": "Dircksenstraße", "addr:suburb": "Mitte", "amenity": "nightclub", "name": "M-BIA", "opening_hours": "We 23:00-07:00; Fr-Sa 23:00-09:00"}}, {"type": "node", "id": 3783290025, "lat": 52.5335177, "lon": 13.4008094, "tags": {"addr:city": "Berlin", "addr:country": "DE", "addr:housenumber": "21", "addr:postcode": "10119", "addr:street": "Veteranenstraße", "addr:suburb": "Mitte", "amenity": "nightclub", "name": "ACUD", "wheelchair": "limited"}}, {"type": "node", "id": 3783296627, "lat": 52.5075016, "lon": 13.3718571, "tags": {"addr:city": "Berlin", "addr:housenumber": "1", "addr:postcode": "10785", "addr:street": "Marlene-Dietrich-Platz", "amenity": "nightclub", "name": "Adagio", "wheelchair": "yes"}}, {"type": "node", "id": 3783307323, "lat": 52.5975687, "lon": 13.3526876, "tags": {"addr:city": "Berlin", "addr:housenumber": "142c", "addr:postcode": "13439", "addr:street": "Wilhelmsruher Damm", "addr:suburb": "Märkisches Viertel", "amenity": "nightclub", "name": "American Western Saloon", "toilets:wheelchair": "yes", "wheelchair": "limited"}}, {"type": "node", "id": 3826455881, "lat": 52.4987104, "lon": 13.3479726, "tags": {"addr:city": "Berlin", "addr:country": "DE", "addr:housenumber": "7", "addr:postcode": "10777", "addr:street": "Kalckreuthstraße", "addr:suburb": "Schöneberg", "amenity": "nightclub", "min_age": "18", "name": "Pussy Cat", "opening_hours": "Mo-Su 18:00-06:00", "phone": "+49 30 2133586", "smoking": "yes", "website": "http://www.pussycat-berlin.de", "wheelchair": "no"}}, {"type": "node", "id": 3830239588, "lat": 52.5044307, "lon": 13.3534385, "tags": {"addr:city": "Berlin", "addr:housenumber": "9", "addr:postcode": "10785", "addr:street": "Lützowplatz", "amenity": "nightclub", "name": "Trompete", "website": "https://trompete-berlin.de/", "wheelchair": "no"}}, {"type": "node", "id": 3838242274, "lat": 52.4975889, "lon": 13.4510911, "tags": {"addr:city": "Berlin", "addr:country": "DE", "addr:housenumber": "2b", "addr:postcode": "10997", "addr:street": "Vor dem Schlesischen Tor", "addr:suburb": "Kreuzberg", "amenity": "nightclub", "contact:facebook": "https://www.facebook.com/ipse.offline/", "contact:phone": "+49 30 61074309", "name": "Ipse", "toilets:wheelchair": "yes", "wheelchair": "limited"}}, {"type": "node", "id": 4034138645, "lat": 52.5003909, "lon": 13.4221612, "tags": {"addr:city": "Berlin", "addr:country": "DE", "addr:housename": "SO36", "addr:housenumber": "190", "addr:postcode": "10999", "addr:street": "Oranienstraße", "addr:suburb": "Kreuzberg", "amenity": "nightclub", "contact:email": "post@so36.de", "contact:facebook": "https://www.facebook.com/pages/_/171604075171", "contact:phone": "+49 30 61401306", "contact:qype": "https://www.qype.com/place/3091", "contact:website": "https://www.so36.de", "contact:yelp": "https://www.yelp.com/biz/so36-berlin", "description": "concert collective;concert venue;events", "identity": "solidarity_economy", "name": "SO36", "opening_hours": "\"Je nach Programm\"", "provides": "culture;spaces", "smoking": "isolated", "source": "Solikon 2015", "toilets:wheelchair": "yes", "wheelchair": "yes", "wheelchair:description": "Rampe am Eingang wird auf Nachfrage hingelegt;Drinnen: Rollstuh auf ein Podest heben zum Konzert schauen", "wikidata": "Q561850", "wikimedia_commons": "Category:SO36", "wikipedia": "de:SO36"}}, {"type": "node", "id": 4118217590, "lat": 52.4613006, "lon": 13.4442907, "tags": {"addr:city": "Berlin", "addr:housenumber": "14", "addr:postcode": "12347", "addr:street": "Jahnstraße", "amenity": "nightclub", "name": "Stella Berlin", "opening_hours": "Mo-Fr 09:00-21:00; Sa-Su 11:00-20:00", "phone": "+49 30 61740855", "website": "https://stella-berlin.de/"}}, {"type": "node", "id": 4172803384, "lat": 52.5312243, "lon": 13.4115684, "tags": {"addr:city": "Berlin", "addr:country": "DE", "addr:housenumber": "177 B", "addr:postcode": "10119", "addr:street": "Schönhauser Allee", "addr:suburb": "Prenzlauer Berg", "amenity": "nightclub", "email": "info@8mmbar.de", "facebook": "https://www.facebook.com/8millimeterbar/", "instagram": "https://www.instagram.com/8mmbar/", "name": "8MM", "opening_hours": "Su-Th 19:00-04:00, Fr-Sa 19:00-06:00", "operator": "8MM Bar Veranstaltungs GmbH", "smoking": "yes", "website": "https://www.8mmbar.de/", "wheelchair": "no"}}, {"type": "node", "id": 4217156190, "lat": 52.5174812, "lon": 13.419024, "tags": {"addr:city": "Berlin", "addr:country": "DE", "addr:housenumber": "31", "addr:postcode": "10179", "addr:street": "Schillingstraße", "amenity": "nightclub", "contact:email": "info@beate-uwe.de", "contact:facebook": "https://www.facebook.com/beateuweberlin/events", "contact:ra": "https://ra.co/clubs/98993", "contact:website": "https://beate-uwe.de", "min_age": "18", "name": "Beate Uwe", "operator": "Javid und Ücel GbR", "wheelchair": "yes"}}, {"type": "node", "id": 4236204189, "lat": 52.5172277, "lon": 13.305791, "tags": {"addr:housenumber": "5", "addr:place": "Richard-Wagner-Platz", "addr:postcode": "10585", "amenity": "nightclub", "email": "info@misalsa.de", "name": "MiSalsa", "opening_hours": "Fr-Sa 22:00-05:00", "operator": "Humberto Castillo", "phone": "+493034540769", "website": "https://misalsa.de", "wheelchair": "no"}}, {"type": "node", "id": 4239911047, "lat": 52.4893117, "lon": 13.3803809, "tags": {"addr:city": "Berlin", "addr:country": "DE", "addr:housename": "62", "addr:postcode": "10965", "addr:street": "Kreuzbergstraße", "addr:suburb": "Kreuzberg", "amenity": "nightclub", "dance:style": "tango", "leisure": "dance", "name": "Festsaal der Villa Kreuzberg"}}, {"type": "node", "id": 4283150545, "lat": 52.4966889, "lon": 13.4204411, "tags": {"amenity": "nightclub", "name": "Cake Club"}}, {"type": "node", "id": 4458466133, "lat": 52.564751, "lon": 13.5048839, "tags": {"addr:city": "Berlin", "addr:housenumber": "12", "addr:postcode": "13051", "addr:street": "Prerower Platz", "amenity": "nightclub", "name": "KISS Lounge"}}, {"type": "node", "id": 4574958092, "lat": 52.5046309, "lon": 13.327462, "tags": {"amenity": "nightclub", "name": "Vitrin", "wheelchair": "yes"}}, {"type": "node", "id": 4784529624, "lat": 52.5267961, "lon": 13.3908678, "tags": {"addr:housenumber": "144", "addr:postcode": "10115", "addr:street": "Linienstraße", "amenity": "nightclub", "name": "Geheimclub (Annika von Trier)", "website": "https://annika-von-trier.com/geheimclub/"}}, {"type": "node", "id": 4815124323, "lat": 52.4951405, "lon": 13.4625984, "tags": {"addr:city": "Berlin", "addr:country": "DE", "addr:housenumber": "10", "addr:postcode": "12435", "addr:street": "An den Treptowers", "addr:suburb": "Alt-Treptow", "amenity": "nightclub", "check_date": "2023-05-23", "contact:website": "http://else.tv/", "name": "Else", "opening_hours": "Tu-Sa 16:00+", "wheelchair": "no"}}, {"type": "node", "id": 4870128450, "lat": 52.5106807, "lon": 13.419484, "tags": {"addr:city": "Berlin", "addr:country": "DE", "addr:housenumber": "70", "addr:postcode": "10179", "addr:street": "Köpenicker Straße", "addr:suburb": "Mitte", "amenity": "nightclub", "contact:facebook": "http://www.facebook.com/tresorberlin", "contact:phone": "+49 30 6953770", "contact:ra": "https://ra.co/clubs/5494", "contact:website": "https://tresorberlin.com", "name": "Tresor Berlin", "operator": "Tresor Berlin GmbH", "start_date": "2007", "toilets:wheelchair": "yes", "wheelchair": "yes", "wikidata": "Q678186", "wikipedia": "de:Tresor (Club)"}}, {"type": "node", "id": 4894544353, "lat": 52.4322129, "lon": 13.4615989, "tags": {"addr:city": "Berlin", "addr:country": "DE", "addr:housenumber": "261", "addr:postcode": "12351", "addr:street": "Johannisthaler Chaussee", "addr:suburb": "Buckow", "amenity": "nightclub", "contact:website": "http://blackwhite-danceclub.de/", "facebook": "https://www.facebook.com/people/BLACK-WHITE-DANCE-CLUB/100049051157624/", "fixme": "Website ist down, die Betreibergesellschaft insolvent, existiert der Club noch?", "name": "BlackWhite Danceclub", "opening_hours": "Fr 22:00+, Sa 21:00+", "wheelchair": "no"}}, {"type": "node", "id": 5155961321, "lat": 52.5075831, "lon": 13.4545322, "tags": {"addr:postcode": "10245", "amenity": "nightclub", "contact:facebook": "DerWeisseHaseBerlin", "name": "Der Weiße Hase", "name:en": "The White Rabbit", "name:es": "Conejo Blanco", "phone": "+49 174 1976833"}}, {"type": "node", "id": 5244438075, "lat": 52.4764177, "lon": 13.4598687, "tags": {"addr:city": "Berlin", "addr:housenumber": "11", "addr:postcode": "12057", "addr:street": "Ziegrastraße", "amenity": "nightclub", "name": "Internet Explorer"}}, {"type": "node", "id": 5305102278, "lat": 52.4903952, "lon": 13.4363447, "tags": {"addr:city": "Berlin", "addr:housenumber": "48", "addr:postcode": "12045", "addr:street": "Maybachufer", "amenity": "nightclub", "contact:facebook": "https://www.facebook.com/christakupferberlin/", "name": "Christa Kupfer"}}, {"type": "node", "id": 5538064423, "lat": 52.497568, "lon": 13.4496246, "tags": {"amenity": "nightclub", "name": "Burg Schnabel"}}, {"type": "node", "id": 5838965221, "lat": 52.4806929, "lon": 13.4330336, "tags": {"addr:city": "Berlin", "addr:country": "DE", "addr:housenumber": "60", "addr:postcode": "12053", "addr:street": "Boddinstraße", "addr:suburb": "Neukölln", "amenity": "nightclub", "contact:website": "https://www.loophole-berlin.com/", "name": "Loophole", "wheelchair": "no"}}, {"type": "node", "id": 5873234785, "lat": 52.5074123, "lon": 13.4556606, "tags": {"addr:city": "Berlin", "addr:country": "DE", "addr:housenumber": "99", "addr:postcode": "10245", "addr:street": "Revaler Straße", "addr:suburb": "Friedrichshain", "amenity": "nightclub", "delivery": "no", "name": "Tabula Rasa (vorher Khwan)", "outdoor_seating": "yes", "payment:cash": "only", "smoking": "outside", "takeaway": "no"}}, {"type": "node", "id": 5906879511, "lat": 52.5024767, "lon": 13.466302, "tags": {"addr:city": "Berlin", "addr:country": "DE", "addr:housenumber": "24c", "addr:postcode": "10245", "addr:street": "Markgrafendamm", "addr:suburb": "Friedrichshain", "amenity": "nightclub", "check_date": "2023-11-05", "contact:email": "info@aboutblank.li", "contact:facebook": "https://www.facebook.com/about.party/events", "contact:instagram": "https://www.instagram.com/about.blank.berlin", "contact:phone": "+49 30 69536290", "contact:ra": "https://ra.co/clubs/28354", "contact:website": "http://aboutparty.net", "name": "://about blank", "opening_hours": "\"je nach Veranstaltung\"", "operator": "about blank eG", "payment:cards": "no", "payment:cash": "yes", "payment:credit_cards": "no", "payment:debit_cards": "no", "smoking": "yes", "toilets:wheelchair": "yes", "wheelchair": "yes", "wikidata": "Q23906461", "wikipedia": "de:About Blank"}}, {"type": "node", "id": 6032392904, "lat": 52.5063423, "lon": 13.3099366, "tags": {"amenity": "nightclub", "karaoke": "yes", "name": "KTV Bar"}}, {"type": "node", "id": 6192377288, "lat": 52.5029373, "lon": 13.4473091, "tags": {"addr:city": "Berlin", "addr:country": "DE", "addr:housenumber": "18", "addr:postcode": "10245", "addr:street": "Warschauer Platz", "addr:suburb": "Friedrichshain", "amenity": "nightclub", "contact:email": "info@club-ava-berlin.de", "contact:facebook": "https://www.facebook.com/ElektroAva/", "contact:website": "http://www.club-ava-berlin.de/", "name": "Ava Club"}}, {"type": "node", "id": 6252070333, "lat": 52.4989003, "lon": 13.3230448, "tags": {"addr:city": "Berlin", "addr:housenumber": "83", "addr:postcode": "10719", "addr:street": "Pfalzburger Straße", "amenity": "nightclub", "name": "al2 eventlocation berlin", "opening_hours": "\"nach Vereinbarung\"", "operator": "Alexander Schulzendorff", "phone": "+49 30 88917960", "website": "https://al2-eventlocation.de"}}, {"type": "node", "id": 6341225967, "lat": 52.5111669, "lon": 13.4430356, "tags": {"addr:city": "Berlin", "addr:country": "DE", "addr:postcode": "10243", "addr:street": "Am Wriezener Bahnhof", "addr:suburb": "Friedrichshain", "alt_name": "Berghain Panorama Bar", "amenity": "nightclub", "contact:facebook": "https://www.facebook.com/BerghainPanoramaBarOfficial", "contact:phone": "+49 30 29351830", "contact:website": "https://www.berghain.de", "name": "Berghain", "nohousenumber": "yes", "operator": "Berghain OstGut GmbH", "smoking": "yes", "toilets:wheelchair": "yes", "wheelchair": "yes", "wheelchair:description": "keine Stufen, alles mit Rampen und Fahrstühlen zu erreichen, lediglich die Rampen im Garten lassen sich nur mit guter Armfunktion bewältigen, WCs sind mit Haltegriffen ausgestattet, aber nicht vollständig behindertengerecht", "wikidata": "Q136975", "wikipedia": "de:Berghain"}}, {"type": "node", "id": 6381619922, "lat": 52.5306542, "lon": 13.4286665, "tags": {"addr:city": "Berlin", "addr:housenumber": "23A", "addr:postcode": "10405", "addr:street": "Greifswalder Straße", "amenity": "nightclub", "contact:facebook": "https://www.facebook.com/Musikbrauerei", "name": "Musikbrauerei", "opening_hours": "Mo-Su 10:00-20:15"}}, {"type": "node", "id": 6381637814, "lat": 52.5306327, "lon": 13.3667562, "tags": {"addr:city": "Berlin", "addr:housenumber": "50", "addr:postcode": "10557", "addr:street": "Heidestraße", "amenity": "nightclub", "name": "Trauma Bar und Kino", "website": "https://www.traumabarundkino.de/"}}, {"type": "node", "id": 6441603779, "lat": 52.5060456, "lon": 13.3153141, "tags": {"addr:city": "Berlin", "addr:country": "DE", "addr:housenumber": "134", "addr:postcode": "10625", "addr:street": "Kantstraße", "addr:suburb": "Charlottenburg", "amenity": "nightclub", "contact:website": "http://www.newwestclub.de/", "name": "New West Club", "opening_hours:signed": "no", "wheelchair": "limited"}}, {"type": "node", "id": 6482231157, "lat": 52.5299774, "lon": 13.4006925, "tags": {"addr:city": "Berlin", "addr:country": "DE", "addr:housenumber": "197-198", "addr:postcode": "10119", "addr:street": "Brunnenstraße", "addr:suburb": "Mitte", "amenity": "nightclub", "check_date": "2023-08-22", "contact:phone": "+49 30 27590873", "contact:website": "https://www.cosmic-kaspar.de/", "description": "rentable", "name": "Cosmic Kaspar", "operator": "Mein Haus am See GmbH"}}, {"type": "node", "id": 6573680438, "lat": 52.5227525, "lon": 13.2107129, "tags": {"addr:city": "Berlin", "addr:country": "DE", "addr:housenumber": "5", "addr:postcode": "13597", "addr:street": "Dorfstraße", "addr:suburb": "Spandau", "amenity": "nightclub", "contact:website": "https://ballhaus-spandau.club/", "name": "Ballhaus Spandau", "opening_hours:signed": "no", "wikidata": "Q805252", "wikimedia_commons": "Category:Ballhaus Spandau", "wikipedia": "de:Ballhaus Spandau"}}, {"type": "node", "id": 7230925407, "lat": 52.5222381, "lon": 13.398307, "tags": {"amenity": "nightclub", "name": "Mokka Mitte Bar", "opening_hours": "Mo-Th 16:00-23:00; Fr 14:00-23:30; Sa 13:00-23:30; Su 12:30-22:00", "phone": "+493084710709", "website": "https://www.mokkamitte.de/"}}, {"type": "node", "id": 7231460513, "lat": 52.5032248, "lon": 13.3660672, "tags": {"amenity": "nightclub", "name": "Teledisko", "opening_hours": "24/7", "website": "https://www.teledisko.com/"}}, {"type": "node", "id": 8069721818, "lat": 52.4970681, "lon": 13.4650321, "tags": {"addr:city": "Berlin", "addr:country": "DE", "addr:housenumber": "1-2", "addr:postcode": "10245", "addr:street": "Alt-Stralau", "addr:suburb": "Friedrichshain", "alt_name": "Club OST", "amenity": "nightclub", "contact:facebook": "https://www.facebook.com/club.ost/", "contact:instagram": "https://www.instagram.com/club.ost/", "name": "OST", "phone": "+49 30 29369990‬", "website": "https://clubost.de/"}}, {"type": "node", "id": 9216819283, "lat": 52.4602228, "lon": 13.5056519, "tags": {"addr:city": "Berlin", "addr:country": "DE", "addr:housenumber": "137", "addr:postcode": "12439", "addr:street": "Schnellerstraße", "addr:suburb": "Niederschöneweide", "amenity": "nightclub", "contact:website": "https://reviersuedost.de/", "name": "Revier Südost"}}, {"type": "node", "id": 9271890630, "lat": 52.5893599, "lon": 13.2809654, "tags": {"amenity": "nightclub", "check_date:opening_hours": "2023-04-02", "name": "Entenkeller 2.0", "opening_hours:signed": "no", "phone": "+49 162 3692008"}}, {"type": "node", "id": 9272743117, "lat": 52.5111747, "lon": 13.416812, "tags": {"addr:housenumber": "1", "addr:postcode": "10179", "addr:street": "Brückenstraße", "amenity": "nightclub", "check_date": "2022-10-22", "name": "Melancholie 2", "opening_hours": "Su 16:00-04:00; Fr-Sa 23:00-10:00"}}, {"type": "node", "id": 9431809851, "lat": 52.5500165, "lon": 13.4593433, "tags": {"addr:city": "Berlin", "addr:housenumber": "106", "addr:postcode": "13088", "addr:street": "Berliner Allee", "amenity": "nightclub", "name": "Mekx4Two", "opening_hours": "Fr,Sa 20:00-05:00+", "smoking": "no", "wheelchair": "yes"}}, {"type": "node", "id": 9662447417, "lat": 52.5248136, "lon": 13.4976566, "tags": {"addr:housenumber": "53B", "addr:postcode": "10365", "addr:street": "Herzbergstraße", "amenity": "nightclub", "name": "Velvet Monkey"}}, {"type": "node", "id": 9683590917, "lat": 52.5381993, "lon": 13.3279584, "tags": {"addr:city": "Berlin", "addr:country": "DE", "addr:housenumber": "1", "addr:postcode": "13353", "addr:street": "Seestraße", "addr:suburb": "Charlottenburg-Nord", "amenity": "nightclub", "name": "Heideglühen", "opening_hours": "Sa 00:00-24:00; Su 00:00-06:00"}}, {"type": "node", "id": 9806828894, "lat": 52.5027268, "lon": 13.4453492, "tags": {"addr:city": "Berlin", "addr:country": "DE", "addr:housenumber": "78-80", "addr:postcode": "10243", "addr:street": "Mühlenstraße", "addr:suburb": "Friedrichshain", "amenity": "nightclub", "contact:email": "info@piratesberlin.com", "contact:phone": "+49 30 97002414", "contact:website": "https://piratesberlin.com/club/", "name": "Pirates Club", "operator": "Spreewiesn GmbH & Co. Beach Betriebsgesellschaft KG", "wheelchair": "limited"}}, {"type": "node", "id": 9830787917, "lat": 52.4792421, "lon": 13.4997366, "tags": {"amenity": "nightclub", "name": "MONOM", "smoking": "outside", "survey:date": "2022-06-19", "website": "https://www.monomsound.com/"}}, {"type": "node", "id": 9895178218, "lat": 52.5058678, "lon": 13.4346441, "tags": {"addr:city": "Berlin", "addr:country": "DE", "addr:housenumber": "16", "addr:postcode": "10997", "addr:street": "Köpenicker Straße", "addr:suburb": "Kreuzberg", "amenity": "nightclub", "contact:facebook": "https://www.facebook.com/spindlerklattberlin", "contact:instagram": "https://www.instagram.com/spindlerklatt/", "contact:website": "https://spindlerklatt.com/", "name": "spindler & klatt", "wikidata": "Q116142643"}}, {"type": "node", "id": 10621062970, "lat": 52.5130757, "lon": 13.4228651, "tags": {"addr:city": "Berlin", "addr:housenumber": "15", "addr:postcode": "10179", "addr:street": "Holzmarktstraße", "amenity": "nightclub", "description": "2nd address: S-Bahn Bogen 46", "image": "https://i.imgur.com/zRbEgb0.jpeg", "mapillary": "371476558518986", "name": "Fitzroy", "website": "https://fitzroy-berlin.de"}}, {"type": "node", "id": 10672763641, "lat": 52.4752767, "lon": 13.2965109, "tags": {"amenity": "nightclub", "name": "The Hub"}}, {"type": "node", "id": 11035783613, "lat": 52.4980199, "lon": 13.3493684, "tags": {"amenity": "nightclub", "name": "Toms"}}, {"type": "node", "id": 11066768896, "lat": 52.4775471, "lon": 13.4594974, "tags": {"addr:city": "Berlin", "addr:country": "DE", "addr:housenumber": "1", "addr:postcode": "12057", "addr:street": "Ziegrastraße", "amenity": "nightclub", "contact:email": "info@s27.de", "contact:website": "https://falscherfisch.net/", "disused:amenity": "restaurant", "disused:name": "Marin", "name": "Falscher Fisch"}}, {"type": "node", "id": 11308512469, "lat": 52.4974632, "lon": 13.449283, "tags": {"addr:housenumber": "3", "addr:postcode": "10997", "addr:street": "Schleusenufer", "amenity": "nightclub", "name": "ÆDEN", "opening_hours": "Tu 22:00-08:00; Th 22:00-08:00; Fr 22:00-10:00; Sa 18:00-10:00", "website": "http://aedenberlin.com"}}, {"type": "node", "id": 11435535669, "lat": 52.5509569, "lon": 13.3540571, "tags": {"amenity": "nightclub", "name:en": "Menagerie"}}, {"type": "node", "id": 11472992147, "lat": 52.5115871, "lon": 13.4173531, "tags": {"amenity": "nightclub", "name": "Nachspiel - Afterhour @KitKat Club Berlin"}}]}