{"version": 0.6, "generator": "Overpass API 0.7.61.5 4133829e", "osm3s": {"timestamp_osm_base": "2024-01-02T22:21:00Z", "copyright": "The data included in this document is from www.openstreetmap.org. The data is made available under ODbL."}, "elements": [{"type": "node", "id": 27378775, "lat": 52.401683, "lon": 13.5743044, "tags": {"addr:city": "Berlin", "addr:country": "DE", "addr:housenumber": "107", "addr:postcode": "12526", "addr:street": "Waltersdorfer Straße", "addr:suburb": "Bohnsdorf", "amenity": "fire_station", "name": "Freiwillige Feuerwehr Bohnsdorf", "ref": "5320", "short_name": "FF Bohnsdorf", "website": "https://www.ff-bohnsdorf.de/"}}, {"type": "node", "id": 98896966, "lat": 52.4874539, "lon": 13.3206881, "tags": {"addr:city": "Berlin", "addr:housenumber": "19-20", "addr:postcode": "10717", "addr:street": "Gasteiner Straße", "amenity": "fire_station", "name": "Berufsfeuerwache Wilmersdorf", "operator": "Berliner Feuerwehr", "operator:wikidata": "Q821517", "operator:wikipedia": "de:Berliner Feuerwehr", "ref": "3400"}}, {"type": "node", "id": 253618460, "lat": 52.5118289, "lon": 13.4445489, "tags": {"addr:city": "Berlin", "addr:country": "DE", "addr:housenumber": "56", "addr:postcode": "10243", "addr:street": "Rüdersdorfer Straße", "addr:suburb": "Friedrichshain", "amenity": "fire_station", "contact:website": "https://www.berliner-feuerwehr.de/ueber-uns/standorte/feuerwachen/fw-friedrichshain-1200/", "name": "Berufsfeuerwache Friedrichshain", "note": "FW 1200 ist Betreuungswache für FF Friedrichshain (1201)", "operator": "Berliner Feuerwehr", "operator:wikidata": "Q821517", "ref": "1200", "wikidata": "Q61697268", "wikimedia_commons": "Category:Feuerwache Friedrichshain", "wikipedia": "de:Feuerwache Friedrichshain"}}, {"type": "node", "id": 254089285, "lat": 52.3689395, "lon": 13.7020795, "tags": {"amenity": "fire_station", "name": "Freiwillige Feuerwehr Wernsdorf", "ref": "WDF"}}, {"type": "node", "id": 262960560, "lat": 52.412424, "lon": 13.7535317, "tags": {"addr:city": "Erkner", "addr:housenumber": "16", "addr:postcode": "15537", "addr:street": "Am Kurpark", "amenity": "fire_station", "name": "Freiwillige Feuerwehr Erkner", "phone": "+49 3362 19296", "ref": "FDER", "website": "feuerwehr-erkner.de"}}, {"type": "node", "id": 270905719, "lat": 52.4367173, "lon": 13.716157, "tags": {"amenity": "fire_station", "name": "Freiwillige Feuerwehr Wilhelmshagen", "ref": "5430"}}, {"type": "node", "id": 309402997, "lat": 52.3733085, "lon": 13.2605811, "tags": {"amenity": "fire_station", "name": "Freiwillige Feuerwehr Ruhlsdorf"}}, {"type": "node", "id": 330874249, "lat": 52.5169714, "lon": 13.4150578, "tags": {"addr:city": "Berlin", "addr:housenumber": "2", "addr:postcode": "10179", "addr:street": "Voltairestraße", "amenity": "fire_station", "name": "Berliner Feuerwehr - Lehrrettungswache Mitte", "operator": "Berliner Feuerwehr", "operator:wikidata": "Q821517", "operator:wikipedia": "de:Berliner Feuerwehr", "phone": "+49 30 387 1100 105", "ref": "1100", "website": "https://www.berliner-feuerwehr.de/ueber-uns/standorte/lehrrettungswache-mitte/"}}, {"type": "node", "id": 330880463, "lat": 52.5265525, "lon": 13.3891997, "tags": {"amenity": "fire_station", "name": "Freiwillige Feuerwehr Mitte", "operator": "Berliner Feuerwehr", "operator:wikidata": "Q821517", "ref": "1110", "wikidata": "Q107538332", "wikimedia_commons": "Category:Volunteer fire department in Berlin-Mitte"}}, {"type": "node", "id": 332612710, "lat": 52.6065955, "lon": 13.2114269, "tags": {"amenity": "fire_station", "name": "Freiwillige Feuerwehr Heiligensee", "ref": "2410"}}, {"type": "node", "id": 332614340, "lat": 52.5707478, "lon": 13.2289022, "tags": {"amenity": "fire_station", "name": "Freiwillige Feuerwehr Tegelort", "ref": "2420"}}, {"type": "node", "id": 339387524, "lat": 52.6111032, "lon": 13.4830902, "tags": {"amenity": "fire_station", "name": "Freiwillige Feuerwehr Karow", "ref": "2720"}}, {"type": "node", "id": 342953229, "lat": 52.4642446, "lon": 13.512305, "tags": {"addr:city": "Berlin", "addr:housenumber": "22", "addr:postcode": "12459", "addr:street": "Siemensstraße", "amenity": "fire_station", "name": "Freiwillige Feuerwehr Oberschöneweide", "operator": "Berliner Feuerwehr", "operator:wikidata": "Q821517", "phone": "+49 30 3875340105", "ref": "5340", "website": "https://www.berliner-feuerwehr.de/ueber-uns/standorte/freiwillige-feuerwehr-oberschoeneweide/", "wikidata": "Q107538458", "wikimedia_commons": "Category:Volunteer fire department in Berlin-Oberschöneweide"}}, {"type": "node", "id": 343472804, "lat": 52.484016, "lon": 13.5206765, "tags": {"amenity": "fire_station", "name": "Berufsfeuerwache Karlshorst", "operator": "Berliner Feuerwehr", "operator:wikidata": "Q821517", "ref": "6500", "wikidata": "Q107538294"}}, {"type": "node", "id": 365075276, "lat": 52.3588236, "lon": 13.5912062, "tags": {"amenity": "fire_station", "name": "Freiwillige Feuerwehr Schulzendorf", "website": "https://feuerwehr-schulzendorf.de/"}}, {"type": "node", "id": 450174418, "lat": 52.4838386, "lon": 13.520221, "tags": {"amenity": "fire_station", "name": "Freiwillige Feuerwehr Karlshorst", "ref": "6501"}}, {"type": "node", "id": 566445383, "lat": 52.3409296, "lon": 13.1017603, "tags": {"amenity": "fire_station", "name": "Freiwillige Feuerwehr Nuthetal"}}, {"type": "node", "id": 577355077, "lat": 52.5406884, "lon": 13.3671406, "tags": {"addr:city": "Berlin", "addr:country": "DE", "addr:housenumber": "9", "addr:postcode": "13353", "addr:street": "Fennstraße", "addr:suburb": "Wedding", "amenity": "fire_station", "name:signed": "no"}}, {"type": "node", "id": 674086104, "lat": 52.5448495, "lon": 13.2103551, "tags": {"amenity": "fire_station", "name": "Freiwillige Feuerwehr Spandau-Nord", "ref": "3101"}}, {"type": "node", "id": 845722378, "lat": 52.5000473, "lon": 13.7403592, "tags": {"addr:city": "Fredersdorf-Vogelsdorf", "addr:housenumber": "76", "addr:postcode": "15370", "addr:street": "Frankfurter Chaussee", "amenity": "fire_station", "name": "Feuerwehr Vogelsdorf", "website": "https://www.feuerwehr-fredersdorf-vogelsdorf.de"}}, {"type": "node", "id": 944868560, "lat": 52.627041, "lon": 13.484559, "tags": {"amenity": "fire_station", "name": "GZS"}}, {"type": "node", "id": 1003091301, "lat": 52.6003508, "lon": 13.7547968, "tags": {"addr:city": "Altlandsberg", "addr:country": "DE", "addr:housenumber": "7", "addr:postcode": "15345", "addr:street": "Alte Schulstraße", "addr:suburb": "Wegendorf", "amenity": "fire_station", "entrance": "main", "image": "http://wiki.openstreetmap.org/wiki/File:Feuerwehr_Wegendorf.jpg", "name": "Freiwillige Feuerwehr Altlandsberg - Löschgruppe Wegendorf", "phone": "+49 33438 61814", "website": "http://feuerwehr.altlandsberg.de/index.php?page=kp_wegendorf"}}, {"type": "node", "id": 1271558626, "lat": 52.628927, "lon": 13.673693, "tags": {"addr:city": "Werneuchen", "addr:housenumber": "41a", "addr:street": "Löhmer Dorfstraße", "amenity": "fire_station", "name": "Freiwillige Feuerwehr Löhme"}}, {"type": "node", "id": 1271558629, "lat": 52.6220296, "lon": 13.6786091, "tags": {"amenity": "fire_station", "name": "Freiwillige Feuerwehr Seefeld"}}, {"type": "node", "id": 1383496499, "lat": 52.392448, "lon": 13.5057116, "tags": {"addr:city": "Schönefeld", "addr:country": "DE", "addr:housenumber": "23", "addr:postcode": "12529", "addr:street": "Hans-Grade-Allee", "amenity": "fire_station", "name": "Freiwillige Feuerwehr Schönefeld", "operator": "Gemeinde Schönefeld", "website": "http://www.ff-schoenefeld.de"}}, {"type": "node", "id": 1407733280, "lat": 52.3913996, "lon": 13.7438699, "tags": {"addr:city": "Gosen-Neu Zittau", "addr:housenumber": "10", "addr:postcode": "15537", "addr:street": "Spreebordstraße", "amenity": "fire_station", "name": "Freiwillige Feuerwehr Neu Zittau", "ref": "FDNZ"}}, {"type": "node", "id": 1450877655, "lat": 52.6254112, "lon": 13.5422425, "tags": {"addr:city": "Panketal", "addr:postcode": "16341", "addr:street": "Bucher Chaussee", "addr:suburb": "Schwanebeck", "amenity": "fire_station", "name": "Feuerwache Schwanebeck", "operator": "Freiwillige Feuerwehr Schwanebeck"}}, {"type": "node", "id": 2472635508, "lat": 52.6548354, "lon": 13.4466076, "tags": {"amenity": "fire_station"}}, {"type": "node", "id": 2768370495, "lat": 52.3757756, "lon": 13.648458, "tags": {"addr:city": "Berlin", "addr:country": "DE", "addr:housenumber": "782", "addr:postcode": "12527", "addr:street": "Adlergestell", "amenity": "fire_station", "name": "Freiwillige Feuerwehr Schmöckwitz", "ref": "5450"}}, {"type": "node", "id": 3354419269, "lat": 52.5017233, "lon": 13.3325773, "tags": {"addr:city": "Berlin", "addr:country": "DE", "addr:housenumber": "10-12", "addr:postcode": "10789", "addr:street": "Rankestraße", "addr:suburb": "Charlottenburg", "amenity": "fire_station", "emergency": "ambulance_station", "name": "Berufsfeuerwache Ranke", "operator": "Berliner Feuerwehr", "operator:wikidata": "Q821517", "ref": "3500", "website": "http://www.feuerwehr.info/feuerwehren/berliner-feuerwehr-wache-3500-ranke/", "wikidata": "Q107538144"}}, {"type": "node", "id": 3431432018, "lat": 52.6572049, "lon": 13.3388101, "tags": {"addr:city": "Mühlenbecker Land", "addr:housenumber": "1", "addr:postcode": "16567", "addr:street": "Am Anger", "addr:suburb": "Schönfließ", "amenity": "fire_station", "name": "Freiwillige Feuerwehr Schönfließ", "operator": "Gemeinde Mühlenbecker Land"}}, {"type": "node", "id": 4314579068, "lat": 52.4689781, "lon": 13.4384198, "tags": {"amenity": "fire_station", "name": "Freiwillige Feuerwehr Neukölln", "ref": "5101"}}, {"type": "node", "id": 4706714959, "lat": 52.5095529, "lon": 13.5564884, "tags": {"addr:city": "Berlin", "addr:housenumber": "58", "addr:postcode": "12683", "addr:street": "Alt-Biesdorf", "amenity": "fire_station", "name": "Freiwillige Feuerwehr Biesdorf", "operator": "Berliner Feuerwehr", "operator:wikidata": "Q821517", "phone": "+49 30 3876120105", "ref": "6120", "website": "https://www.berliner-feuerwehr.de/ueber-uns/standorte/freiwillige-feuerwehr/ff-biesdorf/", "wikidata": "Q107526693"}}, {"type": "node", "id": 5523199172, "lat": 52.5682808, "lon": 13.1035647, "tags": {"amenity": "fire_station", "contact:website": "http://www.feuerwehr-falkensee.de/", "name": "Feuerwache Falkensee"}}, {"type": "node", "id": 5764101263, "lat": 52.495526, "lon": 13.4032215, "tags": {"amenity": "fire_station", "name": "Freiwillige Feuerwehr Urban", "ref": "1501"}}, {"type": "node", "id": 5764101264, "lat": 52.4955406, "lon": 13.4029642, "tags": {"amenity": "fire_station", "name": "Berufsfeuerwache Urban", "operator": "Berliner Feuerwehr", "operator:wikidata": "Q821517", "ref": "1500", "wikidata": "Q107538288", "wikimedia_commons": "Category:Feuerwache Urban"}}, {"type": "node", "id": 6621423513, "lat": 52.5875384, "lon": 13.3410448, "tags": {"addr:city": "Berlin", "addr:country": "DE", "addr:housenumber": "55", "addr:postcode": "13437", "addr:street": "Roedernallee", "addr:suburb": "Reinickendorf", "amenity": "fire_station", "name": "Freiwillige Feuerwehr Wittenau", "ref": "2201"}}, {"type": "node", "id": 6621423514, "lat": 52.4296508, "lon": 13.3802828, "tags": {"addr:city": "Berlin", "addr:country": "DE", "addr:housenumber": "15", "addr:postcode": "12277", "addr:street": "Wilhelm-von-Siemens-Straße", "addr:suburb": "Mariendorf", "amenity": "fire_station", "name": "Freiwillige Feuerwehr Marienfelde", "ref": "4701"}}, {"type": "node", "id": 6621423515, "lat": 52.5866698, "lon": 13.2860944, "tags": {"addr:city": "Berlin", "addr:country": "DE", "addr:housenumber": "16", "addr:postcode": "13507", "addr:street": "Berliner Straße", "addr:suburb": "Tegel", "amenity": "fire_station", "name": "Freiwillige Feuerwehr Tegel", "ref": "2401"}}, {"type": "node", "id": 6621423516, "lat": 52.5091185, "lon": 13.2960373, "tags": {"addr:city": "Berlin", "addr:country": "DE", "addr:housenumber": "9-10", "addr:postcode": "14057", "addr:street": "Suarezstraße", "addr:suburb": "Charlottenburg", "amenity": "fire_station", "name": "Freiwillige Feuerwehr Suarez", "ref": "3301"}}, {"type": "node", "id": 6621423517, "lat": 52.5117447, "lon": 13.4446081, "tags": {"addr:city": "Berlin", "addr:country": "DE", "addr:housenumber": "57", "addr:postcode": "10243", "addr:street": "Rüdersdorfer Straße", "addr:suburb": "Friedrichshain", "amenity": "fire_station", "contact:website": "https://www.berliner-feuerwehr.de/ueber-uns/standorte/freiwillige-feuerwehr/ff-friedrichshain-1201/", "name": "Freiwillige Feuerwehr Friedrichshain", "ref": "1201"}}, {"type": "node", "id": 6983688058, "lat": 52.5220163, "lon": 13.7519795, "tags": {"addr:city": "Fredersdorf-Vogelsdorf", "addr:housenumber": "19", "addr:postcode": "15370", "addr:street": "Gartenstraße", "amenity": "fire_station", "name": "Feuerwehr Fredersdorf-Vogesdorf", "website": "https://www.feuerwehr-fredersdorf-vogelsdorf.de"}}, {"type": "node", "id": 6983688059, "lat": 52.5393617, "lon": 13.7540938, "tags": {"addr:city": "Fredersdorf-Vogelsdorf", "addr:country": "DE", "addr:housenumber": "16", "addr:postcode": "15370", "addr:street": "Bruchmühler Straße", "amenity": "fire_station", "name": "Feuerwehr Fredersdorf-Nord", "website": "https://www.feuerwehr-fredersdorf-vogelsdorf.de"}}, {"type": "node", "id": 8895164256, "lat": 52.5714204, "lon": 13.6173027, "tags": {"addr:housenumber": "1", "addr:street": "Krummenseer Weg", "amenity": "fire_station", "name": "Freiwillige Feuerwehr Mehrow", "wikidata": "Q107357121"}}, {"type": "node", "id": 10039426205, "lat": 52.5564395, "lon": 13.4598304, "tags": {"amenity": "fire_station", "name": "Freiwillige Feuerwehr Weißensee", "ref": "6301"}}, {"type": "node", "id": 10589571568, "lat": 52.3408264, "lon": 13.6152616, "tags": {"amenity": "fire_station", "name:signed": "no"}}, {"type": "node", "id": 11208742256, "lat": 52.5224588, "lon": 13.3330505, "tags": {"amenity": "fire_station", "name": "Freiwillige Feuerwehr Berlin-Moabit", "ref": "1401"}}, {"type": "node", "id": 11208742257, "lat": 52.5226342, "lon": 13.3330907, "tags": {"amenity": "fire_station", "emergency": "ambulance_station", "name": "Berufsfeuerwache Berlin-Moabit", "ref": "1400"}}]}