{"type": "FeatureCollection", "features": [{"type": "Feature", "geometry": {"type": "Point", "coordinates": [13.3587758, 52.5347753]}, "properties": {"id": "29040731", "name": "Sultan Ahmed Camii", "street": "", "zip-code": "", "city": "", "planning-area-id": 1200624}}, {"type": "Feature", "geometry": {"type": "Point", "coordinates": [13.390379, 52.495182]}, "properties": {"id": "29209127", "name": "", "street": "", "zip-code": "", "city": "", "planning-area-id": 2200210}}, {"type": "Feature", "geometry": {"type": "Point", "coordinates": [13.2966171, 52.6010205]}, "properties": {"id": "248702772", "name": "Martin-Luther-Kapelle", "street": "", "zip-code": "", "city": "", "planning-area-id": 12500824}}, {"type": "Feature", "geometry": {"type": "Point", "coordinates": [13.1954192, 52.5225069]}, "properties": {"id": "289795838", "name": "St. Wilhelm", "street": "Weißenburger Straße 9-11", "zip-code": 13595.0, "city": "Berlin", "planning-area-id": 5200630}}, {"type": "Feature", "geometry": {"type": "Point", "coordinates": [13.623567, 52.4475005]}, "properties": {"id": "292201931", "name": "Stadtmission Gemeinde Friedrichshagen", "street": "Bölschestraße 135", "zip-code": 12587.0, "city": "Berlin", "planning-area-id": 9501737}}, {"type": "Feature", "geometry": {"type": "Point", "coordinates": [13.2371169, 52.5471682]}, "properties": {"id": "332997622", "name": "Evangelische Weihnachtskirche", "street": "Haselhorster Damm 54-58", "zip-code": 13599.0, "city": "Berlin", "planning-area-id": 5300737}}, {"type": "Feature", "geometry": {"type": "Point", "coordinates": [13.3936149, 52.4889329]}, "properties": {"id": "333459517", "name": "Evangelisch Freikirchliche Gemeinde Kreuzberg", "street": "Bergmannstraße 22", "zip-code": 10961.0, "city": "Berlin", "planning-area-id": 2200211}}, {"type": "Feature", "geometry": {"type": "Point", "coordinates": [13.2410362, 52.4441803]}, "properties": {"id": "336571772", "name": "Adventgemeinde Waldfriede", "street": "Argentinische Allee 40", "zip-code": 14163.0, "city": "Berlin", "planning-area-id": 6400838}}, {"type": "Feature", "geometry": {"type": "Point", "coordinates": [13.3779152, 52.5165081]}, "properties": {"id": "355960992", "name": "Raum der Stille", "street": "Pariser Platz 8", "zip-code": 10117.0, "city": "Berlin", "planning-area-id": 1100206}}, {"type": "Feature", "geometry": {"type": "Point", "coordinates": [13.3963359, 52.5645585]}, "properties": {"id": "395708753", "name": "Evangelische Kirchengemeinde Martin Luther", "street": "Pradelstraße 11", "zip-code": 13187.0, "city": "Berlin", "planning-area-id": 3400721}}, {"type": "Feature", "geometry": {"type": "Point", "coordinates": [13.44285, 52.4759311]}, "properties": {"id": "441734644", "name": "Freie evangelische Bibel-Baptisten-Gemeinde", "street": "Richardstraße 28", "zip-code": 12043.0, "city": "Berlin", "planning-area-id": 8100416}}, {"type": "Feature", "geometry": {"type": "Point", "coordinates": [13.5821835, 52.4567902]}, "properties": {"id": "474359499", "name": "Adventgemeinde Köpenick", "street": "", "zip-code": "", "city": "", "planning-area-id": 9501940}}, {"type": "Feature", "geometry": {"type": "Point", "coordinates": [13.4563223, 52.5177789]}, "properties": {"id": "494093353", "name": "Galiläa-Kirche", "street": "", "zip-code": "", "city": "", "planning-area-id": 2500727}}, {"type": "Feature", "geometry": {"type": "Point", "coordinates": [13.4012798, 52.4981271]}, "properties": {"id": "535628093", "name": "Inssan-Moschee", "street": "", "zip-code": "", "city": "", "planning-area-id": 2100106}}, {"type": "Feature", "geometry": {"type": "Point", "coordinates": [13.3899554, 52.520803]}, "properties": {"id": "540969924", "name": "Quaker Meeting", "street": "Planckstraße 20", "zip-code": 10117.0, "city": "Berlin", "planning-area-id": 1100206}}, {"type": "Feature", "geometry": {"type": "Point", "coordinates": [13.4965275, 52.6417777]}, "properties": {"id": "601062306", "name": "Mater Dolorosa Kirche", "street": "Röbellweg 61", "zip-code": 13125.0, "city": "Berlin", "planning-area-id": 3100101}}, {"type": "Feature", "geometry": {"type": "Point", "coordinates": [13.3820567, 52.5397508]}, "properties": {"id": "676083788", "name": "Foguang-Shan Tempel", "street": "Ackerstraße 86", "zip-code": 13355.0, "city": "Berlin", "planning-area-id": 1300835}}, {"type": "Feature", "geometry": {"type": "Point", "coordinates": [13.3499542, 52.5751911]}, "properties": {"id": "701838306", "name": "Evangelisch-Freikirchliche Gemeinde K.d.ö.R.", "street": "Alt-Reinickendorf 32", "zip-code": 13407.0, "city": "Berlin", "planning-area-id": 12100205}}, {"type": "Feature", "geometry": {"type": "Point", "coordinates": [13.4207705, 52.4867779]}, "properties": {"id": "945925159", "name": "Sri Ganesha Hindu Tempel", "street": "Hasenheide 106", "zip-code": 10967.0, "city": "Berlin", "planning-area-id": 8100101}}, {"type": "Feature", "geometry": {"type": "Point", "coordinates": [13.4812755, 52.4085446]}, "properties": {"id": "948654862", "name": "Gemeindezentrum ev. Kirchengemeinde Rudow", "street": "Geflügelsteig 22-28", "zip-code": 12355.0, "city": "Berlin", "planning-area-id": 8401242}}, {"type": "Feature", "geometry": {"type": "Point", "coordinates": [13.48765, 52.6185361]}, "properties": {"id": "977654857", "name": "", "street": "", "zip-code": "", "city": "", "planning-area-id": 3300411}}, {"type": "Feature", "geometry": {"type": "Point", "coordinates": [13.2696435, 52.5504382]}, "properties": {"id": "1026420272", "name": "", "street": "", "zip-code": "", "city": "", "planning-area-id": 12200414}}, {"type": "Feature", "geometry": {"type": "Point", "coordinates": [13.1990851, 52.5618242]}, "properties": {"id": "1135452610", "name": "Katholische Gemeinde St. Lambertus", "street": "Cautiusstraße 6", "zip-code": 13587.0, "city": "Berlin", "planning-area-id": 5100105}}, {"type": "Feature", "geometry": {"type": "Point", "coordinates": [13.3277379, 52.4585319]}, "properties": {"id": "1232194996", "name": "Thomas Gemeinde", "street": "Bergstraße 92", "zip-code": 12169.0, "city": "Berlin", "planning-area-id": 6100208}}, {"type": "Feature", "geometry": {"type": "Point", "coordinates": [13.3995255, 52.5363614]}, "properties": {"id": "1256840401", "name": "ChristusKirche Berlin-Mitte", "street": "Anklamer Straße 31", "zip-code": 10115.0, "city": "Berlin", "planning-area-id": 1100416}}, {"type": "Feature", "geometry": {"type": "Point", "coordinates": [13.3110728, 52.6175317]}, "properties": {"id": "1274338417", "name": "Ev. Kirchengem. Hermsdorf", "street": "Wachsmuthstraße 24", "zip-code": 13467.0, "city": "Berlin", "planning-area-id": 12400723}}, {"type": "Feature", "geometry": {"type": "Point", "coordinates": [13.4654696, 52.5122972]}, "properties": {"id": "1309021897", "name": "Buddhistisches Zentrum Bodhicharya Deutschland e.V.", "street": "Kinzigstraße 25", "zip-code": 10247.0, "city": "Berlin", "planning-area-id": 2500831}}, {"type": "Feature", "geometry": {"type": "Point", "coordinates": [13.3634646, 52.5263666]}, "properties": {"id": "1313117575", "name": "Stadtmission Gemeinde im Zentrum am Hauptbahnhof", "street": "Lehrter Straße 68", "zip-code": 10557.0, "city": "Berlin", "planning-area-id": 1200627}}, {"type": "Feature", "geometry": {"type": "Point", "coordinates": [13.3160909, 52.4552861]}, "properties": {"id": "1370499165", "name": "Kirche des Nazareners", "street": "", "zip-code": "", "city": "", "planning-area-id": 6100101}}, {"type": "Feature", "geometry": {"type": "Point", "coordinates": [13.3275731, 52.4716845]}, "properties": {"id": "1392943281", "name": "Evangelische Gemeinschaft Friedenau", "street": "Friedrich-Wilhelm-Platz 7", "zip-code": 12161.0, "city": "Berlin", "planning-area-id": 7300515}}, {"type": "Feature", "geometry": {"type": "Point", "coordinates": [13.2012548, 52.5235611]}, "properties": {"id": "1404465171", "name": "Königreichssaal Jehovas Zeugen", "street": "Weißenburger Straße 35", "zip-code": 13595.0, "city": "Berlin", "planning-area-id": 5200631}}, {"type": "Feature", "geometry": {"type": "Point", "coordinates": [13.1824095, 52.5276681]}, "properties": {"id": "1404484782", "name": "Königreichssaal Jehovas Zeugen", "street": "Seeburger Straße 32E", "zip-code": 13581.0, "city": "Berlin", "planning-area-id": 5200629}}, {"type": "Feature", "geometry": {"type": "Point", "coordinates": [13.5739658, 52.4436435]}, "properties": {"id": "1505231652", "name": "Schloßkirche", "street": "", "zip-code": "", "city": "", "planning-area-id": 9401534}}, {"type": "Feature", "geometry": {"type": "Point", "coordinates": [13.4403343, 52.5527163]}, "properties": {"id": "1556403863", "name": "Baptisten-Gemeinde", "street": "", "zip-code": "", "city": "", "planning-area-id": 3500934}}, {"type": "Feature", "geometry": {"type": "Point", "coordinates": [13.3945595, 52.5659379]}, "properties": {"id": "1602071051", "name": "Franziskanerkloster", "street": "", "zip-code": 13187.0, "city": "Berlin", "planning-area-id": 3400721}}, {"type": "Feature", "geometry": {"type": "Point", "coordinates": [13.3457893, 52.5059403]}, "properties": {"id": "1813041607", "name": "St. Franziskus - Kapelle", "street": "", "zip-code": "", "city": "", "planning-area-id": 1100101}}, {"type": "Feature", "geometry": {"type": "Point", "coordinates": [13.2752084, 52.5751024]}, "properties": {"id": "1891429795", "name": "Stadtmission Gemeinde Tegel", "street": "Billerbecker Weg 112-114", "zip-code": 13507.0, "city": "Berlin", "planning-area-id": 12200412}}, {"type": "Feature", "geometry": {"type": "Point", "coordinates": [13.3515831, 52.5324743]}, "properties": {"id": "1895341034", "name": "Apostolische Gemeinde Berlin", "street": "", "zip-code": "", "city": "", "planning-area-id": 1200623}}, {"type": "Feature", "geometry": {"type": "Point", "coordinates": [13.3990095, 52.5860016]}, "properties": {"id": "1903040914", "name": "Adventgemeinde Pankow", "street": "Eichenstraße 61", "zip-code": 13156.0, "city": "Berlin", "planning-area-id": 3200205}}, {"type": "Feature", "geometry": {"type": "Point", "coordinates": [13.445666, 52.4718577]}, "properties": {"id": "1976696605", "name": "Gazi Osman Pasa Moschee eV", "street": "Schöneweider Straße 11", "zip-code": 12055.0, "city": "Berlin", "planning-area-id": 8100417}}, {"type": "Feature", "geometry": {"type": "Point", "coordinates": [13.4125654, 52.4925385]}, "properties": {"id": "2145256562", "name": "Buddhistisches Tor Berlin", "street": "", "zip-code": 10967.0, "city": "", "planning-area-id": 2200213}}, {"type": "Feature", "geometry": {"type": "Point", "coordinates": [13.4419312, 52.4767583]}, "properties": {"id": "2281044959", "name": "Evangelische Reformierte Bethlehemsgemeinde", "street": "Richardstraße 97", "zip-code": 12043.0, "city": "Berlin", "planning-area-id": 8100416}}, {"type": "Feature", "geometry": {"type": "Point", "coordinates": [13.3564321, 52.551148]}, "properties": {"id": "2299953817", "name": "Sultan Abdulhamid Han Moschee", "street": "Amsterdamer Straße 17A", "zip-code": 13347.0, "city": "Berlin", "planning-area-id": 1401048}}, {"type": "Feature", "geometry": {"type": "Point", "coordinates": [13.3658262, 52.548976]}, "properties": {"id": "2303055234", "name": "International Christian Revival Church", "street": "", "zip-code": "", "city": "", "planning-area-id": 1401043}}, {"type": "Feature", "geometry": {"type": "Point", "coordinates": [13.4216124, 52.5008249]}, "properties": {"id": "2412265590", "name": "International Zen Temple", "street": "", "zip-code": "", "city": "", "planning-area-id": 2300314}}, {"type": "Feature", "geometry": {"type": "Point", "coordinates": [13.4723349, 52.5134409]}, "properties": {"id": "2439362666", "name": "Stadtmission Gemeinde Frankfurter Allee", "street": "Frankfurter Allee 96", "zip-code": 10247.0, "city": "Berlin", "planning-area-id": 2500832}}, {"type": "Feature", "geometry": {"type": "Point", "coordinates": [13.1838279, 52.5265817]}, "properties": {"id": "2478866162", "name": "Markaz Rasulallah e.V.", "street": "Seeburger Straße 65", "zip-code": 13581.0, "city": "Berlin", "planning-area-id": 5200630}}, {"type": "Feature", "geometry": {"type": "Point", "coordinates": [13.386745, 52.5539109]}, "properties": {"id": "2501779747", "name": "Stadtmission Gemeinde Wedding", "street": "Stettiner Straße 45", "zip-code": 13357.0, "city": "Berlin", "planning-area-id": 1300733}}, {"type": "Feature", "geometry": {"type": "Point", "coordinates": [13.3519377, 52.5329001]}, "properties": {"id": "2529484537", "name": "Indonesisches Weisheits- & Kulturzentrum", "street": "Feldzeugmeisterstraße 1", "zip-code": 10557.0, "city": "Berlin", "planning-area-id": 1200623}}, {"type": "Feature", "geometry": {"type": "Point", "coordinates": [13.4068043, 52.5653374]}, "properties": {"id": "2625794374", "name": "Paulus-Gemeinde Berlin-Pankow e.V.", "street": "Florastraße 35", "zip-code": 13187.0, "city": "Berlin", "planning-area-id": 3400723}}, {"type": "Feature", "geometry": {"type": "Point", "coordinates": [13.3601004, 52.5958406]}, "properties": {"id": "2699488273", "name": "Evangelisch Apostolische Johannes Gemeinde", "street": "", "zip-code": "", "city": "", "planning-area-id": 12601235}}, {"type": "Feature", "geometry": {"type": "Point", "coordinates": [13.4273767, 52.4860503]}, "properties": {"id": "2759261083", "name": "Hamidiye Camii", "street": "Sonnenallee 18", "zip-code": 12047.0, "city": "Berlin", "planning-area-id": 8100314}}, {"type": "Feature", "geometry": {"type": "Point", "coordinates": [13.4388682, 52.4784894]}, "properties": {"id": "2822957669", "name": "Alevitischer Kulturverein Berlin e.V. Oniki Imam Yolu/Weg der Zwölf Imame", "street": "Richardstraße 110", "zip-code": 12043.0, "city": "Berlin", "planning-area-id": 8100415}}, {"type": "Feature", "geometry": {"type": "Point", "coordinates": [13.4025532, 52.4247877]}, "properties": {"id": "2848134843", "name": "Islamisches Imam Hassan Werk e.V.", "street": "Im Lesachtal 24", "zip-code": 12107.0, "city": "Berlin", "planning-area-id": 7501134}}, {"type": "Feature", "geometry": {"type": "Point", "coordinates": [13.4554551, 52.4283802]}, "properties": {"id": "2865873505", "name": "Martin Luther King Kirche", "street": "Martin-Luther-King-Weg 8", "zip-code": 12351.0, "city": "Berlin", "planning-area-id": 8300934}}, {"type": "Feature", "geometry": {"type": "Point", "coordinates": [13.2090936, 52.5604095]}, "properties": {"id": "2867830690", "name": "", "street": "Chamissostraße 4", "zip-code": 13587.0, "city": "Berlin", "planning-area-id": 5100104}}, {"type": "Feature", "geometry": {"type": "Point", "coordinates": [13.159289, 52.395433]}, "properties": {"id": "2876493701", "name": "Weidenkirche", "street": "Kremnitzufer 9", "zip-code": 14109.0, "city": "Berlin", "planning-area-id": 6400735}}, {"type": "Feature", "geometry": {"type": "Point", "coordinates": [13.4666789, 52.5568446]}, "properties": {"id": "3039050111", "name": "Jagannatha Tempel Berlin", "street": "Berliner Allee 209", "zip-code": 13088.0, "city": "Berlin", "planning-area-id": 3500933}}, {"type": "Feature", "geometry": {"type": "Point", "coordinates": [13.4568597, 52.5486002]}, "properties": {"id": "3039050989", "name": "Stadtmission Gemeinde Bizetstraße", "street": "Bizetstraße 75", "zip-code": 13088.0, "city": "Berlin", "planning-area-id": 3500936}}, {"type": "Feature", "geometry": {"type": "Point", "coordinates": [13.3368317, 52.4716001]}, "properties": {"id": "3145126656", "name": "Valide Sultan Camii", "street": "", "zip-code": "", "city": "", "planning-area-id": 7300618}}, {"type": "Feature", "geometry": {"type": "Point", "coordinates": [13.4177462, 52.4616075]}, "properties": {"id": "3167606461", "name": "Serbisch-orthodoxe Christi-Auferstehungs-Kirche", "street": "Schwanheimer Straße 11", "zip-code": "", "city": "", "planning-area-id": 7400928}}, {"type": "Feature", "geometry": {"type": "Point", "coordinates": [13.3746465, 52.5587606]}, "properties": {"id": "3332061408", "name": "Interkulturelles Zentrum für Dialog und Bildung e.V.", "street": "Drontheimer Straße 32A", "zip-code": 13359.0, "city": "Berlin", "planning-area-id": 1300730}}, {"type": "Feature", "geometry": {"type": "Point", "coordinates": [13.3494207, 52.4829515]}, "properties": {"id": "3401492942", "name": "Alt-Katholische Gemeinde Berlin", "street": "Hauptstraße 48", "zip-code": 10827.0, "city": "Berlin", "planning-area-id": 7200409}}, {"type": "Feature", "geometry": {"type": "Point", "coordinates": [13.4110167, 52.5116982]}, "properties": {"id": "3410334471", "name": "Gereja Bethel Indonesia Jemaat Bethany", "street": "Wallstraße 32", "zip-code": 10179.0, "city": "Berlin", "planning-area-id": 1100312}}, {"type": "Feature", "geometry": {"type": "Point", "coordinates": [13.405787, 52.4095908]}, "properties": {"id": "3411032742", "name": "Evangelisch-Freikirchliche Gemeinde", "street": "", "zip-code": "", "city": "", "planning-area-id": 7601443}}, {"type": "Feature", "geometry": {"type": "Point", "coordinates": [13.3211132, 52.4278755]}, "properties": {"id": "3411055106", "name": "Bethel-Gemeinde", "street": "", "zip-code": "", "city": "", "planning-area-id": 6200421}}, {"type": "Feature", "geometry": {"type": "Point", "coordinates": [13.3850013, 52.435351]}, "properties": {"id": "3411066489", "name": "Evangelisch-Freikirchliche Gemeinde", "street": "", "zip-code": "", "city": "", "planning-area-id": 7501133}}, {"type": "Feature", "geometry": {"type": "Point", "coordinates": [13.5656101, 52.5455401]}, "properties": {"id": "3411082818", "name": "Evangelisch-Freikirchliche Gemeinde", "street": "", "zip-code": "", "city": "", "planning-area-id": 10100209}}, {"type": "Feature", "geometry": {"type": "Point", "coordinates": [13.5105961, 52.4670315]}, "properties": {"id": "3411168898", "name": "Evangelisch-Freikirchliche Gemeinde", "street": "", "zip-code": "", "city": "", "planning-area-id": 9200510}}, {"type": "Feature", "geometry": {"type": "Point", "coordinates": [13.5098933, 52.4667373]}, "properties": {"id": "3411207173", "name": "Friedenskirche", "street": "", "zip-code": "", "city": "", "planning-area-id": 9200510}}, {"type": "Feature", "geometry": {"type": "Point", "coordinates": [13.52337, 52.4633355]}, "properties": {"id": "3411265895", "name": "Evangelisch-Freikirchliche Neues Leben Gemeinde", "street": "", "zip-code": "", "city": "", "planning-area-id": 9200511}}, {"type": "Feature", "geometry": {"type": "Point", "coordinates": [13.4114087, 52.5445845]}, "properties": {"id": "3411369680", "name": "Evangelisch-Freikirchliche Gemeinde \"Zoar\"", "street": "Cantianstraße 9", "zip-code": 10437.0, "city": "Berlin", "planning-area-id": 3601142}}, {"type": "Feature", "geometry": {"type": "Point", "coordinates": [13.3510938, 52.4941039]}, "properties": {"id": "3411476712", "name": "Evangelisch-Freikirchliche Gemeinde", "street": "", "zip-code": "", "city": "", "planning-area-id": 7100204}}, {"type": "Feature", "geometry": {"type": "Point", "coordinates": [13.2053108, 52.54734]}, "properties": {"id": "3411527446", "name": "Evangelisch-Freikirchliche Gemeinde Berlin-Spandau", "street": "", "zip-code": "", "city": "", "planning-area-id": 5100314}}, {"type": "Feature", "geometry": {"type": "Point", "coordinates": [13.2874309, 52.5872326]}, "properties": {"id": "3411616993", "name": "Evangelisch-Freikirchliche Bethel-Gemeinde", "street": "", "zip-code": "", "city": "", "planning-area-id": 12200515}}, {"type": "Feature", "geometry": {"type": "Point", "coordinates": [13.3773848, 52.551225]}, "properties": {"id": "3411706623", "name": "Evangelisch-Freikirchliche Gemeinde", "street": "Buttmannstraße 10", "zip-code": 13357.0, "city": "Berlin", "planning-area-id": 1401044}}, {"type": "Feature", "geometry": {"type": "Point", "coordinates": [13.3225114, 52.4810184]}, "properties": {"id": "3411726933", "name": "Evangelisch-Freikirchliche Gemeinde", "street": "Hildegardstraße 20a", "zip-code": 10715.0, "city": "Berlin", "planning-area-id": 4501151}}, {"type": "Feature", "geometry": {"type": "Point", "coordinates": [13.3471464, 52.4789102]}, "properties": {"id": "3448408580", "name": "Greater Grace Evangelische Freikirche", "street": "", "zip-code": "", "city": "", "planning-area-id": 7200308}}, {"type": "Feature", "geometry": {"type": "Point", "coordinates": [13.2071089, 52.5276476]}, "properties": {"id": "3667655313", "name": "Adventgemeinde Spandau", "street": "Tiefwerderweg 5", "zip-code": 13597.0, "city": "Berlin", "planning-area-id": 5200632}}, {"type": "Feature", "geometry": {"type": "Point", "coordinates": [13.3772248, 52.5594755]}, "properties": {"id": "3737533306", "name": "Bilal Moschee", "street": "Drontheimer Straße 16", "zip-code": 13359.0, "city": "Berlin", "planning-area-id": 1300730}}, {"type": "Feature", "geometry": {"type": "Point", "coordinates": [13.3310637, 52.4974645]}, "properties": {"id": "3786111363", "name": "Shaolin Tempel", "street": "", "zip-code": "", "city": "", "planning-area-id": 4501045}}, {"type": "Feature", "geometry": {"type": "Point", "coordinates": [13.2942714, 52.5160494]}, "properties": {"id": "3834064759", "name": "Osman Gazi Camii", "street": "Nehringstraße 27", "zip-code": 14059.0, "city": "Berlin", "planning-area-id": 4300413}}, {"type": "Feature", "geometry": {"type": "Point", "coordinates": [13.4251285, 52.4899073]}, "properties": {"id": "3838822221", "name": "Kreuzbergprojekt", "street": "Lenaustraße 4", "zip-code": 12047.0, "city": "Berlin", "planning-area-id": 8100311}}, {"type": "Feature", "geometry": {"type": "Point", "coordinates": [13.3828026, 52.551925]}, "properties": {"id": "4009581509", "name": "Al-Iman-Moschee", "street": "Badstraße 21", "zip-code": 13357.0, "city": "Berlin", "planning-area-id": 1300733}}, {"type": "Feature", "geometry": {"type": "Point", "coordinates": [13.5231746, 52.5129872]}, "properties": {"id": "4033002786", "name": "Stadtmission Gemeinde Friedrichsfelde Ost", "street": "Seddiner Straße 1", "zip-code": 10315.0, "city": "Berlin", "planning-area-id": 11401033}}, {"type": "Feature", "geometry": {"type": "Point", "coordinates": [13.4123837, 52.5606059]}, "properties": {"id": "4033039485", "name": "Stadtmission Gemeinde Pankow", "street": "Berliner Straße 44", "zip-code": 13189.0, "city": "Berlin", "planning-area-id": 3400826}}, {"type": "Feature", "geometry": {"type": "Point", "coordinates": [13.2957393, 52.4971471]}, "properties": {"id": "4033046356", "name": "Stadtmission Gemeinde Wilmersdorf", "street": "Joachim-Friedrich-Straße 46", "zip-code": 10711.0, "city": "Berlin", "planning-area-id": 4500938}}, {"type": "Feature", "geometry": {"type": "Point", "coordinates": [13.5029394, 52.5265782]}, "properties": {"id": "4033054438", "name": "Junge Kirche Berlin - Lichtenberg", "street": "Herzbergstraße 84", "zip-code": 10365.0, "city": "Berlin", "planning-area-id": 11300721}}, {"type": "Feature", "geometry": {"type": "Point", "coordinates": [13.4183984, 52.5008178]}, "properties": {"id": "4040784008", "name": "Islamisches Kulturzentrum der Bosniaken in Berlin", "street": "", "zip-code": "", "city": "", "planning-area-id": 2300314}}, {"type": "Feature", "geometry": {"type": "Point", "coordinates": [13.3786406, 52.5590748]}, "properties": {"id": "4061948098", "name": "Haci Bayram Moschee e.V.", "street": "Koloniestraße 129", "zip-code": 13359.0, "city": "Berlin", "planning-area-id": 1300730}}, {"type": "Feature", "geometry": {"type": "Point", "coordinates": [13.3130524, 52.5255887]}, "properties": {"id": "4134243271", "name": "Studien- und Arbeitsgruppe Joanna de Angelis", "street": "", "zip-code": "", "city": "", "planning-area-id": 4300518}}, {"type": "Feature", "geometry": {"type": "Point", "coordinates": [13.3985341, 52.534466]}, "properties": {"id": "4134251486", "name": "Studienkreis Allan Kardec", "street": "", "zip-code": "", "city": "", "planning-area-id": 1100416}}, {"type": "Feature", "geometry": {"type": "Point", "coordinates": [13.3855593, 52.554119]}, "properties": {"id": "4139472262", "name": "Akşemseddin Camii", "street": "Bellermannstraße 90", "zip-code": 13357.0, "city": "Berlin", "planning-area-id": 1300733}}, {"type": "Feature", "geometry": {"type": "Point", "coordinates": [13.301847, 52.5142393]}, "properties": {"id": "4207499766", "name": "UMC English Language International Congregation Berlin", "street": "Kaiser-Friedrich-Straße 87", "zip-code": 10585.0, "city": "Berlin", "planning-area-id": 4300621}}, {"type": "Feature", "geometry": {"type": "Point", "coordinates": [13.3018953, 52.5142654]}, "properties": {"id": "4207985891", "name": "Evangelisch-methodistische Kirchengemeinde Berlin-Charlottenburg", "street": "Kaiser-Friedrich-Straße 87", "zip-code": 10585.0, "city": "Berlin", "planning-area-id": 4300621}}, {"type": "Feature", "geometry": {"type": "Point", "coordinates": [13.322537, 52.432953]}, "properties": {"id": "4252410793", "name": "Berliner Mennoniten-Gemeinde", "street": "Promenadenstraße 15b", "zip-code": 12207.0, "city": "Berlin", "planning-area-id": 6200421}}, {"type": "Feature", "geometry": {"type": "Point", "coordinates": [13.3655904, 52.4310706]}, "properties": {"id": "4278114891", "name": "Friedensheim", "street": "", "zip-code": "", "city": "", "planning-area-id": 6200317}}, {"type": "Feature", "geometry": {"type": "Point", "coordinates": [13.2058287, 52.5424565]}, "properties": {"id": "4317329215", "name": "Hoca Ahmet Yesevi Camii", "street": "", "zip-code": "", "city": "", "planning-area-id": 5100315}}, {"type": "Feature", "geometry": {"type": "Point", "coordinates": [13.4799712, 52.5020615]}, "properties": {"id": "4331571609", "name": "Wat Sacca", "street": "Nöldnerstraße 19", "zip-code": 10317.0, "city": "Berlin", "planning-area-id": 11400928}}, {"type": "Feature", "geometry": {"type": "Point", "coordinates": [13.447549, 52.593826]}, "properties": {"id": "4362191535", "name": "Friedhof von ehem. Insassen des NS-Zwangsarbeiterlagers Blankenburg", "street": "", "zip-code": "", "city": "", "planning-area-id": 3300514}}, {"type": "Feature", "geometry": {"type": "Point", "coordinates": [13.3663176, 52.5436199]}, "properties": {"id": "4381394730", "name": "Eyüp Sultan Moschee", "street": "", "zip-code": "", "city": "", "planning-area-id": 1300836}}, {"type": "Feature", "geometry": {"type": "Point", "coordinates": [13.3665182, 52.4975351]}, "properties": {"id": "4419026895", "name": "Lutherkirchengemeinde", "street": "", "zip-code": "", "city": "", "planning-area-id": 7100205}}, {"type": "Feature", "geometry": {"type": "Point", "coordinates": [13.3544782, 52.4857586]}, "properties": {"id": "4486714441", "name": "Kabbalah Center Berlin", "street": "Hauptstraße 27", "zip-code": 10827.0, "city": "Berlin", "planning-area-id": 7200409}}, {"type": "Feature", "geometry": {"type": "Point", "coordinates": [13.3693086, 52.5488708]}, "properties": {"id": "4777467917", "name": "Yunus Emre Moschee", "street": "Reinickendorfer Straße 38-39", "zip-code": 13347.0, "city": "Berlin", "planning-area-id": 1401044}}, {"type": "Feature", "geometry": {"type": "Point", "coordinates": [13.3415596, 52.5279959]}, "properties": {"id": "4817551642", "name": "LIFE e.V.", "street": "Wilhelmshavener Straße 4", "zip-code": 10551.0, "city": "Berlin", "planning-area-id": 1200520}}, {"type": "Feature", "geometry": {"type": "Point", "coordinates": [13.4283306, 52.4983623]}, "properties": {"id": "4879970440", "name": "Zentralmoschee", "street": "", "zip-code": "", "city": "", "planning-area-id": 2300417}}, {"type": "Feature", "geometry": {"type": "Point", "coordinates": [13.3804495, 52.5534058]}, "properties": {"id": "4899779632", "name": "", "street": "", "zip-code": "", "city": "", "planning-area-id": 1401045}}, {"type": "Feature", "geometry": {"type": "Point", "coordinates": [13.2775636, 52.4885844]}, "properties": {"id": "4926337191", "name": "Johannische Kirche", "street": "", "zip-code": "", "city": "", "planning-area-id": 4400726}}, {"type": "Feature", "geometry": {"type": "Point", "coordinates": [13.412401, 52.5521145]}, "properties": {"id": "5034289021", "name": "Christliche Wissenschaft", "street": "Paul-Robeson-Straße 45", "zip-code": 10439.0, "city": "Berlin", "planning-area-id": 3601141}}, {"type": "Feature", "geometry": {"type": "Point", "coordinates": [13.3895642, 52.4940136]}, "properties": {"id": "5057966521", "name": "Neuapostolische Kirche", "street": "Baruther Straße 4", "zip-code": "", "city": "", "planning-area-id": 2200210}}, {"type": "Feature", "geometry": {"type": "Point", "coordinates": [13.452399, 52.4829894]}, "properties": {"id": "5102322080", "name": "Al-Torath e.V.", "street": "Harzer Straße 51-52", "zip-code": 12059.0, "city": "Berlin", "planning-area-id": 8100419}}, {"type": "Feature", "geometry": {"type": "Point", "coordinates": [13.4434141, 52.5000169]}, "properties": {"id": "5102337476", "name": "Deutsch-libanesische Al-Balagh e.V.", "street": "Falckensteinstraße 4", "zip-code": 10997.0, "city": "Berlin", "planning-area-id": 2300419}}, {"type": "Feature", "geometry": {"type": "Point", "coordinates": [13.4056115, 52.5499382]}, "properties": {"id": "5354908060", "name": "Evangelische Gemeinschaft", "street": "", "zip-code": "", "city": "", "planning-area-id": 3601141}}, {"type": "Feature", "geometry": {"type": "Point", "coordinates": [13.3155658, 52.4562173]}, "properties": {"id": "5355879057", "name": "International Baptist Church", "street": "Rothenburgstraße 12a", "zip-code": "", "city": "", "planning-area-id": 6100101}}, {"type": "Feature", "geometry": {"type": "Point", "coordinates": [13.2868454, 52.5036843]}, "properties": {"id": "5359144778", "name": "Synagoge Herbartstraße", "street": "Herbartstraße 26", "zip-code": 14057.0, "city": "Berlin", "planning-area-id": 4300415}}, {"type": "Feature", "geometry": {"type": "Point", "coordinates": [13.3020519, 52.591834]}, "properties": {"id": "5749586419", "name": "Erlöserkirche", "street": "Gorkistraße 127", "zip-code": 13509.0, "city": "Berlin", "planning-area-id": 12500824}}, {"type": "Feature", "geometry": {"type": "Point", "coordinates": [13.3587829, 52.4879805]}, "properties": {"id": "5760441944", "name": "Emir Sultan", "street": "", "zip-code": "", "city": "", "planning-area-id": 7200411}}, {"type": "Feature", "geometry": {"type": "Point", "coordinates": [13.4405261, 52.4742836]}, "properties": {"id": "5969944136", "name": "Tekke-i Kadiriyye Mescidi", "street": "Karl-Marx-Straße 179", "zip-code": "", "city": "", "planning-area-id": 8100416}}, {"type": "Feature", "geometry": {"type": "Point", "coordinates": [13.3601581, 52.5489283]}, "properties": {"id": "5969958074", "name": "Mehmed Zahid Kotku Tekkesi", "street": "Turiner Straße 6", "zip-code": "", "city": "", "planning-area-id": 1401048}}, {"type": "Feature", "geometry": {"type": "Point", "coordinates": [13.2873143, 52.5154304]}, "properties": {"id": "5969997512", "name": "Seituna Moschee", "street": "Sophie-Charlotten-Straße 31", "zip-code": "", "city": "", "planning-area-id": 4300413}}, {"type": "Feature", "geometry": {"type": "Point", "coordinates": [13.3691149, 52.4917345]}, "properties": {"id": "5970017362", "name": "Ditib Anadolu Camii", "street": "Katzlerstraße 15", "zip-code": "", "city": "", "planning-area-id": 7100206}}, {"type": "Feature", "geometry": {"type": "Point", "coordinates": [13.3887078, 52.5391431]}, "properties": {"id": "5970060886", "name": "Ashab-i Kehf Camii", "street": "Jasmunder Straße 3", "zip-code": "", "city": "", "planning-area-id": 1300835}}, {"type": "Feature", "geometry": {"type": "Point", "coordinates": [13.4211838, 52.4787946]}, "properties": {"id": "5970082401", "name": "Baitul Mukarram Masjid e.V.", "street": "Selchower Straße 12", "zip-code": 12049.0, "city": "Berlin", "planning-area-id": 8100102}}, {"type": "Feature", "geometry": {"type": "Point", "coordinates": [13.4317356, 52.4827352]}, "properties": {"id": "5976073569", "name": "Xhamia Isa Beuy Moschee", "street": "Karl-Marx-Straße 58", "zip-code": 12043.0, "city": "Berlin", "planning-area-id": 8100206}}, {"type": "Feature", "geometry": {"type": "Point", "coordinates": [13.2023837, 52.5487201]}, "properties": {"id": "5976087510", "name": "Spandau Yeni Camii", "street": "Lynarstraße 17", "zip-code": 13585.0, "city": "Berlin", "planning-area-id": 5100314}}, {"type": "Feature", "geometry": {"type": "Point", "coordinates": [13.3608288, 52.5004818]}, "properties": {"id": "5976092238", "name": "Semerkant Moschee", "street": "Kurfürstenstraße 37", "zip-code": "", "city": "", "planning-area-id": 1100103}}, {"type": "Feature", "geometry": {"type": "Point", "coordinates": [13.3850921, 52.4965099]}, "properties": {"id": "5976101318", "name": "Orhan Gazi Camii", "street": "Obentrautstraße 35", "zip-code": 10963.0, "city": "Berlin", "planning-area-id": 2200208}}, {"type": "Feature", "geometry": {"type": "Point", "coordinates": [13.4293871, 52.4715918]}, "properties": {"id": "5976130396", "name": "Neukölln Camii", "street": "Hermannstraße 177", "zip-code": 12051.0, "city": "Berlin", "planning-area-id": 8100208}}, {"type": "Feature", "geometry": {"type": "Point", "coordinates": [13.4240271, 52.4905131]}, "properties": {"id": "5980150601", "name": "Muradiye Camii - Türkisch-Islamischer Kulturverein e.V.", "street": "", "zip-code": "", "city": "", "planning-area-id": 8100311}}, {"type": "Feature", "geometry": {"type": "Point", "coordinates": [13.3132266, 52.5247106]}, "properties": {"id": "5980162241", "name": "Moschee Al-Salam", "street": "Goslarer Platz 5", "zip-code": "", "city": "", "planning-area-id": 4300518}}, {"type": "Feature", "geometry": {"type": "Point", "coordinates": [13.4321418, 52.4656222]}, "properties": {"id": "5980184803", "name": "Mimar Sinan Camii", "street": "Hermannstraße 120", "zip-code": "", "city": "", "planning-area-id": 8100105}}, {"type": "Feature", "geometry": {"type": "Point", "coordinates": [13.3950503, 52.4575259]}, "properties": {"id": "5988221849", "name": "Ibrahim-al-Khalil-Moschee", "street": "", "zip-code": "", "city": "", "planning-area-id": 7400927}}, {"type": "Feature", "geometry": {"type": "Point", "coordinates": [13.4452454, 52.5525475]}, "properties": {"id": "6147582386", "name": "Buddhistisches Zentrum Berlin", "street": "Charlottenburger Straße 28", "zip-code": 13086.0, "city": "Berlin", "planning-area-id": 3500935}}, {"type": "Feature", "geometry": {"type": "Point", "coordinates": [13.3636495, 52.5623258]}, "properties": {"id": "6168035493", "name": "Ditib Koca Sinan Camii", "street": "Holländerstraße 128", "zip-code": "", "city": "", "planning-area-id": 12100204}}, {"type": "Feature", "geometry": {"type": "Point", "coordinates": [13.3837938, 52.5286225]}, "properties": {"id": "6181021263", "name": "Kapelle", "street": "", "zip-code": "", "city": "", "planning-area-id": 1100308}}, {"type": "Feature", "geometry": {"type": "Point", "coordinates": [13.3495215, 52.546539]}, "properties": {"id": "6288821537", "name": "Al Firdaus Moschee", "street": "Brüsseler Straße 39", "zip-code": 13353.0, "city": "Berlin", "planning-area-id": 1400942}}, {"type": "Feature", "geometry": {"type": "Point", "coordinates": [13.2791877, 52.5170517]}, "properties": {"id": "6451805759", "name": "Dharma Mati", "street": "Soorstraße 85", "zip-code": 14050.0, "city": "Berlin", "planning-area-id": 4200311}}, {"type": "Feature", "geometry": {"type": "Point", "coordinates": [13.3664292, 52.4967907]}, "properties": {"id": "6479789902", "name": "American Church in Berlin", "street": "Bülowstraße 71-72", "zip-code": 10783.0, "city": "Berlin", "planning-area-id": 7100205}}, {"type": "Feature", "geometry": {"type": "Point", "coordinates": [13.3310917, 52.5675373]}, "properties": {"id": "6501792288", "name": "Sikh tempel", "street": "", "zip-code": "", "city": "", "planning-area-id": 12100205}}, {"type": "Feature", "geometry": {"type": "Point", "coordinates": [13.2589531, 52.5136549]}, "properties": {"id": "6573713854", "name": "Kirche Mariae Verkündigung", "street": "", "zip-code": "", "city": "", "planning-area-id": 4200309}}, {"type": "Feature", "geometry": {"type": "Point", "coordinates": [13.4460908, 52.5693535]}, "properties": {"id": "6587735838", "name": "Wat Buddhavihara Berlin", "street": "", "zip-code": "", "city": "", "planning-area-id": 3300516}}, {"type": "Feature", "geometry": {"type": "Point", "coordinates": [13.3698805, 52.5498509]}, "properties": {"id": "6609901764", "name": "Zen Zentrum Berlin", "street": "Gottschedstraße 4", "zip-code": 13357.0, "city": "Berlin", "planning-area-id": 1401044}}, {"type": "Feature", "geometry": {"type": "Point", "coordinates": [13.4290588, 52.4817242]}, "properties": {"id": "6666493460", "name": "Imam Riza Moschee", "street": "Reuterstraße 93", "zip-code": 12053.0, "city": "Berlin", "planning-area-id": 8100206}}, {"type": "Feature", "geometry": {"type": "Point", "coordinates": [13.3623924, 52.4341427]}, "properties": {"id": "6813621285", "name": "Äthiopisch-Orthodoxe Gemeinde Berlin", "street": "", "zip-code": "", "city": "", "planning-area-id": 6200316}}, {"type": "Feature", "geometry": {"type": "Point", "coordinates": [13.4277849, 52.5351382]}, "properties": {"id": "7105141868", "name": "Philippus-Gemeinde", "street": "Christburger Straße 13", "zip-code": 10405.0, "city": "Berlin", "planning-area-id": 3701658}}, {"type": "Feature", "geometry": {"type": "Point", "coordinates": [13.4413119, 52.4727133]}, "properties": {"id": "7239671339", "name": "Evangelische Kirchengemeinde Rixdorf", "street": "Karl-Marx-Straße 197", "zip-code": "", "city": "", "planning-area-id": 8100416}}, {"type": "Feature", "geometry": {"type": "Point", "coordinates": [13.4427478, 52.4759459]}, "properties": {"id": "7245424102", "name": "Berlin Mesihin Kilisesi", "street": "Richardstraße 28", "zip-code": 12043.0, "city": "Berlin", "planning-area-id": 8100416}}, {"type": "Feature", "geometry": {"type": "Point", "coordinates": [13.3821255, 52.5596656]}, "properties": {"id": "7305754087", "name": "Mescidi Aksa Camii", "street": "Soldiner Straße 72", "zip-code": 13359.0, "city": "Berlin", "planning-area-id": 1300730}}, {"type": "Feature", "geometry": {"type": "Point", "coordinates": [13.2978011, 52.4956849]}, "properties": {"id": "7330188834", "name": "Reset Charlottenburg", "street": "", "zip-code": "", "city": "", "planning-area-id": 4500938}}, {"type": "Feature", "geometry": {"type": "Point", "coordinates": [13.3813897, 52.5620819]}, "properties": {"id": "7548667986", "name": "İmam Cafer Sadık Camii", "street": "Koloniestraße 106", "zip-code": 13359.0, "city": "Berlin", "planning-area-id": 1300731}}, {"type": "Feature", "geometry": {"type": "Point", "coordinates": [13.3702349, 52.5643593]}, "properties": {"id": "7548668191", "name": "Turgut Alp Camii", "street": "", "zip-code": "", "city": "", "planning-area-id": 12100101}}, {"type": "Feature", "geometry": {"type": "Point", "coordinates": [13.3347061, 52.4706483]}, "properties": {"id": "7554137778", "name": "Happy Science", "street": "Rheinstraße 63", "zip-code": 12159.0, "city": "Berlin", "planning-area-id": 7300618}}, {"type": "Feature", "geometry": {"type": "Point", "coordinates": [13.3288299, 52.4755949]}, "properties": {"id": "7598149820", "name": "Reset Berlin", "street": "Bundesallee 137", "zip-code": 12161.0, "city": "Berlin", "planning-area-id": 7300517}}, {"type": "Feature", "geometry": {"type": "Point", "coordinates": [13.3444459, 52.554464]}, "properties": {"id": "7601365299", "name": "Sülemaniye Camii", "street": "Müllerstraße 119", "zip-code": 13349.0, "city": "Berlin", "planning-area-id": 1400937}}, {"type": "Feature", "geometry": {"type": "Point", "coordinates": [13.3204476, 52.4749464]}, "properties": {"id": "7695790045", "name": "Zentrum für Meditation und tibetischen Yoga", "street": "Laubacher Straße 21", "zip-code": 14197.0, "city": "Berlin", "planning-area-id": 7300515}}, {"type": "Feature", "geometry": {"type": "Point", "coordinates": [13.344014, 52.4714072]}, "properties": {"id": "7747350429", "name": "The Chapel of Prayer Christian Ministry", "street": "", "zip-code": "", "city": "", "planning-area-id": 7300619}}, {"type": "Feature", "geometry": {"type": "Point", "coordinates": [13.3435488, 52.4621584]}, "properties": {"id": "8042869045", "name": "Apostelamt Jesu Christi", "street": "", "zip-code": "", "city": "", "planning-area-id": 6100210}}, {"type": "Feature", "geometry": {"type": "Point", "coordinates": [13.32215, 52.5090458]}, "properties": {"id": "8044529220", "name": "Shiva-Ganesha-Tempel", "street": "", "zip-code": "", "city": "", "planning-area-id": 4300624}}, {"type": "Feature", "geometry": {"type": "Point", "coordinates": [13.3362114, 52.4293515]}, "properties": {"id": "8345888598", "name": "Kreuzkirche Lankwitz", "street": "Zietenstraße 11", "zip-code": 12249.0, "city": "Berlin", "planning-area-id": 6200314}}, {"type": "Feature", "geometry": {"type": "Point", "coordinates": [13.3912348, 52.4680699]}, "properties": {"id": "8384940144", "name": "ICF Berlin Tempelhof", "street": "Ringbahnstraße 32-34", "zip-code": 12099.0, "city": "Berlin", "planning-area-id": 7400927}}, {"type": "Feature", "geometry": {"type": "Point", "coordinates": [13.1659198, 52.5223755]}, "properties": {"id": "8435917976", "name": "Evangelische Kirchengemeinde Staaken", "street": "Obstallee 22E", "zip-code": 13593.0, "city": "Berlin", "planning-area-id": 5200527}}, {"type": "Feature", "geometry": {"type": "Point", "coordinates": [13.439441, 52.4789941]}, "properties": {"id": "8458615128", "name": "Ditib Berlin Yeni Cami", "street": "Richardstraße 112", "zip-code": 12043.0, "city": "Berlin", "planning-area-id": 8100415}}, {"type": "Feature", "geometry": {"type": "Point", "coordinates": [13.3433569, 52.5985999]}, "properties": {"id": "8570055807", "name": "Al-Khayr Moschee", "street": "Eichhorster Weg 25", "zip-code": 13435.0, "city": "Berlin", "planning-area-id": 12601134}}, {"type": "Feature", "geometry": {"type": "Point", "coordinates": [13.3023897, 52.5142334]}, "properties": {"id": "8594871395", "name": "Gemeinde Gierkezeile", "street": "Gierkezeile 13", "zip-code": 10585.0, "city": "Berlin", "planning-area-id": 4300621}}, {"type": "Feature", "geometry": {"type": "Point", "coordinates": [13.2934894, 52.5869801]}, "properties": {"id": "8739849517", "name": "Tegel Selimiye Camii", "street": "Trettachzeile 7", "zip-code": 13509.0, "city": "Berlin", "planning-area-id": 12500825}}, {"type": "Feature", "geometry": {"type": "Point", "coordinates": [13.3934854, 52.3894866]}, "properties": {"id": "8786525286", "name": "Evangelische Salem-Gemeinde", "street": "Wünsdorfer Straße 88", "zip-code": 12307.0, "city": "Berlin", "planning-area-id": 7601546}}, {"type": "Feature", "geometry": {"type": "Point", "coordinates": [13.4313468, 52.5091947]}, "properties": {"id": "8976623075", "name": "Andreas-Kirchsaal", "street": "", "zip-code": "", "city": "", "planning-area-id": 2400623}}, {"type": "Feature", "geometry": {"type": "Point", "coordinates": [13.5818309, 52.5047514]}, "properties": {"id": "9354973732", "name": "Evangelische Freikirche Leuchtturm", "street": "", "zip-code": 12621.0, "city": "Berlin", "planning-area-id": 10400837}}, {"type": "Feature", "geometry": {"type": "Point", "coordinates": [13.5779309, 52.5394635]}, "properties": {"id": "9592974541", "name": "", "street": "", "zip-code": "", "city": "", "planning-area-id": 10100316}}, {"type": "Feature", "geometry": {"type": "Point", "coordinates": [13.5777427, 52.5394723]}, "properties": {"id": "9592974542", "name": "Pura Tri Hita Karana", "street": "", "zip-code": "", "city": "", "planning-area-id": 10100316}}, {"type": "Feature", "geometry": {"type": "Point", "coordinates": [13.3671997, 52.5680221]}, "properties": {"id": "9610861154", "name": "", "street": "", "zip-code": "", "city": "", "planning-area-id": 12100102}}, {"type": "Feature", "geometry": {"type": "Point", "coordinates": [13.4324713, 52.4801734]}, "properties": {"id": "9689643017", "name": "Buddhismus in Berlin e.V.", "street": "Neckarstraße 12", "zip-code": 12053.0, "city": "", "planning-area-id": 8100206}}, {"type": "Feature", "geometry": {"type": "Point", "coordinates": [13.3107756, 52.465579]}, "properties": {"id": "9794512245", "name": "Gemeinde Christi Breitenbachplatz", "street": "Forststraße 24", "zip-code": 12163.0, "city": "Berlin", "planning-area-id": 6100101}}, {"type": "Feature", "geometry": {"type": "Point", "coordinates": [13.2084891, 52.56015]}, "properties": {"id": "10027402644", "name": "Miao Fa Zentrum", "street": "Streitstraße 23", "zip-code": 13587.0, "city": "Berlin", "planning-area-id": 5100104}}, {"type": "Feature", "geometry": {"type": "Point", "coordinates": [13.2907681, 52.5192755]}, "properties": {"id": "10599872965", "name": "Ensar Camii", "street": "", "zip-code": "", "city": "", "planning-area-id": 4300412}}, {"type": "Feature", "geometry": {"type": "Point", "coordinates": [13.3360945, 52.5809262]}, "properties": {"id": "10863033623", "name": "Berlin Full Gospel Church", "street": "Blunckstraße 14", "zip-code": 13437.0, "city": "Berlin", "planning-area-id": 12500930}}, {"type": "Feature", "geometry": {"type": "Point", "coordinates": [13.2847589, 52.5131113]}, "properties": {"id": "10863195254", "name": "Centre Chrétien Agape e.V.", "street": "Knobelsdorffstraße 72", "zip-code": 14059.0, "city": "Berlin", "planning-area-id": 4200311}}, {"type": "Feature", "geometry": {"type": "Point", "coordinates": [13.3968698, 52.422699]}, "properties": {"id": "11072479451", "name": "", "street": "Mariendorfer Damm 347", "zip-code": 12107.0, "city": "Berlin", "planning-area-id": 7501134}}, {"type": "Feature", "geometry": {"type": "Point", "coordinates": [13.5714853, 52.437351]}, "properties": {"id": "11078106301", "name": "Königreichssaal Jehovas Zeugen", "street": "Grünauer Straße 104", "zip-code": 12557.0, "city": "Berlin", "planning-area-id": 9200819}}, {"type": "Feature", "geometry": {"type": "Point", "coordinates": [13.3839192, 52.5498591]}, "properties": {"id": "11078119221", "name": "Königreichsaal Jehovas Zeugen", "street": "Hochstraße 3", "zip-code": 13357.0, "city": "Berlin", "planning-area-id": 1300836}}, {"type": "Feature", "geometry": {"type": "Point", "coordinates": [13.4746032, 52.608821]}, "properties": {"id": "11078121906", "name": "Königreichssaal Jehovas Zeugen", "street": "Straße 34 3", "zip-code": 13125.0, "city": "Berlin", "planning-area-id": 3300412}}, {"type": "Feature", "geometry": {"type": "Point", "coordinates": [13.4612618, 52.5640554]}, "properties": {"id": "11214170388", "name": "diekreative", "street": "An der Industriebahn 12", "zip-code": 13088.0, "city": "Berlin", "planning-area-id": 3501037}}, {"type": "Feature", "geometry": {"type": "Point", "coordinates": [13.3357611, 52.5260433]}, "properties": {"id": "11258323951", "name": "Ibn Rushd-Goethe Moschee", "street": "", "zip-code": "", "city": "", "planning-area-id": 1200521}}, {"type": "Feature", "geometry": {"type": "Point", "coordinates": [13.3394516, 52.6012255]}, "properties": {"id": "11379293585", "name": "Ev. Felsen-Kirchengemeinde", "street": "Eichhorster Weg 58", "zip-code": "", "city": "", "planning-area-id": 12601031}}, {"type": "Feature", "geometry": {"type": "Point", "coordinates": [13.4557435, 52.4285195]}, "properties": {"id": "11379989012", "name": "Ev.Kirchengemeinde in der Gropiusstadt Standort Martin Luther King", "street": "Martin-Luther-King-Weg 6", "zip-code": 12351.0, "city": "Berlin", "planning-area-id": 8300934}}]}