{"type": "FeatureCollection", "features": [{"type": "Feature", "geometry": {"type": "Point", "coordinates": [13.2961178, 52.4993218]}, "properties": {"id": "63253672", "name": "Späti Joe", "street": "Joachim-Friedrich-Straße 39", "zip-code": 10711.0, "city": "Berlin", "planning-area-id": 4500937}}, {"type": "Feature", "geometry": {"type": "Point", "coordinates": [13.1474707, 52.5408415]}, "properties": {"id": "141469102", "name": "", "street": "", "zip-code": "", "city": "", "planning-area-id": 5200419}}, {"type": "Feature", "geometry": {"type": "Point", "coordinates": [13.4626981, 52.5110467]}, "properties": {"id": "253616592", "name": "Mein Markt Pham", "street": "", "zip-code": "", "city": "", "planning-area-id": 2500833}}, {"type": "Feature", "geometry": {"type": "Point", "coordinates": [13.5874999, 52.5092086]}, "properties": {"id": "266629404", "name": "...nah und gut", "street": "Mädewalder Weg 45", "zip-code": 12621.0, "city": "Berlin", "planning-area-id": 10400836}}, {"type": "Feature", "geometry": {"type": "Point", "coordinates": [13.4165385, 52.5017902]}, "properties": {"id": "269475044", "name": "Milchladen", "street": "Dresdener Straße 20", "zip-code": 10999.0, "city": "Berlin", "planning-area-id": 2300314}}, {"type": "Feature", "geometry": {"type": "Point", "coordinates": [13.3931869, 52.4990942]}, "properties": {"id": "277681454", "name": "Bagdad Lebensmittel", "street": "", "zip-code": "", "city": "", "planning-area-id": 2100102}}, {"type": "Feature", "geometry": {"type": "Point", "coordinates": [13.4529561, 52.5083552]}, "properties": {"id": "278124916", "name": "Drinks & more", "street": "Revaler Straße 9", "zip-code": 10245.0, "city": "Berlin", "planning-area-id": 2500834}}, {"type": "Feature", "geometry": {"type": "Point", "coordinates": [13.4611651, 52.5108993]}, "properties": {"id": "282406641", "name": "Drink Oase", "street": "Gärtnerstraße 14", "zip-code": 10245.0, "city": "Berlin", "planning-area-id": 2500833}}, {"type": "Feature", "geometry": {"type": "Point", "coordinates": [13.4635638, 52.4992044]}, "properties": {"id": "286210165", "name": "Spätverkauf", "street": "", "zip-code": "", "city": "", "planning-area-id": 2500835}}, {"type": "Feature", "geometry": {"type": "Point", "coordinates": [13.4094976, 52.5291171]}, "properties": {"id": "287297820", "name": "Midnight Shop", "street": "Schönhauser Allee 188", "zip-code": 10119.0, "city": "Berlin", "planning-area-id": 3701554}}, {"type": "Feature", "geometry": {"type": "Point", "coordinates": [13.2035603, 52.5376931]}, "properties": {"id": "298676294", "name": "Reformhaus", "street": "", "zip-code": "", "city": "", "planning-area-id": 5100316}}, {"type": "Feature", "geometry": {"type": "Point", "coordinates": [13.5726195, 52.3934584]}, "properties": {"id": "304897065", "name": "Nhat Long", "street": "Waltersdorfer Straße 47", "zip-code": 12526.0, "city": "Berlin", "planning-area-id": 9301025}}, {"type": "Feature", "geometry": {"type": "Point", "coordinates": [13.4175963, 52.4924848]}, "properties": {"id": "310267641", "name": "E Markt", "street": "Dieffenbachstraße 55", "zip-code": 10967.0, "city": "Berlin", "planning-area-id": 2200213}}, {"type": "Feature", "geometry": {"type": "Point", "coordinates": [13.3430964, 52.4808992]}, "properties": {"id": "310377176", "name": "Mein Markt", "street": "Innsbrucker Straße 37", "zip-code": 10825.0, "city": "Berlin", "planning-area-id": 7200308}}, {"type": "Feature", "geometry": {"type": "Point", "coordinates": [13.376473, 52.5429183]}, "properties": {"id": "312820851", "name": "Spätkauf", "street": "Gerichtstraße 78", "zip-code": 13347.0, "city": "Berlin", "planning-area-id": 1300836}}, {"type": "Feature", "geometry": {"type": "Point", "coordinates": [13.4519646, 52.5257591]}, "properties": {"id": "313874489", "name": "Asia Supermarket", "street": "", "zip-code": "", "city": "", "planning-area-id": 2500726}}, {"type": "Feature", "geometry": {"type": "Point", "coordinates": [13.4516579, 52.5262878]}, "properties": {"id": "313874493", "name": "Eren", "street": "Ebertystraße 52", "zip-code": 10249.0, "city": "Berlin", "planning-area-id": 2500726}}, {"type": "Feature", "geometry": {"type": "Point", "coordinates": [13.4531781, 52.5231705]}, "properties": {"id": "314401614", "name": "Asia Lebensmittel", "street": "Straßmannstraße 41", "zip-code": 10249.0, "city": "Berlin", "planning-area-id": 2500726}}, {"type": "Feature", "geometry": {"type": "Point", "coordinates": [13.4513021, 52.5227042]}, "properties": {"id": "314401618", "name": "Mini Markt 25", "street": "", "zip-code": "", "city": "", "planning-area-id": 2500726}}, {"type": "Feature", "geometry": {"type": "Point", "coordinates": [13.4509232, 52.5223054]}, "properties": {"id": "314401620", "name": "Ja Dilo", "street": "Petersburger Straße 45", "zip-code": 10249.0, "city": "Berlin", "planning-area-id": 2500726}}, {"type": "Feature", "geometry": {"type": "Point", "coordinates": [13.4503447, 52.5231896]}, "properties": {"id": "314401622", "name": "Asia Shop", "street": "", "zip-code": "", "city": "", "planning-area-id": 2500726}}, {"type": "Feature", "geometry": {"type": "Point", "coordinates": [13.3983598, 52.5270002]}, "properties": {"id": "322153511", "name": "Kiezmarkt", "street": "Große Hamburger Straße 39", "zip-code": 10115.0, "city": "", "planning-area-id": 1100309}}, {"type": "Feature", "geometry": {"type": "Point", "coordinates": [13.4616129, 52.5087187]}, "properties": {"id": "331347585", "name": "Nice 2 See U", "street": "Wühlischstraße 19", "zip-code": 10245.0, "city": "Berlin", "planning-area-id": 2500833}}, {"type": "Feature", "geometry": {"type": "Point", "coordinates": [13.4247724, 52.4756969]}, "properties": {"id": "364135228", "name": "Orange", "street": "", "zip-code": "", "city": "", "planning-area-id": 8100103}}, {"type": "Feature", "geometry": {"type": "Point", "coordinates": [13.3430149, 52.5282633]}, "properties": {"id": "411899540", "name": "All in One Shop", "street": "", "zip-code": "", "city": "", "planning-area-id": 1200520}}, {"type": "Feature", "geometry": {"type": "Point", "coordinates": [13.375534, 52.4550699]}, "properties": {"id": "420512359", "name": "Spätkauf am Atillaplatz", "street": "Alarichstraße 1", "zip-code": 12105.0, "city": "Berlin", "planning-area-id": 7400826}}, {"type": "Feature", "geometry": {"type": "Point", "coordinates": [13.4964222, 52.5120271]}, "properties": {"id": "427670051", "name": "Späti", "street": "", "zip-code": "", "city": "", "planning-area-id": 11300725}}, {"type": "Feature", "geometry": {"type": "Point", "coordinates": [13.4974878, 52.5117432]}, "properties": {"id": "427670062", "name": "Kiez-Shop", "street": "Frankfurter Allee 246-248", "zip-code": "", "city": "", "planning-area-id": 11300725}}, {"type": "Feature", "geometry": {"type": "Point", "coordinates": [13.3602113, 52.4899925]}, "properties": {"id": "429729075", "name": "City-Kiosk", "street": "Hauptstraße 160", "zip-code": 10827.0, "city": "Berlin", "planning-area-id": 7200411}}, {"type": "Feature", "geometry": {"type": "Point", "coordinates": [13.4543186, 52.5028638]}, "properties": {"id": "430126697", "name": "Obst und Gemüse", "street": "", "zip-code": "", "city": "", "planning-area-id": 2500835}}, {"type": "Feature", "geometry": {"type": "Point", "coordinates": [13.4622583, 52.5097543]}, "properties": {"id": "431655696", "name": "LPG", "street": "Seumestraße 12", "zip-code": 10245.0, "city": "Berlin", "planning-area-id": 2500833}}, {"type": "Feature", "geometry": {"type": "Point", "coordinates": [13.2033126, 52.5374568]}, "properties": {"id": "434492758", "name": "Supermarkt Rose", "street": "", "zip-code": "", "city": "", "planning-area-id": 5100316}}, {"type": "Feature", "geometry": {"type": "Point", "coordinates": [13.4914514, 52.503197]}, "properties": {"id": "438150623", "name": "Mini Markt", "street": "", "zip-code": "", "city": "", "planning-area-id": 11400929}}, {"type": "Feature", "geometry": {"type": "Point", "coordinates": [13.3564031, 52.5510932]}, "properties": {"id": "440971671", "name": "Mini Market Alper", "street": "", "zip-code": "", "city": "", "planning-area-id": 1401048}}, {"type": "Feature", "geometry": {"type": "Point", "coordinates": [13.4346275, 52.4609503]}, "properties": {"id": "441513730", "name": "Huzur Gida", "street": "", "zip-code": "", "city": "", "planning-area-id": 8200624}}, {"type": "Feature", "geometry": {"type": "Point", "coordinates": [13.4403109, 52.4673029]}, "properties": {"id": "442749323", "name": "Spät-Shop", "street": "Silbersteinstraße 9", "zip-code": 12051.0, "city": "Berlin", "planning-area-id": 8100209}}, {"type": "Feature", "geometry": {"type": "Point", "coordinates": [13.4410845, 52.5011115]}, "properties": {"id": "448594622", "name": "Späti am Schlesi", "street": "", "zip-code": "", "city": "", "planning-area-id": 2300316}}, {"type": "Feature", "geometry": {"type": "Point", "coordinates": [13.5100245, 52.5509168]}, "properties": {"id": "452385593", "name": "Multi Spätkauf", "street": "", "zip-code": "", "city": "", "planning-area-id": 11200410}}, {"type": "Feature", "geometry": {"type": "Point", "coordinates": [13.4351467, 52.4860909]}, "properties": {"id": "454251024", "name": "Spätcampus", "street": "Weichselstraße 54", "zip-code": 12045.0, "city": "Berlin", "planning-area-id": 8100312}}, {"type": "Feature", "geometry": {"type": "Point", "coordinates": [13.4465218, 52.5211339]}, "properties": {"id": "458138650", "name": "Spätkauf Olive", "street": "", "zip-code": "", "city": "", "planning-area-id": 2400522}}, {"type": "Feature", "geometry": {"type": "Point", "coordinates": [13.3878363, 52.4405026]}, "properties": {"id": "458752207", "name": "Mariendorfer back & spätkauf", "street": "", "zip-code": "", "city": "", "planning-area-id": 7501031}}, {"type": "Feature", "geometry": {"type": "Point", "coordinates": [13.4466536, 52.5171097]}, "properties": {"id": "461624503", "name": "Markt an der Weberwiese", "street": "", "zip-code": 10243.0, "city": "Berlin", "planning-area-id": 2400522}}, {"type": "Feature", "geometry": {"type": "Point", "coordinates": [13.2855387, 52.5885762]}, "properties": {"id": "470319897", "name": "Steinshop", "street": "", "zip-code": "", "city": "", "planning-area-id": 12200515}}, {"type": "Feature", "geometry": {"type": "Point", "coordinates": [13.3900362, 52.5578099]}, "properties": {"id": "473629401", "name": "Soldiner Späti", "street": "Soldiner Straße 14", "zip-code": 13359.0, "city": "Berlin", "planning-area-id": 1300732}}, {"type": "Feature", "geometry": {"type": "Point", "coordinates": [13.4441313, 52.4816447]}, "properties": {"id": "476259949", "name": "Heimgetränke", "street": "Innstraße 9", "zip-code": 12045.0, "city": "Berlin", "planning-area-id": 8100418}}, {"type": "Feature", "geometry": {"type": "Point", "coordinates": [13.4242868, 52.544033]}, "properties": {"id": "506197795", "name": "Lateshop Café Roj", "street": "Stargarder Straße 50", "zip-code": 10437.0, "city": "Berlin", "planning-area-id": 3601348}}, {"type": "Feature", "geometry": {"type": "Point", "coordinates": [13.3575427, 52.541734]}, "properties": {"id": "530715886", "name": "", "street": "", "zip-code": "", "city": "", "planning-area-id": 1401047}}, {"type": "Feature", "geometry": {"type": "Point", "coordinates": [13.3590534, 52.542862]}, "properties": {"id": "530715910", "name": "Spätkauf & Backwaren", "street": "Sprengelstraße 2", "zip-code": "", "city": "", "planning-area-id": 1401047}}, {"type": "Feature", "geometry": {"type": "Point", "coordinates": [13.4157637, 52.5472275]}, "properties": {"id": "560524658", "name": "Asia Markt Frischekorb", "street": "Stargarder Straße 6", "zip-code": 10437.0, "city": "Berlin", "planning-area-id": 3601346}}, {"type": "Feature", "geometry": {"type": "Point", "coordinates": [13.4204087, 52.5454075]}, "properties": {"id": "560525457", "name": "Verbrauchermarkt", "street": "Stargarder Straße 21", "zip-code": 10437.0, "city": "Berlin", "planning-area-id": 3601347}}, {"type": "Feature", "geometry": {"type": "Point", "coordinates": [13.416199, 52.5436171]}, "properties": {"id": "567169596", "name": "RK Markt", "street": "Raumerstraße 2", "zip-code": 10437.0, "city": "Berlin", "planning-area-id": 3601347}}, {"type": "Feature", "geometry": {"type": "Point", "coordinates": [13.4496607, 52.5227373]}, "properties": {"id": "567546833", "name": "Petersburger Getränke Shop", "street": "", "zip-code": "", "city": "", "planning-area-id": 2400522}}, {"type": "Feature", "geometry": {"type": "Point", "coordinates": [13.4527734, 52.523981]}, "properties": {"id": "567546844", "name": "Eberty Point", "street": "Ebertystraße 15", "zip-code": 10249.0, "city": "Berlin", "planning-area-id": 2500726}}, {"type": "Feature", "geometry": {"type": "Point", "coordinates": [13.4673128, 52.5128191]}, "properties": {"id": "573381061", "name": "Quang Loi", "street": "Scharnweberstraße 20", "zip-code": 10247.0, "city": "Berlin", "planning-area-id": 2500831}}, {"type": "Feature", "geometry": {"type": "Point", "coordinates": [13.4658832, 52.5129377]}, "properties": {"id": "576051172", "name": "Lebensmittel", "street": "", "zip-code": 10247.0, "city": "Berlin", "planning-area-id": 2500831}}, {"type": "Feature", "geometry": {"type": "Point", "coordinates": [13.4659476, 52.514379]}, "properties": {"id": "576051178", "name": "Euro Spätkauf", "street": "Frankfurter Allee 60", "zip-code": 10247.0, "city": "Berlin", "planning-area-id": 2500831}}, {"type": "Feature", "geometry": {"type": "Point", "coordinates": [13.4180767, 52.5461354]}, "properties": {"id": "577380846", "name": "Papki", "street": "", "zip-code": 10437.0, "city": "Berlin", "planning-area-id": 3601347}}, {"type": "Feature", "geometry": {"type": "Point", "coordinates": [13.4713536, 52.5132812]}, "properties": {"id": "586663202", "name": "", "street": "", "zip-code": "", "city": "", "planning-area-id": 2500832}}, {"type": "Feature", "geometry": {"type": "Point", "coordinates": [13.4672291, 52.4682342]}, "properties": {"id": "618021342", "name": "MiniMarkt", "street": "", "zip-code": "", "city": "", "planning-area-id": 8100521}}, {"type": "Feature", "geometry": {"type": "Point", "coordinates": [13.4409421, 52.4825323]}, "properties": {"id": "620704357", "name": "laube shop", "street": "", "zip-code": "", "city": "", "planning-area-id": 8100312}}, {"type": "Feature", "geometry": {"type": "Point", "coordinates": [13.4360938, 52.483436]}, "properties": {"id": "620704359", "name": "", "street": "", "zip-code": "", "city": "", "planning-area-id": 8100314}}, {"type": "Feature", "geometry": {"type": "Point", "coordinates": [13.4305661, 52.5344555]}, "properties": {"id": "626304112", "name": "Corner", "street": "", "zip-code": "", "city": "", "planning-area-id": 3701658}}, {"type": "Feature", "geometry": {"type": "Point", "coordinates": [13.3842605, 52.5520383]}, "properties": {"id": "627105732", "name": "Spätkauf", "street": "", "zip-code": "", "city": "", "planning-area-id": 1300733}}, {"type": "Feature", "geometry": {"type": "Point", "coordinates": [13.2958852, 52.4933967]}, "properties": {"id": "639566330", "name": "Backshop & Kiosk", "street": "Joachim-Friedrich-Straße 1", "zip-code": 10711.0, "city": "Berlin", "planning-area-id": 4500938}}, {"type": "Feature", "geometry": {"type": "Point", "coordinates": [13.4121295, 52.5033624]}, "properties": {"id": "667858504", "name": "Kiezkauf", "street": "Oranienstraße 54", "zip-code": 10969.0, "city": "Berlin", "planning-area-id": 2100104}}, {"type": "Feature", "geometry": {"type": "Point", "coordinates": [13.3578197, 52.5514691]}, "properties": {"id": "678967934", "name": "Bonbonwasser", "street": "", "zip-code": "", "city": "", "planning-area-id": 1401048}}, {"type": "Feature", "geometry": {"type": "Point", "coordinates": [13.4985107, 52.5094753]}, "properties": {"id": "685354675", "name": "Oma Wenda", "street": "Irenenstraße 1", "zip-code": 10317.0, "city": "Berlin", "planning-area-id": 11400929}}, {"type": "Feature", "geometry": {"type": "Point", "coordinates": [13.4086992, 52.5342305]}, "properties": {"id": "697714204", "name": "La Bodega", "street": "Schwedter Straße 17", "zip-code": 10119.0, "city": "Berlin", "planning-area-id": 3701554}}, {"type": "Feature", "geometry": {"type": "Point", "coordinates": [13.4140802, 52.5488264]}, "properties": {"id": "697907411", "name": "Spätkauf -Late Shopping", "street": "Schönhauser Allee 72c", "zip-code": 10437.0, "city": "Berlin", "planning-area-id": 3601346}}, {"type": "Feature", "geometry": {"type": "Point", "coordinates": [13.480045, 52.5082964]}, "properties": {"id": "699713742", "name": "Späti Backshop", "street": "", "zip-code": "", "city": "", "planning-area-id": 11300826}}, {"type": "Feature", "geometry": {"type": "Point", "coordinates": [13.4965201, 52.5067828]}, "properties": {"id": "700775294", "name": "Trang Asia Supermarket", "street": "", "zip-code": "", "city": "", "planning-area-id": 11400929}}, {"type": "Feature", "geometry": {"type": "Point", "coordinates": [13.5072516, 52.4031371]}, "properties": {"id": "703744109", "name": "", "street": "", "zip-code": "", "city": "", "planning-area-id": 8401245}}, {"type": "Feature", "geometry": {"type": "Point", "coordinates": [13.3787053, 52.5508319]}, "properties": {"id": "707353241", "name": "Spätkauf Öztep", "street": "Pankstraße 61", "zip-code": 13357.0, "city": "Berlin", "planning-area-id": 1401044}}, {"type": "Feature", "geometry": {"type": "Point", "coordinates": [13.3696159, 52.5463987]}, "properties": {"id": "707452472", "name": "Backwaren", "street": "Reinickendorfer Straße 26", "zip-code": 13347.0, "city": "Berlin", "planning-area-id": 1401044}}, {"type": "Feature", "geometry": {"type": "Point", "coordinates": [13.3821164, 52.552227]}, "properties": {"id": "707490367", "name": "Kiosk", "street": "Badstraße 25", "zip-code": 13357.0, "city": "Berlin", "planning-area-id": 1300733}}, {"type": "Feature", "geometry": {"type": "Point", "coordinates": [13.3140969, 52.4727399]}, "properties": {"id": "725621498", "name": "", "street": "Rüdesheimer Straße 8", "zip-code": 14197.0, "city": "Berlin", "planning-area-id": 4400834}}, {"type": "Feature", "geometry": {"type": "Point", "coordinates": [13.4232927, 52.4746659]}, "properties": {"id": "736620808", "name": "Kiezladen", "street": "", "zip-code": "", "city": "", "planning-area-id": 8100103}}, {"type": "Feature", "geometry": {"type": "Point", "coordinates": [13.4101407, 52.5278285]}, "properties": {"id": "736787803", "name": "Pi pa po", "street": "Rosa-Luxemburg-Straße 45", "zip-code": 10178.0, "city": "Berlin", "planning-area-id": 1100310}}, {"type": "Feature", "geometry": {"type": "Point", "coordinates": [13.430489, 52.4879348]}, "properties": {"id": "745733025", "name": "small all", "street": "Weserstraße 205", "zip-code": 12047.0, "city": "Berlin", "planning-area-id": 8100311}}, {"type": "Feature", "geometry": {"type": "Point", "coordinates": [13.4375216, 52.4875623]}, "properties": {"id": "746478626", "name": "Honigbienchen Späti & Bakery", "street": "Weichselstraße 30", "zip-code": 12045.0, "city": "Berlin", "planning-area-id": 8100312}}, {"type": "Feature", "geometry": {"type": "Point", "coordinates": [13.3988194, 52.5802548]}, "properties": {"id": "746853061", "name": "Babylon Café Bar", "street": "", "zip-code": "", "city": "", "planning-area-id": 3200206}}, {"type": "Feature", "geometry": {"type": "Point", "coordinates": [13.5765726, 52.4553748]}, "properties": {"id": "747845608", "name": "Café Kiez", "street": "Bahnhofstraße 49", "zip-code": 12555.0, "city": "Berlin", "planning-area-id": 9501939}}, {"type": "Feature", "geometry": {"type": "Point", "coordinates": [13.410203, 52.5704399]}, "properties": {"id": "753361458", "name": "Flick Flack", "street": "Berliner Straße 1", "zip-code": 13187.0, "city": "Berlin", "planning-area-id": 3400723}}, {"type": "Feature", "geometry": {"type": "Point", "coordinates": [13.357608, 52.5745998]}, "properties": {"id": "769270131", "name": "Naturkost", "street": "Alt-Reinickendorf 6", "zip-code": 13407.0, "city": "Berlin", "planning-area-id": 12100205}}, {"type": "Feature", "geometry": {"type": "Point", "coordinates": [13.3632915, 52.566405]}, "properties": {"id": "769849999", "name": "Resis Spät Shop", "street": "", "zip-code": "", "city": "", "planning-area-id": 12100102}}, {"type": "Feature", "geometry": {"type": "Point", "coordinates": [13.408254, 52.5374494]}, "properties": {"id": "778710944", "name": "Spätkauf", "street": "Kastanienallee 26", "zip-code": 10435.0, "city": "Berlin", "planning-area-id": 3701554}}, {"type": "Feature", "geometry": {"type": "Point", "coordinates": [13.4111403, 52.5401664]}, "properties": {"id": "778710967", "name": "Polats Minimarkt", "street": "Kastanienallee 5", "zip-code": 10435.0, "city": "Berlin", "planning-area-id": 3701554}}, {"type": "Feature", "geometry": {"type": "Point", "coordinates": [13.4207405, 52.532597]}, "properties": {"id": "790502632", "name": "Dilek", "street": "Prenzlauer Allee 26", "zip-code": 10405.0, "city": "Berlin", "planning-area-id": 3701659}}, {"type": "Feature", "geometry": {"type": "Point", "coordinates": [13.4655484, 52.506133]}, "properties": {"id": "838429741", "name": "Käptn Kiez", "street": "Sonntagstraße 28", "zip-code": 10245.0, "city": "Berlin", "planning-area-id": 2500834}}, {"type": "Feature", "geometry": {"type": "Point", "coordinates": [13.4674633, 52.5049744]}, "properties": {"id": "838429759", "name": "Kiosk 24", "street": "", "zip-code": "", "city": "", "planning-area-id": 2500834}}, {"type": "Feature", "geometry": {"type": "Point", "coordinates": [13.4678618, 52.5046457]}, "properties": {"id": "838429794", "name": "Die Späti Brüder", "street": "Sonntagstraße 2", "zip-code": 10245.0, "city": "Berlin", "planning-area-id": 2500834}}, {"type": "Feature", "geometry": {"type": "Point", "coordinates": [13.3231813, 52.4713935]}, "properties": {"id": "846251052", "name": "Bio Grande", "street": "Wiesbadener Straße 82", "zip-code": 12161.0, "city": "Berlin", "planning-area-id": 7300516}}, {"type": "Feature", "geometry": {"type": "Point", "coordinates": [13.5133836, 52.4669419]}, "properties": {"id": "847907650", "name": "Spätkauf 63", "street": "Edisonstraße 29 A", "zip-code": 12459.0, "city": "Berlin", "planning-area-id": 9200511}}, {"type": "Feature", "geometry": {"type": "Point", "coordinates": [13.3198096, 52.4668756]}, "properties": {"id": "848169211", "name": "Kreuznacher Markt", "street": "Kreuznacher Straße 7", "zip-code": 14197.0, "city": "Berlin", "planning-area-id": 6100103}}, {"type": "Feature", "geometry": {"type": "Point", "coordinates": [13.3843486, 52.4575426]}, "properties": {"id": "861837755", "name": "Karam Al-Sham", "street": "Tempelhofer Damm 207", "zip-code": 12099.0, "city": "Berlin", "planning-area-id": 7400927}}, {"type": "Feature", "geometry": {"type": "Point", "coordinates": [13.4703076, 52.5058829]}, "properties": {"id": "863962594", "name": "Kiez Shop", "street": "", "zip-code": "", "city": "", "planning-area-id": 2500834}}, {"type": "Feature", "geometry": {"type": "Point", "coordinates": [13.4684572, 52.5072131]}, "properties": {"id": "863962795", "name": "Boxi Spätshop", "street": "", "zip-code": "", "city": "Berlin", "planning-area-id": 2500832}}, {"type": "Feature", "geometry": {"type": "Point", "coordinates": [13.4698461, 52.5053759]}, "properties": {"id": "863962912", "name": "Svennis Nachtshop", "street": "", "zip-code": "", "city": "", "planning-area-id": 2500834}}, {"type": "Feature", "geometry": {"type": "Point", "coordinates": [13.3303661, 52.5255327]}, "properties": {"id": "867497539", "name": "Pamuk Shop", "street": "Gotzkowskystraße 30", "zip-code": 10555.0, "city": "Berlin", "planning-area-id": 1200521}}, {"type": "Feature", "geometry": {"type": "Point", "coordinates": [13.4191728, 52.499861]}, "properties": {"id": "867848037", "name": "36boys", "street": "Adalbertstraße 4", "zip-code": 10999.0, "city": "Berlin", "planning-area-id": 2300314}}, {"type": "Feature", "geometry": {"type": "Point", "coordinates": [13.4288427, 52.4982415]}, "properties": {"id": "886089002", "name": "Checkpoint Ali", "street": "Wiener Straße 14", "zip-code": 10999.0, "city": "Berlin", "planning-area-id": 2300417}}, {"type": "Feature", "geometry": {"type": "Point", "coordinates": [13.4273223, 52.4987698]}, "properties": {"id": "886154881", "name": "", "street": "", "zip-code": "", "city": "", "planning-area-id": 2300417}}, {"type": "Feature", "geometry": {"type": "Point", "coordinates": [13.3848148, 52.4981816]}, "properties": {"id": "920664308", "name": "Ökotussi", "street": "Großbeerenstraße 11", "zip-code": 10963.0, "city": "Berlin", "planning-area-id": 2200208}}, {"type": "Feature", "geometry": {"type": "Point", "coordinates": [13.3487169, 52.5414875]}, "properties": {"id": "939667428", "name": "Late Shop am Virchow", "street": "", "zip-code": "", "city": "", "planning-area-id": 1401046}}, {"type": "Feature", "geometry": {"type": "Point", "coordinates": [13.3494233, 52.5416669]}, "properties": {"id": "939667458", "name": "Media Point", "street": "Föhrer Straße 12", "zip-code": "", "city": "", "planning-area-id": 1401046}}, {"type": "Feature", "geometry": {"type": "Point", "coordinates": [13.4083302, 52.5533409]}, "properties": {"id": "947301033", "name": "Lebensmittel und Getränke", "street": "", "zip-code": "", "city": "", "planning-area-id": 3601141}}, {"type": "Feature", "geometry": {"type": "Point", "coordinates": [13.4084576, 52.4895097]}, "properties": {"id": "947978148", "name": "C@ll Shop", "street": "Körtestraße 35", "zip-code": 10967.0, "city": "Berlin", "planning-area-id": 2200212}}, {"type": "Feature", "geometry": {"type": "Point", "coordinates": [13.4012964, 52.5227533]}, "properties": {"id": "975312186", "name": "BisSpäter", "street": "Neue Promenade 7", "zip-code": 10178.0, "city": "Berlin", "planning-area-id": 1100309}}, {"type": "Feature", "geometry": {"type": "Point", "coordinates": [13.500479, 52.445943]}, "properties": {"id": "988401415", "name": "Mini-Markt", "street": "", "zip-code": "", "city": "", "planning-area-id": 9100407}}, {"type": "Feature", "geometry": {"type": "Point", "coordinates": [13.4218188, 52.4938895]}, "properties": {"id": "991750714", "name": "latenight shop", "street": "", "zip-code": "", "city": "", "planning-area-id": 8100310}}, {"type": "Feature", "geometry": {"type": "Point", "coordinates": [13.4500121, 52.5272929]}, "properties": {"id": "1003885734", "name": "Panorama Spätkauf", "street": "", "zip-code": "", "city": "", "planning-area-id": 3601452}}, {"type": "Feature", "geometry": {"type": "Point", "coordinates": [13.4287783, 52.4885157]}, "properties": {"id": "1028138858", "name": "Backshop Tabak&Presse", "street": "Reuterstraße 56", "zip-code": 12047.0, "city": "Berlin", "planning-area-id": 8100311}}, {"type": "Feature", "geometry": {"type": "Point", "coordinates": [13.406241, 52.5469121]}, "properties": {"id": "1085324528", "name": "Mauermarkt", "street": "Gleimstraße 11", "zip-code": 10437.0, "city": "Berlin", "planning-area-id": 3601142}}, {"type": "Feature", "geometry": {"type": "Point", "coordinates": [13.290879, 52.5154783]}, "properties": {"id": "1092250109", "name": "Kiezmarkt mediterrane Welt", "street": "Danckelmannstraße 52", "zip-code": 14059.0, "city": "Berlin", "planning-area-id": 4300413}}, {"type": "Feature", "geometry": {"type": "Point", "coordinates": [13.4158448, 52.5402467]}, "properties": {"id": "1095435039", "name": "Asia Mini Shop", "street": "Danziger Straße 20", "zip-code": 10435.0, "city": "Berlin", "planning-area-id": 3701555}}, {"type": "Feature", "geometry": {"type": "Point", "coordinates": [13.4238961, 52.5394809]}, "properties": {"id": "1100350416", "name": "Danziger Express", "street": "Danziger Straße 71", "zip-code": 10435.0, "city": "Berlin", "planning-area-id": 3601348}}, {"type": "Feature", "geometry": {"type": "Point", "coordinates": [13.4268834, 52.4854176]}, "properties": {"id": "1109675825", "name": "Asien Supermarkt Hao Cai Lei", "street": "Karl-Marx-Straße 15", "zip-code": 12043.0, "city": "Berlin", "planning-area-id": 8100314}}, {"type": "Feature", "geometry": {"type": "Point", "coordinates": [13.4379797, 52.5348523]}, "properties": {"id": "1116716789", "name": "Lebensmittel", "street": "", "zip-code": "", "city": "", "planning-area-id": 3601451}}, {"type": "Feature", "geometry": {"type": "Point", "coordinates": [13.4698185, 52.5065512]}, "properties": {"id": "1140906805", "name": "Ellîka Spätkauf", "street": "Neue Bahnhofstraße 69", "zip-code": 10245.0, "city": "Berlin", "planning-area-id": 2500832}}, {"type": "Feature", "geometry": {"type": "Point", "coordinates": [13.4620544, 52.5100791]}, "properties": {"id": "1140914372", "name": "City Kiosk", "street": "Seumestraße 20", "zip-code": 10245.0, "city": "", "planning-area-id": 2500833}}, {"type": "Feature", "geometry": {"type": "Point", "coordinates": [13.4399122, 52.5157165]}, "properties": {"id": "1140926746", "name": "K Mini Markt", "street": "Straße der Pariser Kommune 31", "zip-code": 10243.0, "city": "Berlin", "planning-area-id": 2400623}}, {"type": "Feature", "geometry": {"type": "Point", "coordinates": [13.4356582, 52.5110245]}, "properties": {"id": "1140927943", "name": "Spätkauf am Ostbahnhof", "street": "Erich-Steinfurth-Straße 6", "zip-code": 10243.0, "city": "Berlin", "planning-area-id": 2400623}}, {"type": "Feature", "geometry": {"type": "Point", "coordinates": [13.4344701, 52.5230609]}, "properties": {"id": "1140928753", "name": "Spätkauf Lebensmittel", "street": "", "zip-code": "", "city": "", "planning-area-id": 2400521}}, {"type": "Feature", "geometry": {"type": "Point", "coordinates": [13.4516496, 52.519883]}, "properties": {"id": "1140930611", "name": "Spätshop 68", "street": "Petersburger Straße 68", "zip-code": 10249.0, "city": "Berlin", "planning-area-id": 2400522}}, {"type": "Feature", "geometry": {"type": "Point", "coordinates": [13.449453, 52.5222261]}, "properties": {"id": "1140935486", "name": "Para Spätkauf", "street": "", "zip-code": "", "city": "", "planning-area-id": 2400522}}, {"type": "Feature", "geometry": {"type": "Point", "coordinates": [13.3921872, 52.5534498]}, "properties": {"id": "1161375510", "name": "Aksu Kiosk", "street": "Jülicher Straße 24", "zip-code": 13357.0, "city": "Berlin", "planning-area-id": 1300733}}, {"type": "Feature", "geometry": {"type": "Point", "coordinates": [13.4291663, 52.4870859]}, "properties": {"id": "1165884653", "name": "I ♥️ Drinks Kiosk", "street": "Reuterstraße 29", "zip-code": "", "city": "", "planning-area-id": 8100311}}, {"type": "Feature", "geometry": {"type": "Point", "coordinates": [13.4217062, 52.6069342]}, "properties": {"id": "1172023257", "name": "Wohnung Werkstatt Garten Shop", "street": "", "zip-code": "", "city": "", "planning-area-id": 3200310}}, {"type": "Feature", "geometry": {"type": "Point", "coordinates": [13.4555933, 52.5091058]}, "properties": {"id": "1181625810", "name": "Esperanto", "street": "Simon-Dach-Straße 18", "zip-code": 10245.0, "city": "Berlin", "planning-area-id": 2500834}}, {"type": "Feature", "geometry": {"type": "Point", "coordinates": [13.4133838, 52.5624301]}, "properties": {"id": "1203130347", "name": "Tilia Naturkost", "street": "Berliner Straße 101a", "zip-code": 13189.0, "city": "Berlin", "planning-area-id": 3400829}}, {"type": "Feature", "geometry": {"type": "Point", "coordinates": [13.5214776, 52.4800079]}, "properties": {"id": "1212618126", "name": "Müllers", "street": "", "zip-code": "", "city": "", "planning-area-id": 11501341}}, {"type": "Feature", "geometry": {"type": "Point", "coordinates": [13.4071727, 52.5469795]}, "properties": {"id": "1213234319", "name": "Gleim Shop", "street": "Gleimstraße 13A", "zip-code": 10437.0, "city": "Berlin", "planning-area-id": 3601142}}, {"type": "Feature", "geometry": {"type": "Point", "coordinates": [13.4973357, 52.5087859]}, "properties": {"id": "1221375859", "name": "Sipan Spätverkauf", "street": "", "zip-code": "", "city": "", "planning-area-id": 11400929}}, {"type": "Feature", "geometry": {"type": "Point", "coordinates": [13.1712485, 52.5196117]}, "properties": {"id": "1225127392", "name": "Mias Späti", "street": "Sandstraße 66", "zip-code": 13593.0, "city": "Berlin", "planning-area-id": 5200527}}, {"type": "Feature", "geometry": {"type": "Point", "coordinates": [13.3053735, 52.5102675]}, "properties": {"id": "1229435273", "name": "Borsa", "street": "Wilmersdorfer Straße 44", "zip-code": 10627.0, "city": "Berlin", "planning-area-id": 4300623}}, {"type": "Feature", "geometry": {"type": "Point", "coordinates": [13.4111971, 52.5375585]}, "properties": {"id": "1251129216", "name": "Spätkauf", "street": "", "zip-code": "", "city": "", "planning-area-id": 3701554}}, {"type": "Feature", "geometry": {"type": "Point", "coordinates": [13.2856406, 52.5887885]}, "properties": {"id": "1254238967", "name": "Asia Lebensmittel, Tee & Geschenkartikel", "street": "", "zip-code": "", "city": "", "planning-area-id": 12200515}}, {"type": "Feature", "geometry": {"type": "Point", "coordinates": [13.4169147, 52.4923613]}, "properties": {"id": "1255588542", "name": "kinzi discount", "street": "", "zip-code": "", "city": "", "planning-area-id": 2200213}}, {"type": "Feature", "geometry": {"type": "Point", "coordinates": [13.4391265, 52.5236611]}, "properties": {"id": "1258615840", "name": "Spätshop", "street": "Landsberger Allee 38", "zip-code": 10249.0, "city": "", "planning-area-id": 2400521}}, {"type": "Feature", "geometry": {"type": "Point", "coordinates": [13.4934074, 52.5014008]}, "properties": {"id": "1259381388", "name": "Minimarkt Mura", "street": "Weitlingstraße 117", "zip-code": 10317.0, "city": "Berlin", "planning-area-id": 11400929}}, {"type": "Feature", "geometry": {"type": "Point", "coordinates": [13.384211, 52.4568134]}, "properties": {"id": "1262166743", "name": "24 H Shop", "street": "", "zip-code": "", "city": "", "planning-area-id": 7400927}}, {"type": "Feature", "geometry": {"type": "Point", "coordinates": [13.3397118, 52.5541616]}, "properties": {"id": "1269798909", "name": "Kiosk 21", "street": "Otawistraße 21", "zip-code": 13351.0, "city": "Berlin", "planning-area-id": 1400937}}, {"type": "Feature", "geometry": {"type": "Point", "coordinates": [13.4470268, 52.5211006]}, "properties": {"id": "1274104691", "name": "Schmidt´s Laden", "street": "", "zip-code": "", "city": "", "planning-area-id": 2400522}}, {"type": "Feature", "geometry": {"type": "Point", "coordinates": [13.4929949, 52.5143319]}, "properties": {"id": "1293209218", "name": "Minimarkt", "street": "Fanningerstraße 18", "zip-code": 10365.0, "city": "", "planning-area-id": 11300724}}, {"type": "Feature", "geometry": {"type": "Point", "coordinates": [13.3070269, 52.5258885]}, "properties": {"id": "1294929416", "name": "@y mierendorff net", "street": "", "zip-code": 10589.0, "city": "Berlin", "planning-area-id": 4300518}}, {"type": "Feature", "geometry": {"type": "Point", "coordinates": [13.3168638, 52.518017]}, "properties": {"id": "1305230438", "name": "Sultan Shop", "street": "Guerickestraße 36", "zip-code": 10587.0, "city": "Berlin", "planning-area-id": 4300619}}, {"type": "Feature", "geometry": {"type": "Point", "coordinates": [13.341326, 52.4290688]}, "properties": {"id": "1305796906", "name": "Back & Späti", "street": "", "zip-code": "", "city": "", "planning-area-id": 6200314}}, {"type": "Feature", "geometry": {"type": "Point", "coordinates": [13.4302906, 52.4687842]}, "properties": {"id": "1307115292", "name": "Sarikiz Spätkauf 44", "street": "", "zip-code": "", "city": "", "planning-area-id": 8100104}}, {"type": "Feature", "geometry": {"type": "Point", "coordinates": [13.3113681, 52.5062656]}, "properties": {"id": "1311121901", "name": "Iran Shop", "street": "Kantstraße 124", "zip-code": 10625.0, "city": "Berlin", "planning-area-id": 4300623}}, {"type": "Feature", "geometry": {"type": "Point", "coordinates": [13.4153894, 52.5546103]}, "properties": {"id": "1313284328", "name": "neon Spätkauf", "street": "", "zip-code": "", "city": "", "planning-area-id": 3400827}}, {"type": "Feature", "geometry": {"type": "Point", "coordinates": [13.4509862, 52.489136]}, "properties": {"id": "1315201887", "name": "Global Kontakt", "street": "", "zip-code": "", "city": "", "planning-area-id": 9100101}}, {"type": "Feature", "geometry": {"type": "Point", "coordinates": [13.4211603, 52.4980049]}, "properties": {"id": "1320138052", "name": "Eis Mari", "street": "Reichenberger Straße 26", "zip-code": 10999.0, "city": "Berlin", "planning-area-id": 2300417}}, {"type": "Feature", "geometry": {"type": "Point", "coordinates": [13.5253076, 52.4591429]}, "properties": {"id": "1324860212", "name": "Spätkauf", "street": "", "zip-code": 12459.0, "city": "Berlin", "planning-area-id": 9200511}}, {"type": "Feature", "geometry": {"type": "Point", "coordinates": [13.4169394, 52.4916836]}, "properties": {"id": "1327231904", "name": "Bioladen", "street": "Graefestraße 69", "zip-code": 10967.0, "city": "Berlin", "planning-area-id": 2200213}}, {"type": "Feature", "geometry": {"type": "Point", "coordinates": [13.3428619, 52.47496]}, "properties": {"id": "1332197461", "name": "", "street": "Rubensstraße 28", "zip-code": 12159.0, "city": "Berlin", "planning-area-id": 7300618}}, {"type": "Feature", "geometry": {"type": "Point", "coordinates": [13.4016524, 52.5813689]}, "properties": {"id": "1335736683", "name": "Penny", "street": "", "zip-code": "", "city": "", "planning-area-id": 3200206}}, {"type": "Feature", "geometry": {"type": "Point", "coordinates": [13.339905, 52.475761]}, "properties": {"id": "1344436749", "name": "Spätkauf", "street": "Hähnelstraße 11A", "zip-code": 12159.0, "city": "Berlin", "planning-area-id": 7300517}}, {"type": "Feature", "geometry": {"type": "Point", "coordinates": [13.4316495, 52.5006355]}, "properties": {"id": "1345222866", "name": "The Shops", "street": "Lausitzer Platz 11", "zip-code": 10997.0, "city": "Berlin", "planning-area-id": 2300315}}, {"type": "Feature", "geometry": {"type": "Point", "coordinates": [13.4234636, 52.5069169]}, "properties": {"id": "1346939681", "name": "Mini Markt", "street": "", "zip-code": "", "city": "", "planning-area-id": 1100313}}, {"type": "Feature", "geometry": {"type": "Point", "coordinates": [13.4202891, 52.5029232]}, "properties": {"id": "1346939765", "name": "Spätkauf Olive", "street": "Adalbertstraße 80", "zip-code": 10997.0, "city": "Berlin", "planning-area-id": 2300314}}, {"type": "Feature", "geometry": {"type": "Point", "coordinates": [13.4167008, 52.5117259]}, "properties": {"id": "1346939892", "name": "Asia Markt", "street": "", "zip-code": "", "city": "", "planning-area-id": 1100312}}, {"type": "Feature", "geometry": {"type": "Point", "coordinates": [13.4302019, 52.4682986]}, "properties": {"id": "1348552225", "name": "Azzam Supermarkt", "street": "", "zip-code": "", "city": "", "planning-area-id": 8100104}}, {"type": "Feature", "geometry": {"type": "Point", "coordinates": [13.500718, 52.5485711]}, "properties": {"id": "1350982088", "name": "Spätverkauf", "street": "", "zip-code": "", "city": "", "planning-area-id": 11200411}}, {"type": "Feature", "geometry": {"type": "Point", "coordinates": [13.3956038, 52.5030129]}, "properties": {"id": "1356032933", "name": "Asia Super Shop", "street": "Lindenstraße 17", "zip-code": 10969.0, "city": "Berlin", "planning-area-id": 2100103}}, {"type": "Feature", "geometry": {"type": "Point", "coordinates": [13.3439672, 52.4708586]}, "properties": {"id": "1356471635", "name": "Kevser", "street": "Rubensstraße 53", "zip-code": 12157.0, "city": "Berlin", "planning-area-id": 7300619}}, {"type": "Feature", "geometry": {"type": "Point", "coordinates": [13.4254726, 52.4700074]}, "properties": {"id": "1372320330", "name": "Spätkauf", "street": "Warthestraße 16", "zip-code": 12051.0, "city": "Berlin", "planning-area-id": 8100104}}, {"type": "Feature", "geometry": {"type": "Point", "coordinates": [13.4610655, 52.511525]}, "properties": {"id": "1374234428", "name": "Lebensmittel Getränke Tabakwaren Zeitungen", "street": "", "zip-code": "", "city": "", "planning-area-id": 2500833}}, {"type": "Feature", "geometry": {"type": "Point", "coordinates": [13.3842362, 52.5035281]}, "properties": {"id": "1377854757", "name": "Ela Spätkauf", "street": "Stresemannstraße 72", "zip-code": 10963.0, "city": "Berlin", "planning-area-id": 2100101}}, {"type": "Feature", "geometry": {"type": "Point", "coordinates": [13.4258675, 52.5295875]}, "properties": {"id": "1389043771", "name": "City Spätkauf", "street": "Greifswalder Straße 9", "zip-code": 10405.0, "city": "Berlin", "planning-area-id": 3701660}}, {"type": "Feature", "geometry": {"type": "Point", "coordinates": [13.425387, 52.5283516]}, "properties": {"id": "1389043782", "name": "Spätkauf am Märchenbrunnen / Dogan Markt", "street": "Am Friedrichshain 33", "zip-code": 10407.0, "city": "Berlin", "planning-area-id": 3701660}}, {"type": "Feature", "geometry": {"type": "Point", "coordinates": [13.3937035, 52.5282926]}, "properties": {"id": "1389419270", "name": "Spätkauf", "street": "", "zip-code": "", "city": "", "planning-area-id": 1100309}}, {"type": "Feature", "geometry": {"type": "Point", "coordinates": [13.2463188, 52.5446717]}, "properties": {"id": "1389926121", "name": "", "street": "Gartenfelder Straße 58", "zip-code": 13599.0, "city": "Berlin", "planning-area-id": 5300737}}, {"type": "Feature", "geometry": {"type": "Point", "coordinates": [13.3679278, 52.5049434]}, "properties": {"id": "1397070387", "name": "Staabi Back & Bistro Kiosk", "street": "", "zip-code": "", "city": "", "planning-area-id": 1100104}}, {"type": "Feature", "geometry": {"type": "Point", "coordinates": [13.2597088, 52.547506]}, "properties": {"id": "1412188997", "name": "", "street": "", "zip-code": "", "city": "", "planning-area-id": 5300839}}, {"type": "Feature", "geometry": {"type": "Point", "coordinates": [13.2723203, 52.5395099]}, "properties": {"id": "1420865586", "name": "Akman Feinkost", "street": "", "zip-code": "", "city": "", "planning-area-id": 5300839}}, {"type": "Feature", "geometry": {"type": "Point", "coordinates": [13.4322378, 52.497054]}, "properties": {"id": "1424999184", "name": "Day & Night Shop", "street": "", "zip-code": "", "city": "", "planning-area-id": 2300418}}, {"type": "Feature", "geometry": {"type": "Point", "coordinates": [13.5543949, 52.5141024]}, "properties": {"id": "1445299193", "name": "Biesm", "street": "", "zip-code": "", "city": "", "planning-area-id": 10300731}}, {"type": "Feature", "geometry": {"type": "Point", "coordinates": [13.2956324, 52.4981356]}, "properties": {"id": "1453872495", "name": "Night Shop", "street": "", "zip-code": "", "city": "", "planning-area-id": 4500937}}, {"type": "Feature", "geometry": {"type": "Point", "coordinates": [13.4660361, 52.5085725]}, "properties": {"id": "1455764529", "name": "MultiMarkt3", "street": "", "zip-code": "", "city": "", "planning-area-id": 2500833}}, {"type": "Feature", "geometry": {"type": "Point", "coordinates": [13.4142353, 52.5541857]}, "properties": {"id": "1458646421", "name": "", "street": "Schönhauser Allee 99", "zip-code": 10439.0, "city": "Berlin", "planning-area-id": 3601139}}, {"type": "Feature", "geometry": {"type": "Point", "coordinates": [13.4629626, 52.5146738]}, "properties": {"id": "1464069051", "name": "Regenbogen Späti", "street": "Frankfurter Allee 42", "zip-code": 10247.0, "city": "Berlin", "planning-area-id": 2500830}}, {"type": "Feature", "geometry": {"type": "Point", "coordinates": [13.3620341, 52.5531116]}, "properties": {"id": "1471202665", "name": "Imbiss-Punjab;Punjab Spätkauf", "street": "Groninger Straße 28", "zip-code": 13347.0, "city": "Berlin", "planning-area-id": 1401049}}, {"type": "Feature", "geometry": {"type": "Point", "coordinates": [13.4270259, 52.4884033]}, "properties": {"id": "1472157627", "name": "Robinhoodstore", "street": "Weserstraße 212", "zip-code": 12047.0, "city": "Berlin", "planning-area-id": 8100311}}, {"type": "Feature", "geometry": {"type": "Point", "coordinates": [13.4123349, 52.5450604]}, "properties": {"id": "1476141581", "name": "7/24 Market", "street": "Schönhauser Allee 131", "zip-code": "", "city": "", "planning-area-id": 3601142}}, {"type": "Feature", "geometry": {"type": "Point", "coordinates": [13.4445307, 52.4927794]}, "properties": {"id": "1500108107", "name": "Junkys Point", "street": "Karl-Kunger-Straße 1", "zip-code": 12435.0, "city": "Berlin", "planning-area-id": 9100101}}, {"type": "Feature", "geometry": {"type": "Point", "coordinates": [13.4375394, 52.4802885]}, "properties": {"id": "1500156141", "name": "Pyza", "street": "", "zip-code": "", "city": "", "planning-area-id": 8100415}}, {"type": "Feature", "geometry": {"type": "Point", "coordinates": [13.3562697, 52.5426837]}, "properties": {"id": "1515489375", "name": "Bioladen Café", "street": "Tegeler Straße 30", "zip-code": 13353.0, "city": "Berlin", "planning-area-id": 1401046}}, {"type": "Feature", "geometry": {"type": "Point", "coordinates": [13.4996572, 52.5095164]}, "properties": {"id": "1531118797", "name": "Nazar Getränkeshop", "street": "", "zip-code": 10317.0, "city": "Berlin", "planning-area-id": 11400929}}, {"type": "Feature", "geometry": {"type": "Point", "coordinates": [13.5034289, 52.5065556]}, "properties": {"id": "1531118804", "name": "Kiezladen", "street": "Zachertstraße 14", "zip-code": 10315.0, "city": "Berlin", "planning-area-id": 11400930}}, {"type": "Feature", "geometry": {"type": "Point", "coordinates": [13.5412763, 52.4349246]}, "properties": {"id": "1535593154", "name": "ServiceStore DB", "street": "", "zip-code": "", "city": "", "planning-area-id": 9200715}}, {"type": "Feature", "geometry": {"type": "Point", "coordinates": [13.408441, 52.5714856]}, "properties": {"id": "1578269286", "name": "Der Obstmann", "street": "", "zip-code": "", "city": "", "planning-area-id": 3400722}}, {"type": "Feature", "geometry": {"type": "Point", "coordinates": [13.4256815, 52.4796484]}, "properties": {"id": "1578857510", "name": "Gizem", "street": "", "zip-code": "", "city": "", "planning-area-id": 8100206}}, {"type": "Feature", "geometry": {"type": "Point", "coordinates": [13.4229654, 52.5391505]}, "properties": {"id": "1584563390", "name": "Spätmarkt", "street": "", "zip-code": "", "city": "", "planning-area-id": 3701555}}, {"type": "Feature", "geometry": {"type": "Point", "coordinates": [13.3457172, 52.5313486]}, "properties": {"id": "1597742298", "name": "Spätkauf", "street": "Birkenstraße 21", "zip-code": 10559.0, "city": "Berlin", "planning-area-id": 1200623}}, {"type": "Feature", "geometry": {"type": "Point", "coordinates": [13.4220527, 52.5006325]}, "properties": {"id": "1614361190", "name": "Lebensmittel Hillmann", "street": "Oranienstraße 20", "zip-code": 10999.0, "city": "Berlin", "planning-area-id": 2300314}}, {"type": "Feature", "geometry": {"type": "Point", "coordinates": [13.4618701, 52.517851]}, "properties": {"id": "1614528079", "name": "Olive", "street": "", "zip-code": "", "city": "", "planning-area-id": 2500728}}, {"type": "Feature", "geometry": {"type": "Point", "coordinates": [13.4866565, 52.4654868]}, "properties": {"id": "1625174234", "name": "Kiez-Kiosk", "street": "Baumschulenstraße 89", "zip-code": 12437.0, "city": "Berlin", "planning-area-id": 9100304}}, {"type": "Feature", "geometry": {"type": "Point", "coordinates": [13.4740244, 52.513557]}, "properties": {"id": "1633204905", "name": "Hoa Mai Asia-Supermarkt", "street": "Frankfurter Allee 104", "zip-code": 10247.0, "city": "Berlin", "planning-area-id": 2500832}}, {"type": "Feature", "geometry": {"type": "Point", "coordinates": [13.4408296, 52.5000597]}, "properties": {"id": "1637021706", "name": "Shisha Kiosk", "street": "Oppelner Straße 3", "zip-code": 10997.0, "city": "Berlin", "planning-area-id": 2300419}}, {"type": "Feature", "geometry": {"type": "Point", "coordinates": [13.4053774, 52.5235713]}, "properties": {"id": "1653339106", "name": "Latino Point", "street": "Dircksenstraße 45", "zip-code": 10178.0, "city": "Berlin", "planning-area-id": 1100309}}, {"type": "Feature", "geometry": {"type": "Point", "coordinates": [13.3512729, 52.5478164]}, "properties": {"id": "1657989689", "name": "", "street": "Brüsseler Straße 9", "zip-code": 13353.0, "city": "Berlin", "planning-area-id": 1400942}}, {"type": "Feature", "geometry": {"type": "Point", "coordinates": [13.4834482, 52.4628371]}, "properties": {"id": "1667160188", "name": "Baumschulen Späti", "street": "Baumschulenstraße 70", "zip-code": 12437.0, "city": "Berlin", "planning-area-id": 9100304}}, {"type": "Feature", "geometry": {"type": "Point", "coordinates": [13.4836908, 52.4630329]}, "properties": {"id": "1667160189", "name": "Baumschulen Späti", "street": "", "zip-code": "", "city": "", "planning-area-id": 9100304}}, {"type": "Feature", "geometry": {"type": "Point", "coordinates": [13.3200611, 52.476671]}, "properties": {"id": "1668788004", "name": "We Love Späti", "street": "Hanauer Straße 80", "zip-code": 14197.0, "city": "Berlin", "planning-area-id": 4400835}}, {"type": "Feature", "geometry": {"type": "Point", "coordinates": [13.5538411, 52.5579509]}, "properties": {"id": "1687719675", "name": "ServiceStore DB", "street": "", "zip-code": "", "city": "", "planning-area-id": 10100205}}, {"type": "Feature", "geometry": {"type": "Point", "coordinates": [13.5774293, 52.4558558]}, "properties": {"id": "1692613261", "name": "Alan Minimarket", "street": "", "zip-code": "", "city": "", "planning-area-id": 9501939}}, {"type": "Feature", "geometry": {"type": "Point", "coordinates": [13.5772838, 52.4556392]}, "properties": {"id": "1692613275", "name": "Obst Gemüse Getränke Lebensmittel", "street": "", "zip-code": "", "city": "", "planning-area-id": 9501939}}, {"type": "Feature", "geometry": {"type": "Point", "coordinates": [13.3612234, 52.4901887]}, "properties": {"id": "1713176030", "name": "Azzam", "street": "", "zip-code": "", "city": "", "planning-area-id": 7100206}}, {"type": "Feature", "geometry": {"type": "Point", "coordinates": [13.3615476, 52.4902201]}, "properties": {"id": "1713177124", "name": "நாகம்மா புடவையகம்", "street": "Willmanndamm 17", "zip-code": 10827.0, "city": "Berlin", "planning-area-id": 7100206}}, {"type": "Feature", "geometry": {"type": "Point", "coordinates": [13.3405799, 52.532324]}, "properties": {"id": "1721152114", "name": "Merhaba Discount Ali", "street": "Birkenstraße 44", "zip-code": 10551.0, "city": "Berlin", "planning-area-id": 1200520}}, {"type": "Feature", "geometry": {"type": "Point", "coordinates": [13.4232484, 52.5429314]}, "properties": {"id": "1742948314", "name": "Bäckerei Ergün", "street": "", "zip-code": "", "city": "", "planning-area-id": 3601348}}, {"type": "Feature", "geometry": {"type": "Point", "coordinates": [13.2835133, 52.5062656]}, "properties": {"id": "1743741230", "name": "Spätkauf", "street": "", "zip-code": "", "city": "", "planning-area-id": 4300415}}, {"type": "Feature", "geometry": {"type": "Point", "coordinates": [13.4697138, 52.5122969]}, "properties": {"id": "1758891018", "name": "MEY", "street": "", "zip-code": "", "city": "", "planning-area-id": 2500831}}, {"type": "Feature", "geometry": {"type": "Point", "coordinates": [13.4452756, 52.4973075]}, "properties": {"id": "1766031942", "name": "späti", "street": "", "zip-code": "", "city": "", "planning-area-id": 2300419}}, {"type": "Feature", "geometry": {"type": "Point", "coordinates": [13.4120203, 52.543873]}, "properties": {"id": "1769968053", "name": "", "street": "", "zip-code": "", "city": "", "planning-area-id": 3601142}}, {"type": "Feature", "geometry": {"type": "Point", "coordinates": [13.4249683, 52.497357]}, "properties": {"id": "1807541768", "name": "Bäckerei & Café 36", "street": "", "zip-code": "", "city": "", "planning-area-id": 2300417}}, {"type": "Feature", "geometry": {"type": "Point", "coordinates": [13.418591, 52.550518]}, "properties": {"id": "1831972687", "name": "Vervielfältigungsservice Breitfeld", "street": "Rodenbergstraße 33", "zip-code": 10439.0, "city": "Berlin", "planning-area-id": 3601243}}, {"type": "Feature", "geometry": {"type": "Point", "coordinates": [13.4238982, 52.5495578]}, "properties": {"id": "1843136483", "name": "Spektrum Lebensfreude", "street": "Erich-Weinert-Straße 63", "zip-code": 10439.0, "city": "Berlin", "planning-area-id": 3601244}}, {"type": "Feature", "geometry": {"type": "Point", "coordinates": [13.3942494, 52.5647786]}, "properties": {"id": "1845262965", "name": "pir Getränke", "street": "Wollankstraße 102", "zip-code": 13187.0, "city": "Berlin", "planning-area-id": 3400721}}, {"type": "Feature", "geometry": {"type": "Point", "coordinates": [13.3923484, 52.5637284]}, "properties": {"id": "1847156092", "name": "Tausend Dinge", "street": "Wollankstraße 97", "zip-code": 13359.0, "city": "Berlin", "planning-area-id": 1300732}}, {"type": "Feature", "geometry": {"type": "Point", "coordinates": [13.4295163, 52.4814436]}, "properties": {"id": "1848909329", "name": "Eck Oase", "street": "", "zip-code": "", "city": "", "planning-area-id": 8100206}}, {"type": "Feature", "geometry": {"type": "Point", "coordinates": [13.459522, 52.5102529]}, "properties": {"id": "1862169692", "name": "Kiezladen", "street": "", "zip-code": "", "city": "", "planning-area-id": 2500833}}, {"type": "Feature", "geometry": {"type": "Point", "coordinates": [13.3415781, 52.5254005]}, "properties": {"id": "1866365545", "name": "Internet-Telecafe", "street": "Alt-Moabit 86", "zip-code": 10555.0, "city": "Berlin", "planning-area-id": 1200522}}, {"type": "Feature", "geometry": {"type": "Point", "coordinates": [13.43274, 52.4853925]}, "properties": {"id": "1907577425", "name": "Spätkauf", "street": "", "zip-code": "", "city": "", "planning-area-id": 8100312}}, {"type": "Feature", "geometry": {"type": "Point", "coordinates": [13.4688049, 52.5177636]}, "properties": {"id": "1909902419", "name": "Back&Caffee Eck", "street": "", "zip-code": "", "city": "", "planning-area-id": 2500728}}, {"type": "Feature", "geometry": {"type": "Point", "coordinates": [13.3287154, 52.5324805]}, "properties": {"id": "1912183755", "name": "GP GetränkeMarkt", "street": "Beusselstraße 43", "zip-code": 10553.0, "city": "Berlin", "planning-area-id": 1200519}}, {"type": "Feature", "geometry": {"type": "Point", "coordinates": [13.3077481, 52.5167912]}, "properties": {"id": "1915389772", "name": "Keno", "street": "", "zip-code": "", "city": "", "planning-area-id": 4300621}}, {"type": "Feature", "geometry": {"type": "Point", "coordinates": [13.4592904, 52.4724586]}, "properties": {"id": "1923316601", "name": "cebe Werksverkauf", "street": "Sonnenallee 227", "zip-code": 12057.0, "city": "Berlin", "planning-area-id": 8100520}}, {"type": "Feature", "geometry": {"type": "Point", "coordinates": [13.5184591, 52.4107485]}, "properties": {"id": "1923320817", "name": "Milchhof Mendler", "street": "Lettberger Straße 94", "zip-code": 12355.0, "city": "Berlin", "planning-area-id": 8401246}}, {"type": "Feature", "geometry": {"type": "Point", "coordinates": [13.406941, 52.533499]}, "properties": {"id": "1928634713", "name": "Presseshop&Spätkauf", "street": "", "zip-code": "", "city": "", "planning-area-id": 1100416}}, {"type": "Feature", "geometry": {"type": "Point", "coordinates": [13.4070136, 52.5328558]}, "properties": {"id": "1928636123", "name": "Spätkauf", "street": "Choriner Straße 11", "zip-code": 10119.0, "city": "Berlin", "planning-area-id": 3701554}}, {"type": "Feature", "geometry": {"type": "Point", "coordinates": [13.2877301, 52.518686]}, "properties": {"id": "1948899764", "name": "Sidar Mini Market", "street": "", "zip-code": 14059.0, "city": "Berlin", "planning-area-id": 4300413}}, {"type": "Feature", "geometry": {"type": "Point", "coordinates": [13.4223583, 52.5330094]}, "properties": {"id": "1964250493", "name": "", "street": "", "zip-code": "", "city": "", "planning-area-id": 3701659}}, {"type": "Feature", "geometry": {"type": "Point", "coordinates": [13.4279806, 52.4848909]}, "properties": {"id": "1965270924", "name": "Kiosk 23", "street": "", "zip-code": "", "city": "", "planning-area-id": 8100314}}, {"type": "Feature", "geometry": {"type": "Point", "coordinates": [13.4285263, 52.4842379]}, "properties": {"id": "1965270960", "name": "CAN Getränke", "street": "", "zip-code": "", "city": "", "planning-area-id": 8100206}}, {"type": "Feature", "geometry": {"type": "Point", "coordinates": [13.4331118, 52.4968006]}, "properties": {"id": "1965863431", "name": "Spätverkauf und Internet", "street": "Wiener Straße 28", "zip-code": 10999.0, "city": "Berlin", "planning-area-id": 2300418}}, {"type": "Feature", "geometry": {"type": "Point", "coordinates": [13.3179411, 52.5176047]}, "properties": {"id": "1966836915", "name": "Michas Marktplatz", "street": "Guerickestraße 10", "zip-code": 10587.0, "city": "Berlin", "planning-area-id": 4300622}}, {"type": "Feature", "geometry": {"type": "Point", "coordinates": [13.3198419, 52.4965201]}, "properties": {"id": "1979735269", "name": "Weltladen A Janela", "street": "", "zip-code": "", "city": "", "planning-area-id": 4501044}}, {"type": "Feature", "geometry": {"type": "Point", "coordinates": [13.5509485, 52.439069]}, "properties": {"id": "1979799014", "name": "Sibir", "street": "Dörpfeldstraße 62", "zip-code": "", "city": "", "planning-area-id": 9200717}}, {"type": "Feature", "geometry": {"type": "Point", "coordinates": [13.4648549, 52.5149112]}, "properties": {"id": "1980987092", "name": "Kiez Shop", "street": "Frankfurter Allee 51", "zip-code": "", "city": "", "planning-area-id": 2500728}}, {"type": "Feature", "geometry": {"type": "Point", "coordinates": [13.4824955, 52.515992]}, "properties": {"id": "1981140798", "name": "Mini Markt", "street": "Normannenstraße 6", "zip-code": 10367.0, "city": "Berlin", "planning-area-id": 11300722}}, {"type": "Feature", "geometry": {"type": "Point", "coordinates": [13.325004, 52.4909025]}, "properties": {"id": "1985536781", "name": "Chuchichäschtli", "street": "", "zip-code": "", "city": "", "planning-area-id": 4501149}}, {"type": "Feature", "geometry": {"type": "Point", "coordinates": [13.3391054, 52.5537373]}, "properties": {"id": "1988000838", "name": "Jashims Tante-Emma-Laden", "street": "Otawistraße 23", "zip-code": 13351.0, "city": "Berlin", "planning-area-id": 1400937}}, {"type": "Feature", "geometry": {"type": "Point", "coordinates": [13.2519251, 52.4494832]}, "properties": {"id": "2018958606", "name": "Reformhaus Demski", "street": "Onkel-Tom-Straße 99", "zip-code": 14169.0, "city": "Berlin", "planning-area-id": 6400840}}, {"type": "Feature", "geometry": {"type": "Point", "coordinates": [13.2410664, 52.4420764]}, "properties": {"id": "2018959799", "name": "Reformhaus Demski", "street": "Fischerhüttenstraße 64", "zip-code": 14163.0, "city": "Berlin", "planning-area-id": 6400839}}, {"type": "Feature", "geometry": {"type": "Point", "coordinates": [13.3119339, 52.5065814]}, "properties": {"id": "2029768594", "name": "Kantshop", "street": "Kantstraße 46", "zip-code": 10625.0, "city": "Berlin", "planning-area-id": 4300623}}, {"type": "Feature", "geometry": {"type": "Point", "coordinates": [13.35674, 52.4869402]}, "properties": {"id": "2072375894", "name": "Kaiser Kiosk", "street": "Hauptstraße 18", "zip-code": 10827.0, "city": "Berlin", "planning-area-id": 7200409}}, {"type": "Feature", "geometry": {"type": "Point", "coordinates": [13.4350101, 52.486351]}, "properties": {"id": "2072853940", "name": "Späti International", "street": "Weserstraße 190", "zip-code": 12045.0, "city": "Berlin", "planning-area-id": 8100312}}, {"type": "Feature", "geometry": {"type": "Point", "coordinates": [13.3449495, 52.4355659]}, "properties": {"id": "2098290154", "name": "Reformhaus Demski", "street": "Kaiser-Wilhelm-Straße 77", "zip-code": 12247.0, "city": "Berlin", "planning-area-id": 6200313}}, {"type": "Feature", "geometry": {"type": "Point", "coordinates": [13.4265249, 52.4883647]}, "properties": {"id": "2126092520", "name": "Trinko Store", "street": "", "zip-code": "", "city": "", "planning-area-id": 8100311}}, {"type": "Feature", "geometry": {"type": "Point", "coordinates": [13.363221, 52.5504744]}, "properties": {"id": "2127393893", "name": "Backshop", "street": "", "zip-code": "", "city": "", "planning-area-id": 1401049}}, {"type": "Feature", "geometry": {"type": "Point", "coordinates": [13.3684959, 52.5445952]}, "properties": {"id": "2127409174", "name": "Spätkauf - Sinan", "street": "Gerichtstraße 57", "zip-code": 13347.0, "city": "Berlin", "planning-area-id": 1300836}}, {"type": "Feature", "geometry": {"type": "Point", "coordinates": [13.32583, 52.4554898]}, "properties": {"id": "2131565441", "name": "Feinkost Häusler", "street": "Albrechtstraße 120", "zip-code": 12167.0, "city": "Berlin", "planning-area-id": 6100208}}, {"type": "Feature", "geometry": {"type": "Point", "coordinates": [13.3969445, 52.5657292]}, "properties": {"id": "2148260152", "name": "Spätkauf", "street": "Florastraße 4", "zip-code": 13187.0, "city": "Berlin", "planning-area-id": 3400721}}, {"type": "Feature", "geometry": {"type": "Point", "coordinates": [13.356029, 52.4862917]}, "properties": {"id": "2165164688", "name": "Viani", "street": "Akazienstraße 1", "zip-code": 10823.0, "city": "Berlin", "planning-area-id": 7200409}}, {"type": "Feature", "geometry": {"type": "Point", "coordinates": [13.394766, 52.506863]}, "properties": {"id": "2181178527", "name": "Tobacco & Drinks", "street": "", "zip-code": "", "city": "", "planning-area-id": 2100102}}, {"type": "Feature", "geometry": {"type": "Point", "coordinates": [13.3862351, 52.505174]}, "properties": {"id": "2183841807", "name": "Spätkauf am Anhalter Bahnhof", "street": "", "zip-code": "", "city": "", "planning-area-id": 2100101}}, {"type": "Feature", "geometry": {"type": "Point", "coordinates": [13.3862445, 52.4903911]}, "properties": {"id": "2190106003", "name": "Intern@net Call-Center", "street": "", "zip-code": "", "city": "", "planning-area-id": 2200209}}, {"type": "Feature", "geometry": {"type": "Point", "coordinates": [13.3961061, 52.4909141]}, "properties": {"id": "2266759473", "name": "Aqua Getränke- und Weinhandlung", "street": "Gneisenaustraße 30", "zip-code": 10961.0, "city": "Berlin", "planning-area-id": 2200211}}, {"type": "Feature", "geometry": {"type": "Point", "coordinates": [13.3765862, 52.4593252]}, "properties": {"id": "2285962041", "name": "Kısmet Market", "street": "Manteuffelstraße 45", "zip-code": 12103.0, "city": "Berlin", "planning-area-id": 7400825}}, {"type": "Feature", "geometry": {"type": "Point", "coordinates": [13.1587273, 52.462517]}, "properties": {"id": "2286884682", "name": "Weichardts Hofladen", "street": "Kladower Damm 221", "zip-code": 14089.0, "city": "Berlin", "planning-area-id": 5400942}}, {"type": "Feature", "geometry": {"type": "Point", "coordinates": [13.408449, 52.51037]}, "properties": {"id": "2287699197", "name": "Asia Markt", "street": "Alte Jakobstraße 77", "zip-code": 10179.0, "city": "Berlin", "planning-area-id": 1100312}}, {"type": "Feature", "geometry": {"type": "Point", "coordinates": [13.4025395, 52.564078]}, "properties": {"id": "2296927807", "name": "Doppelpack Handels GmbH", "street": "Heynstraße 9", "zip-code": 13187.0, "city": "Berlin", "planning-area-id": 3400721}}, {"type": "Feature", "geometry": {"type": "Point", "coordinates": [13.3624695, 52.5465572]}, "properties": {"id": "2297383210", "name": "Ultra Kiosk", "street": "Antonstraße 42", "zip-code": 13347.0, "city": "Berlin", "planning-area-id": 1401043}}, {"type": "Feature", "geometry": {"type": "Point", "coordinates": [13.3642803, 52.5498899]}, "properties": {"id": "2300052118", "name": "First Class Telecafe", "street": "", "zip-code": "", "city": "", "planning-area-id": 1401049}}, {"type": "Feature", "geometry": {"type": "Point", "coordinates": [13.3640322, 52.5500164]}, "properties": {"id": "2300052127", "name": "Max-Multi Shop", "street": "", "zip-code": "", "city": "", "planning-area-id": 1401049}}, {"type": "Feature", "geometry": {"type": "Point", "coordinates": [13.3644884, 52.5500185]}, "properties": {"id": "2301610392", "name": "Sen Market", "street": "Schulstraße 117", "zip-code": 13347.0, "city": "Berlin", "planning-area-id": 1401049}}, {"type": "Feature", "geometry": {"type": "Point", "coordinates": [13.3669496, 52.5515966]}, "properties": {"id": "2301610395", "name": "Spätshop", "street": "", "zip-code": "", "city": "", "planning-area-id": 1401049}}, {"type": "Feature", "geometry": {"type": "Point", "coordinates": [13.3638703, 52.5490483]}, "properties": {"id": "2303114798", "name": "Abritus", "street": "", "zip-code": "", "city": "", "planning-area-id": 1401043}}, {"type": "Feature", "geometry": {"type": "Point", "coordinates": [13.3641607, 52.5492312]}, "properties": {"id": "2303114813", "name": "Afroshop Marula", "street": "", "zip-code": "", "city": "", "planning-area-id": 1401043}}, {"type": "Feature", "geometry": {"type": "Point", "coordinates": [13.3649186, 52.5474713]}, "properties": {"id": "2305236082", "name": "Backshop Spätverkauf", "street": "Prinz-Eugen-Straße 21", "zip-code": "", "city": "", "planning-area-id": 1401043}}, {"type": "Feature", "geometry": {"type": "Point", "coordinates": [13.3553233, 52.5420164]}, "properties": {"id": "2306426962", "name": "", "street": "", "zip-code": "", "city": "", "planning-area-id": 1401046}}, {"type": "Feature", "geometry": {"type": "Point", "coordinates": [13.4337581, 52.4638287]}, "properties": {"id": "2332757501", "name": "Antipasto", "street": "", "zip-code": 12051.0, "city": "Berlin", "planning-area-id": 8100209}}, {"type": "Feature", "geometry": {"type": "Point", "coordinates": [13.4540704, 52.5123328]}, "properties": {"id": "2335083233", "name": "Day & Night Shop", "street": "Grünberger Straße 35", "zip-code": 10245.0, "city": "Berlin", "planning-area-id": 2500833}}, {"type": "Feature", "geometry": {"type": "Point", "coordinates": [13.4557455, 52.5120577]}, "properties": {"id": "2335091426", "name": "Mini Markt", "street": "Grünberger Straße 49", "zip-code": 10245.0, "city": "Berlin", "planning-area-id": 2500833}}, {"type": "Feature", "geometry": {"type": "Point", "coordinates": [13.425735, 52.4914079]}, "properties": {"id": "2335267123", "name": "Späti", "street": "", "zip-code": "", "city": "", "planning-area-id": 8100310}}, {"type": "Feature", "geometry": {"type": "Point", "coordinates": [13.438672, 52.469581]}, "properties": {"id": "2342347250", "name": "Spätkauf", "street": "Emser Straße 11;10", "zip-code": 12051.0, "city": "Berlin", "planning-area-id": 8100208}}, {"type": "Feature", "geometry": {"type": "Point", "coordinates": [13.4461864, 52.5162946]}, "properties": {"id": "2346564175", "name": "Ungarische Spezialitäten", "street": "", "zip-code": 10243.0, "city": "Berlin", "planning-area-id": 2400624}}, {"type": "Feature", "geometry": {"type": "Point", "coordinates": [13.3151924, 52.5060444]}, "properties": {"id": "2352412654", "name": "T.G.E.", "street": "Kantstraße 133", "zip-code": 10625.0, "city": "Berlin", "planning-area-id": 4300624}}, {"type": "Feature", "geometry": {"type": "Point", "coordinates": [13.4395206, 52.4754348]}, "properties": {"id": "2352673943", "name": "Bioase44", "street": "Karl-Marx-Straße 162", "zip-code": 12043.0, "city": "Berlin", "planning-area-id": 8100207}}, {"type": "Feature", "geometry": {"type": "Point", "coordinates": [13.3817259, 52.5136918]}, "properties": {"id": "2361021964", "name": "Berlin City Market", "street": "Wilhelmstraße 84", "zip-code": "", "city": "", "planning-area-id": 1100205}}, {"type": "Feature", "geometry": {"type": "Point", "coordinates": [13.3833386, 52.4838713]}, "properties": {"id": "2361562308", "name": "Elas Spätkauf 35", "street": "Manfred-von-Richthofen-Straße 10", "zip-code": 12101.0, "city": "Berlin", "planning-area-id": 7400720}}, {"type": "Feature", "geometry": {"type": "Point", "coordinates": [13.405571, 52.4900644]}, "properties": {"id": "2402339483", "name": "Cennet", "street": "Südstern 2", "zip-code": 10961.0, "city": "Berlin", "planning-area-id": 2200210}}, {"type": "Feature", "geometry": {"type": "Point", "coordinates": [13.3435149, 52.5042531]}, "properties": {"id": "2402905128", "name": "Spätkauf", "street": "", "zip-code": "", "city": "", "planning-area-id": 7100101}}, {"type": "Feature", "geometry": {"type": "Point", "coordinates": [13.4564495, 52.5023513]}, "properties": {"id": "2403972911", "name": "Getränkeshop", "street": "", "zip-code": "", "city": "", "planning-area-id": 2500835}}, {"type": "Feature", "geometry": {"type": "Point", "coordinates": [13.4119221, 52.5521543]}, "properties": {"id": "2420799063", "name": "Clerks Späti", "street": "Paul-Robeson-Straße 43", "zip-code": 10439.0, "city": "Berlin", "planning-area-id": 3601141}}, {"type": "Feature", "geometry": {"type": "Point", "coordinates": [13.3411538, 52.5266575]}, "properties": {"id": "2420872154", "name": "Kiezshop All in one", "street": "", "zip-code": "", "city": "", "planning-area-id": 1200520}}, {"type": "Feature", "geometry": {"type": "Point", "coordinates": [13.3023832, 52.584]}, "properties": {"id": "2420918363", "name": "Mini Markt Tieba", "street": "", "zip-code": "", "city": "", "planning-area-id": 12500825}}, {"type": "Feature", "geometry": {"type": "Point", "coordinates": [13.2440033, 52.5104141]}, "properties": {"id": "2423398551", "name": "Stevos", "street": "Flatowallee 16", "zip-code": 14055.0, "city": "Berlin", "planning-area-id": 4200205}}, {"type": "Feature", "geometry": {"type": "Point", "coordinates": [13.4654553, 52.5112438]}, "properties": {"id": "2429480918", "name": "Jung Shop", "street": "Jungstraße 19", "zip-code": 10247.0, "city": "Berlin", "planning-area-id": 2500831}}, {"type": "Feature", "geometry": {"type": "Point", "coordinates": [13.4579456, 52.5099712]}, "properties": {"id": "2429501927", "name": "Meet Kiosk Spätverkauf", "street": "Gabriel-Max-Straße 20", "zip-code": 10245.0, "city": "Berlin", "planning-area-id": 2500833}}, {"type": "Feature", "geometry": {"type": "Point", "coordinates": [13.4326809, 52.5022754]}, "properties": {"id": "2432876317", "name": "Kiosk Burhan Aykut", "street": "Wrangelstraße 24", "zip-code": 10997.0, "city": "Berlin", "planning-area-id": 2300315}}, {"type": "Feature", "geometry": {"type": "Point", "coordinates": [13.4591398, 52.5090686]}, "properties": {"id": "2438849736", "name": "Select Drinks & More", "street": "Wühlischstraße 38", "zip-code": 10245.0, "city": "Berlin", "planning-area-id": 2500834}}, {"type": "Feature", "geometry": {"type": "Point", "coordinates": [13.3616064, 52.4842094]}, "properties": {"id": "2454290040", "name": "Spätkauf", "street": "", "zip-code": "", "city": "", "planning-area-id": 7200413}}, {"type": "Feature", "geometry": {"type": "Point", "coordinates": [13.4253287, 52.4775872]}, "properties": {"id": "2477057968", "name": "Tuna Naturwaren", "street": "Herrfurthstraße 2", "zip-code": 12049.0, "city": "Berlin", "planning-area-id": 8100102}}, {"type": "Feature", "geometry": {"type": "Point", "coordinates": [13.3214942, 52.5015275]}, "properties": {"id": "2479053633", "name": "B&Y 7 Days Late Shop", "street": "", "zip-code": "", "city": "", "planning-area-id": 4501041}}, {"type": "Feature", "geometry": {"type": "Point", "coordinates": [13.4307177, 52.4868603]}, "properties": {"id": "2484347004", "name": "Heil Quelle", "street": "", "zip-code": "", "city": "", "planning-area-id": 8100311}}, {"type": "Feature", "geometry": {"type": "Point", "coordinates": [13.4305783, 52.4861775]}, "properties": {"id": "2484347012", "name": "Havin", "street": "", "zip-code": "", "city": "", "planning-area-id": 8100312}}, {"type": "Feature", "geometry": {"type": "Point", "coordinates": [13.3878394, 52.4923797]}, "properties": {"id": "2496651179", "name": "Café Tinto", "street": "", "zip-code": 10961.0, "city": "Berlin", "planning-area-id": 2200211}}, {"type": "Feature", "geometry": {"type": "Point", "coordinates": [13.4583749, 52.5101364]}, "properties": {"id": "2496841605", "name": "Quick Store Aquarium Lounge", "street": "Gabriel-Max-Straße 4", "zip-code": 10245.0, "city": "Berlin", "planning-area-id": 2500833}}, {"type": "Feature", "geometry": {"type": "Point", "coordinates": [13.4405078, 52.5429975]}, "properties": {"id": "2538714890", "name": "Tele-Internetcafé Duman", "street": "Greifswalder Straße 159", "zip-code": 10409.0, "city": "Berlin", "planning-area-id": 3601245}}, {"type": "Feature", "geometry": {"type": "Point", "coordinates": [13.4331239, 52.5527614]}, "properties": {"id": "2560422686", "name": "Kiez Eck", "street": "Streustraße 67", "zip-code": 13086.0, "city": "Berlin", "planning-area-id": 3500934}}, {"type": "Feature", "geometry": {"type": "Point", "coordinates": [13.3796045, 52.5457718]}, "properties": {"id": "2566382658", "name": "Back & Späti", "street": "", "zip-code": "", "city": "", "planning-area-id": 1300836}}, {"type": "Feature", "geometry": {"type": "Point", "coordinates": [13.4654773, 52.5167129]}, "properties": {"id": "2571168397", "name": "Samariter Tourist Shop", "street": "Samariterstraße 10", "zip-code": 10247.0, "city": "Berlin", "planning-area-id": 2500728}}, {"type": "Feature", "geometry": {"type": "Point", "coordinates": [13.4263919, 52.4881174]}, "properties": {"id": "2591225594", "name": "Alpha and Omega International Afro Shop", "street": "Weserstraße 3-4", "zip-code": 12047.0, "city": "Berlin", "planning-area-id": 8100311}}, {"type": "Feature", "geometry": {"type": "Point", "coordinates": [13.5491157, 52.4381824]}, "properties": {"id": "2618499940", "name": "ASIA Lebensmittel", "street": "Dörpfeldstraße 46", "zip-code": 12489.0, "city": "Berlin", "planning-area-id": 9200717}}, {"type": "Feature", "geometry": {"type": "Point", "coordinates": [13.4156315, 52.4958735]}, "properties": {"id": "2625393031", "name": "Bauerngarten", "street": "Admiralstraße 21", "zip-code": 10999.0, "city": "Berlin", "planning-area-id": 2100106}}, {"type": "Feature", "geometry": {"type": "Point", "coordinates": [13.4375405, 52.4694557]}, "properties": {"id": "2631445467", "name": "Spätkauf Stadt-Kiosk", "street": "Emser Straße 15", "zip-code": 12051.0, "city": "Berlin", "planning-area-id": 8100208}}, {"type": "Feature", "geometry": {"type": "Point", "coordinates": [13.4275171, 52.4994276]}, "properties": {"id": "2641521427", "name": "Drinkshop", "street": "", "zip-code": "", "city": "", "planning-area-id": 2300315}}, {"type": "Feature", "geometry": {"type": "Point", "coordinates": [13.445584, 52.565193]}, "properties": {"id": "2650259956", "name": "Paintballaden", "street": "", "zip-code": 13089.0, "city": "Berlin", "planning-area-id": 3300516}}, {"type": "Feature", "geometry": {"type": "Point", "coordinates": [13.3300717, 52.5243154]}, "properties": {"id": "2654574019", "name": "Spätkauf Gotzkowsky", "street": "", "zip-code": "", "city": "", "planning-area-id": 1200521}}, {"type": "Feature", "geometry": {"type": "Point", "coordinates": [13.4791072, 52.5041947]}, "properties": {"id": "2663080756", "name": "Kiez Einkaufseck", "street": "Kaskelstraße 28", "zip-code": "", "city": "", "planning-area-id": 11400927}}, {"type": "Feature", "geometry": {"type": "Point", "coordinates": [13.4456029, 52.4709529]}, "properties": {"id": "2688507896", "name": "Azam Getränkeshop Spätkauf", "street": "Braunschweiger Straße 58", "zip-code": 12055.0, "city": "Berlin", "planning-area-id": 8100417}}, {"type": "Feature", "geometry": {"type": "Point", "coordinates": [13.4703422, 52.506498]}, "properties": {"id": "2690026209", "name": "Best of Späti", "street": "", "zip-code": "", "city": "", "planning-area-id": 2500832}}, {"type": "Feature", "geometry": {"type": "Point", "coordinates": [13.3424145, 52.5185335]}, "properties": {"id": "2720511292", "name": "Spätkauf", "street": "", "zip-code": "", "city": "", "planning-area-id": 1200629}}, {"type": "Feature", "geometry": {"type": "Point", "coordinates": [13.4315906, 52.466622]}, "properties": {"id": "2729010572", "name": "Semsur", "street": "", "zip-code": "", "city": "", "planning-area-id": 8100105}}, {"type": "Feature", "geometry": {"type": "Point", "coordinates": [13.3712046, 52.5396596]}, "properties": {"id": "2736043858", "name": "Spät & Backshop", "street": "", "zip-code": "", "city": "", "planning-area-id": 1300836}}, {"type": "Feature", "geometry": {"type": "Point", "coordinates": [13.3401211, 52.5269513]}, "properties": {"id": "2745722989", "name": "Asia - asiatische Lebensmittel Geschenkartikel", "street": "Bredowstraße 2", "zip-code": 10551.0, "city": "Berlin", "planning-area-id": 1200520}}, {"type": "Feature", "geometry": {"type": "Point", "coordinates": [13.3851562, 52.5567265]}, "properties": {"id": "2752211152", "name": "Akso Export", "street": "Prinzenallee 25-26", "zip-code": 13359.0, "city": "Berlin", "planning-area-id": 1300732}}, {"type": "Feature", "geometry": {"type": "Point", "coordinates": [13.3875475, 52.5559834]}, "properties": {"id": "2752211158", "name": "Balkan", "street": "Osloer Straße 7", "zip-code": 13359.0, "city": "Berlin", "planning-area-id": 1300732}}, {"type": "Feature", "geometry": {"type": "Point", "coordinates": [13.3855919, 52.557266]}, "properties": {"id": "2752211176", "name": "Orientshop", "street": "Prinzenallee 30", "zip-code": 13359.0, "city": "Berlin", "planning-area-id": 1300732}}, {"type": "Feature", "geometry": {"type": "Point", "coordinates": [13.39243, 52.5244792]}, "properties": {"id": "2756495812", "name": "Spätkauf", "street": "", "zip-code": "", "city": "", "planning-area-id": 1100309}}, {"type": "Feature", "geometry": {"type": "Point", "coordinates": [13.3843315, 52.5564501]}, "properties": {"id": "2756763461", "name": "Yiğido 58 Spätkauf", "street": "", "zip-code": "", "city": "", "planning-area-id": 1300730}}, {"type": "Feature", "geometry": {"type": "Point", "coordinates": [13.3916306, 52.5638849]}, "properties": {"id": "2756763474", "name": "Spätkauf", "street": "", "zip-code": "", "city": "", "planning-area-id": 1300731}}, {"type": "Feature", "geometry": {"type": "Point", "coordinates": [13.379004, 52.5052313]}, "properties": {"id": "2769572946", "name": "T.I.C 2", "street": "", "zip-code": "", "city": "", "planning-area-id": 2100101}}, {"type": "Feature", "geometry": {"type": "Point", "coordinates": [13.4431934, 52.4995723]}, "properties": {"id": "2796270178", "name": "Kult Späti", "street": "Falckensteinstraße 5", "zip-code": 10997.0, "city": "Berlin", "planning-area-id": 2300419}}, {"type": "Feature", "geometry": {"type": "Point", "coordinates": [13.3190554, 52.4979731]}, "properties": {"id": "2801187847", "name": "7 days Late Shop", "street": "", "zip-code": "", "city": "", "planning-area-id": 4501044}}, {"type": "Feature", "geometry": {"type": "Point", "coordinates": [13.4259311, 52.4878189]}, "properties": {"id": "2813482370", "name": "Drinks Shop Hermann Platz", "street": "", "zip-code": "", "city": "", "planning-area-id": 8100311}}, {"type": "Feature", "geometry": {"type": "Point", "coordinates": [13.3258011, 52.5278526]}, "properties": {"id": "2827585866", "name": "Ed & Fred Nussdepot", "street": "Huttenstraße 8", "zip-code": 10553.0, "city": "Berlin", "planning-area-id": 1200518}}, {"type": "Feature", "geometry": {"type": "Point", "coordinates": [13.3971706, 52.537134]}, "properties": {"id": "2860326047", "name": "Tam Phuc Asia Shop Spätkauf", "street": "", "zip-code": "", "city": "", "planning-area-id": 1100416}}, {"type": "Feature", "geometry": {"type": "Point", "coordinates": [13.4525636, 52.5198802]}, "properties": {"id": "2862295897", "name": "Djangos Place", "street": "Petersburger Straße 69", "zip-code": 10249.0, "city": "Berlin", "planning-area-id": 2500726}}, {"type": "Feature", "geometry": {"type": "Point", "coordinates": [13.3634199, 52.4957469]}, "properties": {"id": "2874686038", "name": "Infinity", "street": "", "zip-code": "", "city": "", "planning-area-id": 7100205}}, {"type": "Feature", "geometry": {"type": "Point", "coordinates": [13.365856, 52.4951614]}, "properties": {"id": "2874686040", "name": "Schland Night Shop", "street": "", "zip-code": "", "city": "", "planning-area-id": 7100205}}, {"type": "Feature", "geometry": {"type": "Point", "coordinates": [13.6116911, 52.5266172]}, "properties": {"id": "2877252373", "name": "Spätverkauf", "street": "", "zip-code": "", "city": "", "planning-area-id": 10400835}}, {"type": "Feature", "geometry": {"type": "Point", "coordinates": [13.2902977, 52.4768463]}, "properties": {"id": "2881543413", "name": "Hofladen im Kiez (Bioladen)", "street": "", "zip-code": "", "city": "", "planning-area-id": 4400830}}, {"type": "Feature", "geometry": {"type": "Point", "coordinates": [13.4264387, 52.4872469]}, "properties": {"id": "2926167818", "name": "Späti47", "street": "Sonnenallee 12", "zip-code": 12047.0, "city": "Berlin", "planning-area-id": 8100314}}, {"type": "Feature", "geometry": {"type": "Point", "coordinates": [13.4236592, 52.5014304]}, "properties": {"id": "2935214601", "name": "Akasya Spätkauf", "street": "", "zip-code": "", "city": "", "planning-area-id": 2300314}}, {"type": "Feature", "geometry": {"type": "Point", "coordinates": [13.4118253, 52.5422818]}, "properties": {"id": "2935221701", "name": "Shop 140", "street": "Schönhauser Allee 140", "zip-code": 10437.0, "city": "Berlin", "planning-area-id": 3601142}}, {"type": "Feature", "geometry": {"type": "Point", "coordinates": [13.4270118, 52.4998177]}, "properties": {"id": "2935241502", "name": "Abschnitt 36", "street": "Manteuffelstraße 88", "zip-code": 10997.0, "city": "Berlin", "planning-area-id": 2300315}}, {"type": "Feature", "geometry": {"type": "Point", "coordinates": [13.4400067, 52.4840417]}, "properties": {"id": "2935386822", "name": "Elbe Getränke", "street": "Weserstraße 171", "zip-code": 12045.0, "city": "Berlin", "planning-area-id": 8100312}}, {"type": "Feature", "geometry": {"type": "Point", "coordinates": [13.4622046, 52.5085877]}, "properties": {"id": "2935555501", "name": "MultiMarkt", "street": "", "zip-code": "", "city": "", "planning-area-id": 2500833}}, {"type": "Feature", "geometry": {"type": "Point", "coordinates": [13.3635767, 52.5645334]}, "properties": {"id": "2953781233", "name": "Spätkauf", "street": "Residenzstraße 48", "zip-code": "", "city": "", "planning-area-id": 12100204}}, {"type": "Feature", "geometry": {"type": "Point", "coordinates": [13.37182, 52.5608633]}, "properties": {"id": "2953846658", "name": "Kaufshop Bafi", "street": "Reginhardstraße 34", "zip-code": 13409.0, "city": "Berlin", "planning-area-id": 12100101}}, {"type": "Feature", "geometry": {"type": "Point", "coordinates": [13.4022828, 52.5859354]}, "properties": {"id": "2958353241", "name": "SpätiPate", "street": "Dietzgenstraße 57", "zip-code": 13156.0, "city": "Berlin", "planning-area-id": 3200205}}, {"type": "Feature", "geometry": {"type": "Point", "coordinates": [13.3021728, 52.5060271]}, "properties": {"id": "2962777900", "name": "Späti am Stutti", "street": "", "zip-code": "", "city": "", "planning-area-id": 4300416}}, {"type": "Feature", "geometry": {"type": "Point", "coordinates": [13.3019098, 52.4881456]}, "properties": {"id": "2973862795", "name": "#mein Spaetkauf", "street": "Hohenzollerndamm 156", "zip-code": 10713.0, "city": "Berlin", "planning-area-id": 4501146}}, {"type": "Feature", "geometry": {"type": "Point", "coordinates": [13.576912, 52.455164]}, "properties": {"id": "3004064464", "name": "Weltladen Köpenick", "street": "Bahnhofstraße 9", "zip-code": 12555.0, "city": "Berlin", "planning-area-id": 9501939}}, {"type": "Feature", "geometry": {"type": "Point", "coordinates": [13.2935635, 52.5156423]}, "properties": {"id": "3008816618", "name": "Gemeinwohl-Bioladen Lylla", "street": "Seelingstraße 18", "zip-code": 14059.0, "city": "Berlin", "planning-area-id": 4300413}}, {"type": "Feature", "geometry": {"type": "Point", "coordinates": [13.453781, 52.5177493]}, "properties": {"id": "3072013563", "name": "Botan Späti", "street": "Petersburger Straße 87", "zip-code": "", "city": "", "planning-area-id": 2500727}}, {"type": "Feature", "geometry": {"type": "Point", "coordinates": [13.4395831, 52.4994382]}, "properties": {"id": "3073260197", "name": "Spätkauf Wrangelkiez", "street": "Wrangelstraße 44", "zip-code": 10997.0, "city": "Berlin", "planning-area-id": 2300419}}, {"type": "Feature", "geometry": {"type": "Point", "coordinates": [13.4407618, 52.4992017]}, "properties": {"id": "3073291314", "name": "Spätverkauf", "street": "Wrangelstraße 87", "zip-code": 10997.0, "city": "Berlin", "planning-area-id": 2300419}}, {"type": "Feature", "geometry": {"type": "Point", "coordinates": [13.5808138, 52.4571231]}, "properties": {"id": "3113099753", "name": "Spätkauf", "street": "", "zip-code": 12555.0, "city": "", "planning-area-id": 9501940}}, {"type": "Feature", "geometry": {"type": "Point", "coordinates": [13.3638855, 52.5434051]}, "properties": {"id": "3140301723", "name": "Müller Eck", "street": "Müllerstraße 163A", "zip-code": "", "city": "", "planning-area-id": 1401047}}, {"type": "Feature", "geometry": {"type": "Point", "coordinates": [13.3535499, 52.5416403]}, "properties": {"id": "3147455157", "name": "Spätkauf King", "street": "", "zip-code": "", "city": "", "planning-area-id": 1401046}}, {"type": "Feature", "geometry": {"type": "Point", "coordinates": [13.3538487, 52.5423337]}, "properties": {"id": "3149431447", "name": "", "street": "Samoastraße 23", "zip-code": "", "city": "", "planning-area-id": 1401046}}, {"type": "Feature", "geometry": {"type": "Point", "coordinates": [13.3764534, 52.524287]}, "properties": {"id": "3157747970", "name": "Kiosk", "street": "Virchowweg 6", "zip-code": 10117.0, "city": "Berlin", "planning-area-id": 1100308}}, {"type": "Feature", "geometry": {"type": "Point", "coordinates": [13.2667275, 52.4144672]}, "properties": {"id": "3194403750", "name": "Kiosk", "street": "Teltower Damm 213", "zip-code": 14167.0, "city": "Berlin", "planning-area-id": 6300528}}, {"type": "Feature", "geometry": {"type": "Point", "coordinates": [13.4415781, 52.5014884]}, "properties": {"id": "3209504900", "name": "Late Shop", "street": "", "zip-code": "", "city": "", "planning-area-id": 2300316}}, {"type": "Feature", "geometry": {"type": "Point", "coordinates": [13.4222961, 52.5026914]}, "properties": {"id": "3215985724", "name": "Uli’s Spätkauf", "street": "", "zip-code": "", "city": "", "planning-area-id": 2300314}}, {"type": "Feature", "geometry": {"type": "Point", "coordinates": [13.3777723, 52.5450464]}, "properties": {"id": "3221929062", "name": "Der kleine Laden Spätkauf", "street": "Wiesenstraße 62", "zip-code": 13357.0, "city": "Berlin", "planning-area-id": 1300836}}, {"type": "Feature", "geometry": {"type": "Point", "coordinates": [13.3852966, 52.4708617]}, "properties": {"id": "3225762385", "name": "ServiceStore DB", "street": "", "zip-code": "", "city": "", "planning-area-id": 7400720}}, {"type": "Feature", "geometry": {"type": "Point", "coordinates": [13.4888767, 52.5030542]}, "properties": {"id": "3239265254", "name": "Stern Backshop, Stehcafe, Kiosk", "street": "", "zip-code": "", "city": "", "planning-area-id": 11400929}}, {"type": "Feature", "geometry": {"type": "Point", "coordinates": [13.2618642, 52.4367663]}, "properties": {"id": "3244632333", "name": "Reformhaus Demski", "street": "", "zip-code": "", "city": "", "planning-area-id": 6400841}}, {"type": "Feature", "geometry": {"type": "Point", "coordinates": [13.4576292, 52.4239772]}, "properties": {"id": "3267343770", "name": "Kwik Markt", "street": "", "zip-code": "", "city": "", "planning-area-id": 8300935}}, {"type": "Feature", "geometry": {"type": "Point", "coordinates": [13.3980036, 52.5385789]}, "properties": {"id": "3286264361", "name": "Mauerkiosk", "street": "Bernauer Straße 32", "zip-code": 10115.0, "city": "Berlin", "planning-area-id": 1100416}}, {"type": "Feature", "geometry": {"type": "Point", "coordinates": [13.6242669, 52.4493869]}, "properties": {"id": "3294052242", "name": "Unverpackt", "street": "Bölschestraße 120", "zip-code": 12587.0, "city": "Berlin", "planning-area-id": 9501737}}, {"type": "Feature", "geometry": {"type": "Point", "coordinates": [13.4062087, 52.5528632]}, "properties": {"id": "3306498748", "name": "Kietzmarkt", "street": "", "zip-code": "", "city": "", "planning-area-id": 3601141}}, {"type": "Feature", "geometry": {"type": "Point", "coordinates": [13.441365, 52.4791939]}, "properties": {"id": "3312315281", "name": "Kiosk Carli 77", "street": "", "zip-code": "", "city": "", "planning-area-id": 8100415}}, {"type": "Feature", "geometry": {"type": "Point", "coordinates": [13.2349572, 52.6078582]}, "properties": {"id": "3333071085", "name": "Kiosk", "street": "", "zip-code": "", "city": "", "planning-area-id": 12400619}}, {"type": "Feature", "geometry": {"type": "Point", "coordinates": [13.4417015, 52.4985709]}, "properties": {"id": "3344202100", "name": "Kiez-Kiosk Spätkauf", "street": "Wrangelstraße 52", "zip-code": 10997.0, "city": "Berlin", "planning-area-id": 2300419}}, {"type": "Feature", "geometry": {"type": "Point", "coordinates": [13.408786, 52.5008448]}, "properties": {"id": "3348712211", "name": "Kiezkiosk", "street": "", "zip-code": "", "city": "", "planning-area-id": 2100105}}, {"type": "Feature", "geometry": {"type": "Point", "coordinates": [13.3203746, 52.5657443]}, "properties": {"id": "3362345317", "name": "Familia Market", "street": "", "zip-code": "", "city": "", "planning-area-id": 12200309}}, {"type": "Feature", "geometry": {"type": "Point", "coordinates": [13.4423444, 52.4835558]}, "properties": {"id": "3373144216", "name": "JWANspäti", "street": "Wildenbruchstraße 83", "zip-code": 12045.0, "city": "Berlin", "planning-area-id": 8100312}}, {"type": "Feature", "geometry": {"type": "Point", "coordinates": [13.423999, 52.5540195]}, "properties": {"id": "3383020379", "name": "Spätshop + Bäckerei", "street": "Neumannstraße 3a", "zip-code": 13189.0, "city": "Berlin", "planning-area-id": 3400828}}, {"type": "Feature", "geometry": {"type": "Point", "coordinates": [13.4148027, 52.5565726]}, "properties": {"id": "3384540738", "name": "Spätkauf", "street": "", "zip-code": "", "city": "", "planning-area-id": 3400827}}, {"type": "Feature", "geometry": {"type": "Point", "coordinates": [13.4148642, 52.5533974]}, "properties": {"id": "3393706957", "name": "Spätkauf", "street": "Schönhauser Allee 90", "zip-code": 10439.0, "city": "Berlin", "planning-area-id": 3601243}}, {"type": "Feature", "geometry": {"type": "Point", "coordinates": [13.3578031, 52.5519495]}, "properties": {"id": "3393947819", "name": "Tabak Presse", "street": "", "zip-code": 13347.0, "city": "", "planning-area-id": 1401048}}, {"type": "Feature", "geometry": {"type": "Point", "coordinates": [13.4691729, 52.5202364]}, "properties": {"id": "3398525115", "name": "Eldenaer Spätkauf 28", "street": "Eldenaer Straße 28", "zip-code": 10247.0, "city": "Berlin", "planning-area-id": 2500728}}, {"type": "Feature", "geometry": {"type": "Point", "coordinates": [13.4789615, 52.5163714]}, "properties": {"id": "3409123517", "name": "Früchte & Asia-Lebensmittel", "street": "", "zip-code": "", "city": "", "planning-area-id": 11300722}}, {"type": "Feature", "geometry": {"type": "Point", "coordinates": [13.4555955, 52.4899211]}, "properties": {"id": "3442711034", "name": "Mamas Spätkauf", "street": "", "zip-code": "", "city": "", "planning-area-id": 9100101}}, {"type": "Feature", "geometry": {"type": "Point", "coordinates": [13.4463661, 52.4917023]}, "properties": {"id": "3442719667", "name": "Kiosk", "street": "", "zip-code": "", "city": "", "planning-area-id": 9100101}}, {"type": "Feature", "geometry": {"type": "Point", "coordinates": [13.4542337, 52.4893607]}, "properties": {"id": "3442721070", "name": "Asia Lebensmittel", "street": "Elsenstraße 25", "zip-code": 12435.0, "city": "Berlin", "planning-area-id": 9100101}}, {"type": "Feature", "geometry": {"type": "Point", "coordinates": [13.4421223, 52.4887011]}, "properties": {"id": "3442739322", "name": "Ost-West Späti", "street": "Onckenstraße 16", "zip-code": 12435.0, "city": "Berlin", "planning-area-id": 9100101}}, {"type": "Feature", "geometry": {"type": "Point", "coordinates": [13.4138249, 52.5534542]}, "properties": {"id": "3465014815", "name": "Almaraii", "street": "Bornholmer Straße 96", "zip-code": 10439.0, "city": "Berlin", "planning-area-id": 3601141}}, {"type": "Feature", "geometry": {"type": "Point", "coordinates": [13.414996, 52.5541364]}, "properties": {"id": "3465036384", "name": "Deutsche Post Filiale 600 Kiosk Späti", "street": "Schönhauser Allee 91", "zip-code": "", "city": "", "planning-area-id": 3400827}}, {"type": "Feature", "geometry": {"type": "Point", "coordinates": [13.4213641, 52.4937138]}, "properties": {"id": "3499262003", "name": "Spätkauf", "street": "", "zip-code": "", "city": "", "planning-area-id": 2200213}}, {"type": "Feature", "geometry": {"type": "Point", "coordinates": [13.4192635, 52.539707]}, "properties": {"id": "3518024330", "name": "We [love] Spät[i]", "street": "Danziger Straße 44", "zip-code": 10435.0, "city": "Berlin", "planning-area-id": 3701555}}, {"type": "Feature", "geometry": {"type": "Point", "coordinates": [13.4236475, 52.5375121]}, "properties": {"id": "3525872327", "name": "", "street": "Prenzlauer Allee 50", "zip-code": 10405.0, "city": "Berlin", "planning-area-id": 3701658}}, {"type": "Feature", "geometry": {"type": "Point", "coordinates": [13.3209924, 52.5057276]}, "properties": {"id": "3530849181", "name": "Spätkauf Astier", "street": "Kantstraße 145", "zip-code": 10623.0, "city": "Berlin", "planning-area-id": 4300624}}, {"type": "Feature", "geometry": {"type": "Point", "coordinates": [13.4047421, 52.5401614]}, "properties": {"id": "3578282893", "name": "Minimarkt", "street": "", "zip-code": "", "city": "", "planning-area-id": 3701554}}, {"type": "Feature", "geometry": {"type": "Point", "coordinates": [13.4240611, 52.4740238]}, "properties": {"id": "3578321975", "name": "Oker Markt", "street": "Okerstraße 12", "zip-code": 12049.0, "city": "Berlin", "planning-area-id": 8100103}}, {"type": "Feature", "geometry": {"type": "Point", "coordinates": [13.3270228, 52.5053915]}, "properties": {"id": "3590230294", "name": "Spätshop", "street": "", "zip-code": "", "city": "", "planning-area-id": 4300622}}, {"type": "Feature", "geometry": {"type": "Point", "coordinates": [13.3314855, 52.5039591]}, "properties": {"id": "3602855064", "name": "KompaktKauf", "street": "", "zip-code": "", "city": "", "planning-area-id": 4501042}}, {"type": "Feature", "geometry": {"type": "Point", "coordinates": [13.4439393, 52.5187962]}, "properties": {"id": "3615273496", "name": "", "street": "Auerstraße 12", "zip-code": "", "city": "", "planning-area-id": 2400522}}, {"type": "Feature", "geometry": {"type": "Point", "coordinates": [13.3577362, 52.4872311]}, "properties": {"id": "3632641125", "name": "Haupt Getränke", "street": "", "zip-code": "", "city": "", "planning-area-id": 7200411}}, {"type": "Feature", "geometry": {"type": "Point", "coordinates": [13.4567401, 52.5105338]}, "properties": {"id": "3644133594", "name": "Tobacco & Drinks", "street": "Simon-Dach-Straße 38", "zip-code": 10245.0, "city": "Berlin", "planning-area-id": 2500833}}, {"type": "Feature", "geometry": {"type": "Point", "coordinates": [13.3290394, 52.4290924]}, "properties": {"id": "3670161824", "name": "Kiosk", "street": "", "zip-code": "", "city": "", "planning-area-id": 6200422}}, {"type": "Feature", "geometry": {"type": "Point", "coordinates": [13.2087876, 52.5620681]}, "properties": {"id": "3677450357", "name": "Spätie", "street": "", "zip-code": "", "city": "", "planning-area-id": 5100103}}, {"type": "Feature", "geometry": {"type": "Point", "coordinates": [13.4473738, 52.477875]}, "properties": {"id": "3686251705", "name": "Sonnen Spätkauf", "street": "", "zip-code": "", "city": "", "planning-area-id": 8100415}}, {"type": "Feature", "geometry": {"type": "Point", "coordinates": [13.3021293, 52.5110557]}, "properties": {"id": "3710407323", "name": "Mini Market", "street": "Bismarckstraße 76", "zip-code": 10627.0, "city": "Berlin", "planning-area-id": 4300623}}, {"type": "Feature", "geometry": {"type": "Point", "coordinates": [13.3626548, 52.4986146]}, "properties": {"id": "3712223331", "name": "Spätkauf", "street": "Potsdamer Straße 117/119", "zip-code": 10783.0, "city": "Berlin", "planning-area-id": 7100205}}, {"type": "Feature", "geometry": {"type": "Point", "coordinates": [13.3016627, 52.5119635]}, "properties": {"id": "3712391645", "name": "Kaiser Spätkauf", "street": "Kaiser-Friedrich-Straße 78", "zip-code": 10585.0, "city": "Berlin", "planning-area-id": 4300414}}, {"type": "Feature", "geometry": {"type": "Point", "coordinates": [13.4111495, 52.5215326]}, "properties": {"id": "3717599468", "name": "Yorma’s", "street": "", "zip-code": "", "city": "", "planning-area-id": 1100310}}, {"type": "Feature", "geometry": {"type": "Point", "coordinates": [13.3089922, 52.5067185]}, "properties": {"id": "3721863451", "name": "Späti Bull", "street": "Kantstraße 52", "zip-code": 10627.0, "city": "Berlin", "planning-area-id": 4300623}}, {"type": "Feature", "geometry": {"type": "Point", "coordinates": [13.4473675, 52.5038328]}, "properties": {"id": "3750154925", "name": "Spätkauf", "street": "", "zip-code": "", "city": "", "planning-area-id": 2400625}}, {"type": "Feature", "geometry": {"type": "Point", "coordinates": [13.3774997, 52.5567564]}, "properties": {"id": "3757302128", "name": "Prime Shop", "street": "Koloniestraße 143", "zip-code": 13359.0, "city": "Berlin", "planning-area-id": 1300730}}, {"type": "Feature", "geometry": {"type": "Point", "coordinates": [13.5170444, 52.4624408]}, "properties": {"id": "3789168245", "name": "Asia Supermarkt", "street": "Schillerpromenade 5", "zip-code": 12459.0, "city": "Berlin", "planning-area-id": 9200511}}, {"type": "Feature", "geometry": {"type": "Point", "coordinates": [13.517886, 52.4617007]}, "properties": {"id": "3789200614", "name": "Spätkauf 30", "street": "Wilhelminenhofstraße 30", "zip-code": 12459.0, "city": "Berlin", "planning-area-id": 9200511}}, {"type": "Feature", "geometry": {"type": "Point", "coordinates": [13.5144455, 52.4625301]}, "properties": {"id": "3792656709", "name": "Spätkauf", "street": "Wilhelminenhofstraße 16a", "zip-code": 12459.0, "city": "Berlin", "planning-area-id": 9200511}}, {"type": "Feature", "geometry": {"type": "Point", "coordinates": [13.3659567, 52.4991411]}, "properties": {"id": "3798391366", "name": "Späti Wood", "street": "Kurfürstenstraße 164", "zip-code": 10785.0, "city": "Berlin", "planning-area-id": 7100205}}, {"type": "Feature", "geometry": {"type": "Point", "coordinates": [13.3477348, 52.5508943]}, "properties": {"id": "3803590073", "name": "Multi Shop", "street": "", "zip-code": "", "city": "", "planning-area-id": 1400938}}, {"type": "Feature", "geometry": {"type": "Point", "coordinates": [13.2853657, 52.5870126]}, "properties": {"id": "3811248574", "name": "Mini-Markt", "street": "", "zip-code": "", "city": "", "planning-area-id": 12200515}}, {"type": "Feature", "geometry": {"type": "Point", "coordinates": [13.3537781, 52.498849]}, "properties": {"id": "3826013967", "name": "Late Night Shop", "street": "Nollendorfplatz 7", "zip-code": 10777.0, "city": "Berlin", "planning-area-id": 7100102}}, {"type": "Feature", "geometry": {"type": "Point", "coordinates": [13.3304108, 52.4927196]}, "properties": {"id": "3837575417", "name": "Silla", "street": "Bundesallee 23", "zip-code": "", "city": "", "planning-area-id": 4501149}}, {"type": "Feature", "geometry": {"type": "Point", "coordinates": [13.3615177, 52.4973293]}, "properties": {"id": "3855567146", "name": "DiVan", "street": "Potsdamer Straße 146", "zip-code": 10783.0, "city": "Berlin", "planning-area-id": 7100103}}, {"type": "Feature", "geometry": {"type": "Point", "coordinates": [13.3077052, 52.5010418]}, "properties": {"id": "3862836914", "name": "", "street": "Wilmersdorfer Straße 93", "zip-code": "", "city": "Berlin", "planning-area-id": 4501040}},