{"version": 0.6, "generator": "Overpass API 0.7.61.5 4133829e", "osm3s": {"timestamp_osm_base": "2024-01-03T20:01:45Z", "copyright": "The data included in this document is from www.openstreetmap.org. The data is made available under ODbL."}, "elements": [{"type": "node", "id": 27245242, "lat": 52.5185656, "lon": 13.1114228, "tags": {"bench": "no", "bin": "no", "bus": "yes", "highway": "bus_stop", "lit": "no", "name": "Seeburger Chaussee", "public_transport": "stop_position", "ref_name": "Seeburg Seeburger Chaussee, Dallgow-Döberitz", "shelter": "no", "tactile_paving": "no"}}, {"type": "node", "id": 27245246, "lat": 52.5190776, "lon": 13.1109487, "tags": {"bench": "no", "bin": "no", "bus": "yes", "highway": "bus_stop", "lit": "no", "name": "Seeburger Chaussee", "public_transport": "stop_position", "ref_name": "Seeburg Seeburger Chaussee, Dallgow-Döberitz", "shelter": "no", "tactile_paving": "no"}}, {"type": "node", "id": 29858077, "lat": 52.5448333, "lon": 13.5580236, "tags": {"bench": "yes", "bin": "yes", "highway": "bus_stop", "lit": "yes", "name": "Rebhuhnweg", "shelter": "yes", "tactile_paving": "no"}}, {"type": "node", "id": 29858105, "lat": 52.5451018, "lon": 13.5577215, "tags": {"bench": "yes", "bin": "yes", "highway": "bus_stop", "lit": "yes", "name": "Rebhuhnweg", "shelter": "yes", "tactile_paving": "no"}}, {"type": "node", "id": 30134871, "lat": 52.4188459, "lon": 13.2501119, "tags": {"bench": "yes", "bin": "yes", "highway": "bus_stop", "lit": "yes", "name": "Ludwigsfelder Straße/Sachtlebenstraße", "shelter": "yes", "tactile_paving": "no"}}, {"type": "node", "id": 30731740, "lat": 52.5320235, "lon": 13.399477, "tags": {"bench": "yes", "bin": "yes", "highway": "bus_stop", "lit": "yes", "name": "Brunnenstraße/Invalidenstraße", "shelter": "yes", "tactile_paving": "yes"}}, {"type": "node", "id": 31367880, "lat": 52.5559625, "lon": 13.1427927, "tags": {"bench": "yes", "bin": "yes", "bus": "yes", "highway": "bus_stop", "name": "Siedlereck", "name:BVG": "Falkensee, Siedlereck", "public_transport": "stop_position", "ref:BVG": "107171", "ref_name": "Siedlereck, Falkensee", "shelter": "yes", "tactile_paving": "no", "website": "https://qr.bvg.de/h107171"}}, {"type": "node", "id": 31492302, "lat": 52.4239824, "lon": 13.6292634, "tags": {"bench": "yes", "bin": "yes", "highway": "bus_stop", "lit": "yes", "name": "Rübezahl", "shelter": "yes", "tactile_paving": "no"}}, {"type": "node", "id": 31532403, "lat": 52.4738933, "lon": 13.5702537, "tags": {"bench": "yes", "bin": "yes", "highway": "bus_stop", "lit": "yes", "name": "Hoppendorfer Straße", "shelter": "no", "tactile_paving": "no"}}, {"type": "node", "id": 31921330, "lat": 52.4619157, "lon": 13.1064329, "tags": {"bench": "yes", "bin": "yes", "bus": "yes", "highway": "bus_stop", "name": "Friedrich-Günther-Park", "public_transport": "stop_position", "ref_name": "F.-Günther-Park, Potsdam", "shelter": "yes", "tactile_paving": "yes", "wheelchair": "yes"}}, {"type": "node", "id": 33236598, "lat": 52.5353487, "lon": 13.1371995, "tags": {"bench": "no", "bin": "yes", "bus": "yes", "check_date:shelter": "2022-09-11", "highway": "bus_stop", "lit": "yes", "name": "Staakener Feldstraße", "passenger_information_display": "no", "public_transport": "stop_position", "ref:BVG": "105755", "ref_name": "Staakener Feldstr., Berlin", "shelter": "no", "tactile_paving": "no", "website": "https://qr.bvg.de/h105755"}}, {"type": "node", "id": 33553106, "lat": 52.5405285, "lon": 13.1325344, "tags": {"bench": "yes", "bin": "yes", "bus": "yes", "highway": "bus_stop", "lit": "yes", "name": "Fachinger Straße", "passenger_information_display": "no", "public_transport": "stop_position", "ref:BVG": "106408", "shelter": "yes", "tactile_paving": "no", "website": "https://qr.bvg.de/h106408"}}, {"type": "node", "id": 38063823, "lat": 52.3605456, "lon": 13.1124716, "tags": {"highway": "bus_stop", "name": "Drewitzer Straße/Am Buchhorst"}}, {"type": "node", "id": 51994959, "lat": 52.5145532, "lon": 13.5076501, "tags": {"bench": "yes", "bin": "yes", "highway": "bus_stop", "lit": "yes", "name": "Zentralfriedhof", "shelter": "yes", "tactile_paving": "no"}}, {"type": "node", "id": 79593591, "lat": 52.5753443, "lon": 13.3056817, "tags": {"bench": "no", "bin": "yes", "highway": "bus_stop", "lit": "yes", "name": "Otisstraße/Quäkerstraße", "shelter": "no", "tactile_paving": "no"}}, {"type": "node", "id": 79594504, "lat": 52.5769229, "lon": 13.3073332, "tags": {"bench": "yes", "bin": "yes", "highway": "bus_stop", "name": "Otisstraße/Wittestraße", "shelter": "yes", "tactile_paving": "no"}}, {"type": "node", "id": 79595616, "lat": 52.5720694, "lon": 13.308858, "tags": {"bench": "yes", "bin": "yes", "highway": "bus_stop", "lit": "yes", "name": "Auguste-Viktoria-Allee/Quäkerstraße", "shelter": "yes", "tactile_paving": "no"}}, {"type": "node", "id": 79597771, "lat": 52.5666141, "lon": 13.3170693, "tags": {"bench": "yes", "bin": "yes", "highway": "bus_stop", "lit": "yes", "name": "Uranusweg", "shelter": "yes", "tactile_paving": "no"}}, {"type": "node", "id": 79599789, "lat": 52.5715952, "lon": 13.3115873, "tags": {"bench": "yes", "bin": "yes", "highway": "bus_stop", "lit": "yes", "name": "Eichborndamm/Antonienstraße", "shelter": "yes", "tactile_paving": "no"}}, {"type": "node", "id": 92332110, "lat": 52.5750263, "lon": 13.313109, "tags": {"bench": "yes", "bin": "yes", "highway": "bus_stop", "lit": "yes", "name": "Kienhorststraße", "shelter": "no", "tactile_paving": "no"}}, {"type": "node", "id": 92333037, "lat": 52.5744835, "lon": 13.3144357, "tags": {"bench": "no", "bin": "yes", "check_date:shelter": "2022-06-01", "highway": "bus_stop", "lit": "no", "name": "Kienhorststraße", "shelter": "no", "tactile_paving": "no"}}, {"type": "node", "id": 132092492, "lat": 52.4353784, "lon": 13.2894251, "tags": {"bench": "yes", "bin": "yes", "bus": "yes", "highway": "bus_stop", "lit": "yes", "name": "Köhlerstraße", "operator": "Berliner Verkehrsbetriebe", "public_transport": "platform", "shelter": "yes", "tactile_paving": "yes"}}, {"type": "node", "id": 132095890, "lat": 52.4369525, "lon": 13.293536, "tags": {"bench": "yes", "bin": "yes", "bus": "yes", "highway": "bus_stop", "lit": "yes", "name": "Johanneskirchplatz", "operator": "Berliner Verkehrsbetriebe", "public_transport": "platform", "shelter": "yes", "tactile_paving": "yes"}}, {"type": "node", "id": 132096981, "lat": 52.4376344, "lon": 13.2951877, "tags": {"bench": "yes", "bin": "yes", "bus": "yes", "highway": "bus_stop", "lit": "yes", "name": "Baseler Straße", "operator": "Berliner Verkehrsbetriebe", "public_transport": "platform", "shelter": "yes", "tactile_paving": "no"}}, {"type": "node", "id": 205064297, "lat": 52.4273331, "lon": 13.3645202, "tags": {"bench": "no", "bin": "yes", "highway": "bus_stop", "lit": "yes", "name": "Preysingstraße", "shelter": "no", "tactile_paving": "no"}}, {"type": "node", "id": 241456896, "lat": 52.5760974, "lon": 13.3324803, "tags": {"bench": "no", "bin": "yes", "check_date:shelter": "2022-12-26", "highway": "bus_stop", "lit": "no", "name": "Ollenhauerstraße/Lindauer Allee", "shelter": "no", "tactile_paving": "no"}}, {"type": "node", "id": 241457063, "lat": 52.583405, "lon": 13.320502, "tags": {"bench": "yes", "bin": "yes", "highway": "bus_stop", "lit": "yes", "name": "Rotbuchenweg", "shelter": "yes", "tactile_paving": "no"}}, {"type": "node", "id": 243828433, "lat": 52.4724288, "lon": 13.4287713, "tags": {"bench": "yes", "bin": "yes", "bus": "yes", "highway": "bus_stop", "lit": "yes", "name": "U Leinestraße", "public_transport": "platform", "shelter": "yes", "tactile_paving": "no"}}, {"type": "node", "id": 245235823, "lat": 52.5888336, "lon": 13.3249857, "tags": {"bench": "yes", "bin": "yes", "check_date:shelter": "2023-08-12", "highway": "bus_stop", "lit": "yes", "name": "U Rathaus Reinickendorf", "shelter": "yes", "tactile_paving": "yes"}}, {"type": "node", "id": 245247234, "lat": 52.5769523, "lon": 13.2945601, "tags": {"bench": "yes", "bin": "yes", "bus": "yes", "highway": "bus_stop", "lit": "yes", "name": "U Holzhauser Straße", "public_transport": "platform", "shelter": "yes", "tactile_paving": "no"}}, {"type": "node", "id": 245266225, "lat": 52.5752855, "lon": 13.3476073, "tags": {"bench": "yes", "bin": "yes", "highway": "bus_stop", "lit": "yes", "name": "U Paracelsus-Bad", "shelter": "yes", "tactile_paving": "no"}}, {"type": "node", "id": 245266719, "lat": 52.5745686, "lon": 13.3470724, "tags": {"bench": "yes", "bin": "yes", "check_date:shelter": "2023-08-14", "highway": "bus_stop", "lit": "yes", "name": "U Paracelsus-Bad", "shelter": "yes", "tactile_paving": "no"}}, {"type": "node", "id": 247085869, "lat": 52.4947408, "lon": 13.1995997, "tags": {"bench": "yes", "bin": "no", "highway": "bus_stop", "lit": "yes", "name": "Schildhorn", "shelter": "yes", "tactile_paving": "no"}}, {"type": "node", "id": 247558961, "lat": 52.5752418, "lon": 13.3378385, "tags": {"bench": "yes", "bin": "yes", "bus": "yes", "highway": "bus_stop", "lit": "yes", "name": "U Lindauer Allee", "public_transport": "platform", "shelter": "yes", "tactile_paving": "no"}}, {"type": "node", "id": 247560407, "lat": 52.5793491, "lon": 13.3334673, "tags": {"bench": "yes", "bin": "yes", "highway": "bus_stop", "lit": "yes", "name": "S+U Karl-Bonhoeffer-Nervenklinik", "shelter": "yes", "tactile_paving": "no"}}, {"type": "node", "id": 249202158, "lat": 52.5791133, "lon": 13.3088746, "tags": {"bench": "yes", "bin": "yes", "highway": "bus_stop", "lit": "yes", "name": "Innungsstraße", "shelter": "yes", "tactile_paving": "no"}}, {"type": "node", "id": 249202159, "lat": 52.5815915, "lon": 13.3048887, "tags": {"bench": "no", "bin": "no", "bus": "yes", "highway": "bus_stop", "lit": "no", "name": "Holzhauser Straße/Schubartstraße", "public_transport": "platform", "shelter": "no", "tactile_paving": "no"}}, {"type": "node", "id": 249202160, "lat": 52.5841438, "lon": 13.3025046, "tags": {"bench": "yes", "bin": "yes", "bus": "yes", "highway": "bus_stop", "lit": "yes", "name": "Schubartstraße/Ernststraße", "public_transport": "platform", "shelter": "yes", "tactile_paving": "yes", "wheelchair": "yes"}}, {"type": "node", "id": 249358913, "lat": 52.5840935, "lon": 13.3096501, "tags": {"bench": "yes", "bin": "yes", "check_date:shelter": "2023-07-16", "highway": "bus_stop", "lit": "no", "name": "Miraustraße", "shelter": "yes", "tactile_paving": "yes"}}, {"type": "node", "id": 249390126, "lat": 52.5884912, "lon": 13.2884033, "tags": {"bench": "yes", "bin": "no", "bus": "yes", "highway": "bus_stop", "lit": "yes", "name": "S Tegel", "public_transport": "platform", "shelter": "yes", "tactile_paving": "yes"}}, {"type": "node", "id": 254500062, "lat": 52.520028, "lon": 13.3555091, "tags": {"bench": "no", "bin": "yes", "highway": "bus_stop", "lit": "yes", "name": "Paulstraße", "shelter": "no", "tactile_paving": "no"}}, {"type": "node", "id": 254500065, "lat": 52.5267631, "lon": 13.3546559, "tags": {"bench": "yes", "bin": "yes", "bus": "yes", "highway": "bus_stop", "lit": "yes", "name": "Kriminalgericht Moabit", "public_transport": "platform", "shelter": "yes", "tactile_paving": "no", "wheelchair": "yes"}}, {"type": "node", "id": 259157830, "lat": 52.6342264, "lon": 13.4971975, "tags": {"bench": "no", "bin": "yes", "highway": "bus_stop", "lit": "no", "name": "Alt-Buch/Wiltbergstraße", "shelter": "no", "tactile_paving": "yes"}}, {"type": "node", "id": 259157831, "lat": 52.6345649, "lon": 13.4971351, "tags": {"bench": "yes", "bin": "yes", "bus": "yes", "highway": "bus_stop", "lit": "no", "name": "Alt-Buch/Wiltbergstraße", "public_transport": "platform", "shelter": "yes", "tactile_paving": "yes"}}, {"type": "node", "id": 259157832, "lat": 52.6309676, "lon": 13.4993301, "tags": {"bench": "yes", "bin": "yes", "bus": "yes", "highway": "bus_stop", "lit": "no", "name": "Theodor-Brugsch-Straße", "public_transport": "platform", "shelter": "yes", "tactile_paving": "no"}}, {"type": "node", "id": 259157833, "lat": 52.6300355, "lon": 13.4990918, "tags": {"bench": "yes", "bin": "yes", "bus": "yes", "highway": "bus_stop", "lit": "no", "name": "Theodor-Brugsch-Straße", "public_transport": "platform", "shelter": "yes", "tactile_paving": "no"}}, {"type": "node", "id": 259606897, "lat": 52.5383386, "lon": 13.2008101, "tags": {"bench": "yes", "bin": "yes", "bus": "yes", "flag": "yes", "highway": "bus_stop", "lit": "yes", "name": "Moritzstraße", "public_transport": "platform", "shelter": "yes", "tactile_paving": "yes", "wheelchair": "yes"}}, {"type": "node", "id": 259607454, "lat": 52.5356604, "lon": 13.1997152, "tags": {"bench": "yes", "bin": "yes", "highway": "bus_stop", "lit": "yes", "name": "S+U Rathaus Spandau", "shelter": "yes", "tactile_paving": "no"}}, {"type": "node", "id": 259607859, "lat": 52.5421261, "lon": 13.2061944, "tags": {"bench": "yes", "bin": "yes", "bus": "yes", "highway": "bus_stop", "lit": "yes", "name": "Wröhmännerpark", "public_transport": "platform", "shelter": "yes", "tactile_paving": "yes"}}, {"type": "node", "id": 259608004, "lat": 52.5419316, "lon": 13.2055836, "tags": {"bench": "yes", "bin": "yes", "bus": "yes", "check_date:shelter": "2023-11-30", "highway": "bus_stop", "lit": "yes", "name": "Wröhmännerpark", "public_transport": "platform", "shelter": "no", "tactile_paving": "no"}}, {"type": "node", "id": 259608024, "lat": 52.5450261, "lon": 13.2076508, "tags": {"bench": "yes", "bin": "yes", "bus": "yes", "bus_route": "L136, L236", "highway": "bus_stop", "lit": "yes", "name": "Kirchhofstraße", "public_transport": "platform", "shelter": "yes", "tactile_paving": "yes", "wheelchair": "yes"}}, {"type": "node", "id": 259608045, "lat": 52.5455615, "lon": 13.2085052, "tags": {"bench": "yes", "bin": "yes", "bus": "yes", "bus_route": "L136, L236", "check_date:shelter": "2023-07-21", "highway": "bus_stop", "lit": "yes", "name": "Kirchhofstraße", "public_transport": "platform", "shelter": "yes", "tactile_paving": "yes", "wheelchair": "yes"}}, {"type": "node", "id": 259609022, "lat": 52.5482516, "lon": 13.2010101, "tags": {"bench": "yes", "bin": "yes", "bus": "yes", "highway": "bus_stop", "lit": "yes", "name": "Hügelschanze", "public_transport": "platform", "shelter": "yes", "tactile_paving": "no"}}, {"type": "node", "id": 259609041, "lat": 52.5488676, "lon": 13.2006156, "tags": {"bench": "no", "bin": "yes", "bus": "yes", "highway": "bus_stop", "name": "Hügelschanze", "public_transport": "platform", "shelter": "no"}}, {"type": "node", "id": 259609100, "lat": 52.5450761, "lon": 13.2040721, "tags": {"bench": "no", "bus": "yes", "highway": "bus_stop", "name": "Predigergarten", "public_transport": "platform", "shelter": "no"}}, {"type": "node", "id": 259609124, "lat": 52.5454684, "lon": 13.203384, "tags": {"bench": "no", "bus": "yes", "highway": "bus_stop", "name": "Predigergarten", "public_transport": "platform", "shelter": "no"}}, {"type": "node", "id": 260589029, "lat": 52.5353118, "lon": 13.1243028, "tags": {"bench": "no", "bin": "yes", "bus": "yes", "highway": "bus_stop", "lit": "yes", "name": "Brunsbütteler Damm/Stadtgrenze", "passenger_information_display": "no", "public_transport": "stop_position", "ref:BVG": "105757", "ref_name": "Brunsbütteler Damm/Stadtgrenze, Berlin", "shelter": "no", "tactile_paving": "no", "website": "https://qr.bvg.de/h105757"}}, {"type": "node", "id": 261744064, "lat": 52.5271838, "lon": 13.3296429, "tags": {"bench": "yes", "bin": "yes", "highway": "bus_stop", "lit": "yes", "name": "Turmstraße/Beusselstraße", "note": "M27;TXL;123;106", "shelter": "yes", "tactile_paving": "yes", "wheelchair": "yes"}}, {"type": "node", "id": 261744735, "lat": 52.5279396, "lon": 13.3288063, "tags": {"bench": "yes", "bin": "yes", "highway": "bus_stop", "lit": "yes", "name": "Turmstraße/Beusselstraße", "shelter": "yes", "tactile_paving": "no", "wheelchair": "yes"}}, {"type": "node", "id": 261745103, "lat": 52.5238323, "lon": 13.3306885, "tags": {"bench": "yes", "bin": "yes", "highway": "bus_stop", "lit": "yes", "name": "Gotzkowskystraße", "shelter": "yes", "tactile_paving": "no", "wheelchair": "yes"}}, {"type": "node", "id": 261745174, "lat": 52.524059, "lon": 13.3309756, "tags": {"bench": "yes", "bin": "yes", "highway": "bus_stop", "lit": "yes", "name": "Gotzkowskystraße", "shelter": "yes", "tactile_paving": "no", "wheelchair": "yes"}}, {"type": "node", "id": 261745198, "lat": 52.5242043, "lon": 13.3299224, "tags": {"bench": "yes", "bin": "yes", "highway": "bus_stop", "lit": "yes", "name": "Alt-Moabit/Gotzkowskystraße", "route_ref": "101;106;N26", "shelter": "yes", "tactile_paving": "no", "wheelchair": "yes"}}, {"type": "node", "id": 267850654, "lat": 52.5241593, "lon": 13.3296893, "tags": {"bench": "yes", "bin": "yes", "highway": "bus_stop", "lit": "yes", "name": "Alt-Moabit/Gotzkowskystraße", "shelter": "yes", "tactile_paving": "no", "wheelchair": "yes"}}, {"type": "node", "id": 268223974, "lat": 52.5097428, "lon": 13.5245834, "tags": {"bench": "yes", "bin": "yes", "highway": "bus_stop", "lit": "yes", "name": "Alt-Friedrichsfelde 60", "shelter": "yes", "tactile_paving": "yes"}}, {"type": "node", "id": 268660300, "lat": 52.6194992, "lon": 13.2388485, "tags": {"bench": "yes", "bin": "yes", "highway": "bus_stop", "lit": "yes", "name": "Kiefheider Weg", "shelter": "yes", "tactile_paving": "yes"}}, {"type": "node", "id": 268660394, "lat": 52.6136421, "lon": 13.2461728, "tags": {"bench": "yes", "bin": "yes", "highway": "bus_stop", "name": "S Schulzendorf", "shelter": "yes", "tactile_paving": "no"}}, {"type": "node", "id": 268660426, "lat": 52.6109173, "lon": 13.2528105, "tags": {"bench": "yes", "bin": "yes", "bus": "yes", "highway": "bus_stop", "name": "Diakoniezentrum Heiligensee", "public_transport": "platform", "shelter": "yes"}}, {"type": "node", "id": 268787855, "lat": 52.6222995, "lon": 13.2340084, "tags": {"bench": "yes", "bin": "yes", "highway": "bus_stop", "lit": "yes", "name": "Ziegenorter Pfad", "shelter": "yes", "tactile_paving": "yes"}}, {"type": "node", "id": 268789114, "lat": 52.6227375, "lon": 13.224512, "tags": {"bench": "yes", "bin": "yes", "highway": "bus_stop", "lit": "yes", "name": "Krantorweg", "shelter": "no", "tactile_paving": "yes"}}, {"type": "node", "id": 268834517, "lat": 52.6065376, "lon": 13.2103699, "tags": {"bus": "yes", "highway": "bus_stop", "name": "Dorfaue Heiligensee", "public_transport": "platform", "shelter": "no"}}, {"type": "node", "id": 268834629, "lat": 52.6065762, "lon": 13.2119298, "tags": {"bench": "yes", "bin": "yes", "highway": "bus_stop", "lit": "yes", "name": "Alt-Heiligensee", "shelter": "yes", "tactile_paving": "no"}}, {"type": "node", "id": 268835749, "lat": 52.6114607, "lon": 13.2171577, "tags": {"bench": "no", "bin": "yes", "highway": "bus_stop", "lit": "no", "name": "Heiligenseestraße/Hennigsdorfer Straße", "shelter": "no", "tactile_paving": "yes"}}, {"type": "node", "id": 268835952, "lat": 52.6144189, "lon": 13.218871, "tags": {"bench": "yes", "bin": "yes", "highway": "bus_stop", "lit": "yes", "name": "Schönbaumer Weg", "shelter": "yes", "tactile_paving": "yes"}}, {"type": "node", "id": 268836181, "lat": 52.6171623, "lon": 13.2207321, "tags": {"bench": "yes", "bin": "yes", "highway": "bus_stop", "lit": "no", "name": "Mattenbuder Pfad", "shelter": "yes", "tactile_paving": "yes"}}, {"type": "node", "id": 268836328, "lat": 52.6199865, "lon": 13.2227108, "tags": {"bench": "yes", "bin": "yes", "highway": "bus_stop", "lit": "yes", "name": "Kurzebracker Weg", "shelter": "yes", "tactile_paving": "yes"}}, {"type": "node", "id": 268837710, "lat": 52.6048762, "lon": 13.2695163, "tags": {"bus": "yes", "highway": "bus_stop", "name": "Forstamt Tegel", "public_transport": "platform"}}, {"type": "node", "id": 268839997, "lat": 52.5983723, "lon": 13.2748423, "tags": {"bench": "no", "bin": "yes", "highway": "bus_stop", "lit": "no", "name": "Heiligenseestraße/Ruppiner Chaussee", "shelter": "no", "tactile_paving": "no"}}, {"type": "node", "id": 270737264, "lat": 52.5277778, "lon": 13.3244398, "tags": {"bench": "yes", "bin": "yes", "highway": "bus_stop", "lit": "yes", "name": "Reuchlinstraße", "note": "M27", "shelter": "yes", "tactile_paving": "yes"}}, {"type": "node", "id": 270737265, "lat": 52.5280449, "lon": 13.3233716, "tags": {"bench": "yes", "bin": "yes", "highway": "bus_stop", "lit": "yes", "name": "Reuchlinstraße", "note": "M27", "shelter": "yes", "tactile_paving": "yes"}}, {"type": "node", "id": 270737268, "lat": 52.5284174, "lon": 13.3198902, "tags": {"bench": "yes", "bin": "yes", "highway": "bus_stop", "lit": "yes", "name": "Wiebestraße/Huttenstraße", "note": "M27", "shelter": "yes", "tactile_paving": "yes", "wheelchair": "yes"}}, {"type": "node", "id": 270737270, "lat": 52.5282134, "lon": 13.3201729, "tags": {"bench": "yes", "bin": "yes", "highway": "bus_stop", "lit": "yes", "name": "Wiebestraße/Huttenstraße", "note": "M27", "shelter": "yes", "tactile_paving": "yes", "wheelchair": "yes"}}, {"type": "node", "id": 270737272, "lat": 52.5295562, "lon": 13.3150835, "tags": {"bench": "yes", "bin": "yes", "highway": "bus_stop", "lit": "yes", "name": "Neues Ufer", "note": "M27", "shelter": "yes", "source": "survey", "tactile_paving": "yes", "wheelchair": "yes"}}, {"type": "node", "id": 270737274, "lat": 52.5290463, "lon": 13.316046, "tags": {"bench": "yes", "bin": "yes", "highway": "bus_stop", "lit": "yes", "name": "Neues Ufer", "note": "M27", "shelter": "yes", "source": "survey", "tactile_paving": "yes", "wheelchair": "yes"}}, {"type": "node", "id": 270792948, "lat": 52.5620134, "lon": 13.3596021, "tags": {"bench": "no", "bin": "no", "highway": "bus_stop", "lit": "no", "name": "Brienzer Straße", "operator": "Berliner Verkehrsbetriebe", "shelter": "no", "tactile_paving": "no", "wheelchair": "yes"}}, {"type": "node", "id": 271296143, "lat": 52.5209215, "lon": 13.4061585, "tags": {"bench": "yes", "bin": "yes", "check_date:shelter": "2023-12-24", "highway": "bus_stop", "lit": "yes", "name": "Spandauer Straße/Marienkirche", "shelter": "yes", "tactile_paving": "no"}}, {"type": "node", "id": 271411051, "lat": 52.4889363, "lon": 13.2596163, "tags": {"bench": "yes", "bin": "yes", "highway": "bus_stop", "lit": "yes", "name": "S Grunewald", "shelter": "yes", "tactile_paving": "no"}}, {"type": "node", "id": 271411052, "lat": 52.4917285, "lon": 13.263392, "tags": {"bench": "no", "bin": "no", "highway": "bus_stop", "lit": "no", "name": "Alte Allee", "shelter": "no", "tactile_paving": "no"}}, {"type": "node", "id": 271411053, "lat": 52.4919813, "lon": 13.2635363, "tags": {"bench": "no", "bin": "no", "highway": "bus_stop", "lit": "yes", "name": "Alte Allee", "shelter": "no", "tactile_paving": "no"}}, {"type": "node", "id": 271411054, "lat": 52.4932064, "lon": 13.265256, "tags": {"bench": "no", "bin": "yes", "highway": "bus_stop", "lit": "yes", "name": "Kiefernweg", "shelter": "no", "tactile_paving": "no"}}, {"type": "node", "id": 271411055, "lat": 52.4934897, "lon": 13.2654429, "tags": {"bench": "no", "bin": "no", "highway": "bus_stop", "lit": "no", "name": "Kiefernweg", "shelter": "no", "tactile_paving": "no"}}, {"type": "node", "id": 271411056, "lat": 52.4944279, "lon": 13.266798, "tags": {"bench": "no", "bin": "no", "highway": "bus_stop", "lit": "no", "name": "Maikäferpfad", "shelter": "no", "tactile_paving": "no"}}, {"type": "node", "id": 271411057, "lat": 52.4946289, "lon": 13.2668912, "tags": {"bench": "no", "bin": "no", "highway": "bus_stop", "lit": "no", "name": "Maikäferpfad", "shelter": "no", "tactile_paving": "no"}}, {"type": "node", "id": 271411059, "lat": 52.4969937, "lon": 13.2700806, "tags": {"bench": "no", "bin": "no", "highway": "bus_stop", "lit": "no", "name": "S Messe Süd", "shelter": "no", "tactile_paving": "no"}}, {"type": "node", "id": 271411060, "lat": 52.4996483, "lon": 13.2730752, "tags": {"bench": "yes", "bin": "yes", "bus": "yes", "highway": "bus_stop", "lit": "yes", "name": "Jafféstraße", "public_transport": "platform", "shelter": "yes", "tactile_paving": "no"}}, {"type": "node", "id": 271411061, "lat": 52.4996441, "lon": 13.2733943, "tags": {"bus": "yes", "highway": "bus_stop", "name": "Jafféstraße", "public_transport": "platform"}}, {"type": "node", "id": 271411062, "lat": 52.5011555, "lon": 13.2752838, "tags": {"bench": "yes", "bin": "yes", "bus": "yes", "highway": "bus_stop", "name": "Messegelände/Verwaltung", "public_transport": "platform", "shelter": "yes", "tactile_paving": "no"}}, {"type": "node", "id": 271411063, "lat": 52.5012328, "lon": 13.2750822, "tags": {"bench": "yes", "bin": "no", "bus": "yes", "highway": "bus_stop", "name": "Messegelände/Verwaltung", "public_transport": "platform", "shelter": "yes", "tactile_paving": "no"}}, {"type": "node", "id": 271411064, "lat": 52.5044754, "lon": 13.2797314, "tags": {"bench": "no", "bin": "yes", "highway": "bus_stop", "lit": "yes", "name": "Messegelände/ICC", "shelter": "no", "tactile_paving": "no"}}, {"type": "node", "id": 271411065, "lat": 52.5044802, "lon": 13.2792342, "tags": {"bench": "yes", "bin": "yes", "highway": "bus_stop", "lit": "yes", "name": "Messegelände/ICC", "shelter": "yes", "tactile_paving": "no"}}, {"type": "node", "id": 271419826, "lat": 52.5106334, "lon": 13.2815083, "tags": {"bench": "no", "bin": "yes", "highway": "bus_stop", "lit": "yes", "name": "U Kaiserdamm", "shelter": "no", "tactile_paving": "no", "wheelchair": "no"}}, {"type": "node", "id": 271419827, "lat": 52.5104436, "lon": 13.2819496, "tags": {"bench": "no", "bin": "yes", "highway": "bus_stop", "lit": "yes", "name": "U Kaiserdamm", "shelter": "no", "tactile_paving": "no", "wheelchair": "no"}}, {"type": "node", "id": 271419829, "lat": 52.5136938, "lon": 13.2965759, "tags": {"bench": "yes", "bin": "yes", "highway": "bus_stop", "lit": "yes", "name": "Zillestraße", "note": "309", "shelter": "yes", "tactile_paving": "no"}}, {"type": "node", "id": 271419830, "lat": 52.5129141, "lon": 13.2971338, "tags": {"bench": "yes", "bin": "yes", "highway": "bus_stop", "lit": "yes", "name": "Zillestraße", "note": "309", "shelter": "yes", "tactile_paving": "no"}}, {"type": "node", "id": 271419831, "lat": 52.5167307, "lon": 13.2966915, "tags": {"bench": "no", "bin": "yes", "bus": "yes", "highway": "bus_stop", "lit": "yes", "name": "Seelingstraße", "note": "309", "public_transport": "platform", "shelter": "no", "tactile_paving": "no"}}, {"type": "node", "id": 271419833, "lat": 52.5157314, "lon": 13.2962427, "tags": {"bench": "no", "bin": "yes", "highway": "bus_stop", "lit": "yes", "name": "Seelingstraße", "note": "309", "shelter": "no", "tactile_paving": "no"}}, {"type": "node", "id": 271419834, "lat": 52.5188255, "lon": 13.2963489, "tags": {"bench": "no", "bin": "yes", "bus": "yes", "highway": "bus_stop", "lit": "yes", "name": "Schloss Charlottenburg", "public_transport": "platform", "shelter": "no", "tactile_paving": "no"}}, {"type": "node", "id": 271419836, "lat": 52.520074, "lon": 13.299687, "tags": {"bench": "yes", "bin": "yes", "bus": "yes", "highway": "bus_stop", "lit": "yes", "name": "Luisenplatz/Schloss Charlottenburg", "public_transport": "platform", "shelter": "yes", "tactile_paving": "yes", "wheelchair": "yes"}}, {"type": "node", "id": 271419837, "lat": 52.5191609, "lon": 13.2995082, "tags": {"bench": "yes", "bin": "yes", "bus": "yes", "highway": "bus_stop", "lit": "yes", "name": "Luisenplatz/Schloss Charlottenburg", "note": "109", "public_transport": "platform", "shelter": "yes", "tactile_paving": "yes"}}, {"type": "node", "id": 271419838, "lat": 52.5257923, "lon": 13.3051131, "tags": {"bench": "no", "bin": "yes", "bus": "yes", "highway": "bus_stop", "lit": "yes", "name": "U Mierendorffplatz", "public_transport": "platform", "shelter": "no", "tactile_paving": "no"}}, {"type": "node", "id": 271419839, "lat": 52.5260178, "lon": 13.3059, "tags": {"bench": "no", "bin": "yes", "bus": "yes", "highway": "bus_stop", "lit": "yes", "name": "U Mierendorffplatz", "public_transport": "platform", "shelter": "no", "tactile_paving": "no"}}, {"type": "node", "id": 271419841, "lat": 52.5256566, "lon": 13.3094876, "tags": {"bench": "yes", "bin": "yes", "highway": "bus_stop", "lit": "yes", "name": "Ilsenburger Straße", "note": "M27", "shelter": "yes", "tactile_paving": "no"}}, {"type": "node", "id": 271419842, "lat": 52.5258343, "lon": 13.310306, "tags": {"bench": "no", "bin": "yes", "highway": "bus_stop", "lit": "yes", "name": "Ilsenburger Straße", "note": "M27", "shelter": "no", "tactile_paving": "no"}}, {"type": "node", "id": 271419843, "lat": 52.5258442, "lon": 13.314219, "tags": {"bench": "yes", "bin": "yes", "check_date:shelter": "2023-12-07", "highway": "bus_stop", "lit": "yes", "name": "Goslarer Platz", "note": "M27", "shelter": "yes", "tactile_paving": "no"}}, {"type": "node", "id": 271419844, "lat": 52.5256956, "lon": 13.3142951, "tags": {"bench": "yes", "bin": "yes", "check_date:shelter": "2023-12-07", "highway": "bus_stop", "lit": "yes", "name": "Goslarer Platz", "note": "M27", "shelter": "yes", "tactile_paving": "no"}}, {"type": "node", "id": 271878787, "lat": 52.4580086, "lon": 13.2998613, "tags": {"bench": "no", "bin": "yes", "bus": "yes", "highway": "bus_stop", "lit": "yes", "name": "Arnimallee", "public_transport": "platform", "shelter": "no", "tactile_paving": "no"}}, {"type": "node", "id": 271878802, "lat": 52.4577951, "lon": 13.2993127, "tags": {"bench": "yes", "bin": "yes", "bus": "yes", "highway": "bus_stop", "lit": "yes", "name": "Arnimallee", "public_transport": "platform", "shelter": "yes", "tactile_paving": "no"}}, {"type": "node", "id": 271977443, "lat": 52.5282797, "lon": 13.3050058, "tags": {"bench": "yes", "bin": "yes", "bus": "yes", "highway": "bus_stop", "lit": "yes", "name": "Keplerstraße", "public_transport": "platform", "shelter": "no", "tactile_paving": "no"}}, {"type": "node", "id": 271977445, "lat": 52.5294624, "lon": 13.3006208, "tags": {"bench": "no", "bin": "yes", "bus": "yes", "highway": "bus_stop", "lit": "no", "name": "S+U Jungfernheide", "public_transport": "platform", "shelter": "no", "tactile_paving": "no"}}, {"type": "node", "id": 272364542, "lat": 52.5176705, "lon": 13.3765218, "tags": {"bench": "yes", "bin": "yes", "check_date:shelter": "2021-05-29", "highway": "bus_stop", "lit": "yes", "name": "Reichstag/Bundestag", "shelter": "yes", "tactile_paving": "yes", "wheelchair": "yes"}}, {"type": "node", "id": 272409455, "lat": 52.5168441, "lon": 13.3896531, "tags": {"bench": "yes", "bin": "yes", "bus": "yes", "highway": "bus_stop", "lit": "yes", "name": "U Unter den Linden", "public_transport": "platform", "shelter": "yes", "tactile_paving": "yes"}}, {"type": "node", "id": 272418457, "lat": 52.5075478, "lon": 13.3487971, "tags": {"bench": "yes", "bin": "yes", "highway": "bus_stop", "lit": "yes", "name": "Corneliusbrücke", "shelter": "yes", "tactile_paving": "no"}}, {"type": "node", "id": 272418849, "lat": 52.5076011, "lon": 13.3484038, "tags": {"bench": "yes", "bin": "yes", "highway": "bus_stop", "lit": "yes", "name": "Corneliusbrücke", "shelter": "yes", "tactile_paving": "no"}}, {"type": "node", "id": 272436770, "lat": 52.5095469, "lon": 13.3785442, "tags": {"bench": "yes", "bin": "yes", "highway": "bus_stop", "lit": "yes", "name": "S+U Potsdamer Platz", "shelter": "yes", "tactile_paving": "yes", "wheelchair": "yes"}}, {"type": "node", "id": 272437495, "lat": 52.5097063, "lon": 13.378099, "tags": {"bench": "yes", "bin": "yes", "highway": "bus_stop", "lit": "yes", "name": "S+U Potsdamer Platz", "shelter": "yes", "tactile_paving": "yes"}}, {"type": "node", "id": 273176511, "lat": 52.5028753, "lon": 13.3490711, "tags": {"bench": "yes", "bin": "yes", "highway": "bus_stop", "lit": "yes", "name": "Schillstraße", "shelter": "yes", "tactile_paving": "no"}}, {"type": "node", "id": 273176591, "lat": 52.5027486, "lon": 13.3499726, "tags": {"bench": "yes", "bin": "yes", "highway": "bus_stop", "lit": "yes", "name": "Schillstraße", "shelter": "yes", "tactile_paving": "no", "wheelchair": "yes"}}, {"type": "node", "id": 273819998, "lat": 52.4621056, "lon": 13.3391804, "tags": {"bench": "yes", "bin": "yes", "highway": "bus_stop", "lit": "yes", "name": "Lauenburger Platz", "shelter": "yes", "tactile_paving": "no", "wheelchair": "yes"}}, {"type": "node", "id": 273829784, "lat": 52.4614881, "lon": 13.3394208, "tags": {"bench": "yes", "bin": "yes", "highway": "bus_stop", "lit": "yes", "name": "Lauenburger Platz", "shelter": "yes", "tactile_paving": "no"}}, {"type": "node", "id": 273830299, "lat": 52.461481, "lon": 13.3451511, "tags": {"bench": "no", "bin": "yes", "highway": "bus_stop", "lit": "yes", "name": "Auguste-Viktoria-Klinikum Süd", "shelter": "no", "tactile_paving": "no"}}, {"type": "node", "id": 273831234, "lat": 52.4641741, "lon": 13.339052, "tags": {"bench": "yes", "bin": "yes", "highway": "bus_stop", "lit": "yes", "name": "Knausplatz", "shelter": "yes", "tactile_paving": "no"}}, {"type": "node", "id": 273831440, "lat": 52.4646077, "lon": 13.3394034, "tags": {"bench": "yes", "bin": "yes", "highway": "bus_stop", "lit": "yes", "name": "Knausplatz", "shelter": "yes", "tactile_paving": "no"}}, {"type": "node", "id": 273831924, "lat": 52.4644347, "lon": 13.3385517, "tags": {"bench": "yes", "bin": "yes", "highway": "bus_stop", "lit": "yes", "name": "Knausplatz", "shelter": "no", "tactile_paving": "yes"}}, {"type": "node", "id": 274109535, "lat": 52.4794912, "lon": 13.3608141, "tags": {"bench": "yes", "bin": "no", "bus": "yes", "highway": "bus_stop", "lit": "yes", "name": "Torgauer Straße", "public_transport": "platform", "shelter": "yes", "tactile_paving": "yes"}}, {"type": "node", "id": 274109536, "lat": 52.4791884, "lon": 13.3620193, "tags": {"bench": "no", "bus": "yes", "highway": "bus_stop", "lit": "yes", "name": "Torgauer Straße", "public_transport": "platform", "shelter": "no", "tactile_paving": "no"}}, {"type": "node", "id": 274113448, "lat": 52.4812162, "lon": 13.3614881, "tags": {"bench": "no", "bin": "no", "bus": "yes", "highway": "bus_stop", "lit": "no", "name": "Leuthener Straße", "public_transport": "platform", "shelter": "no", "tactile_paving": "no"}}, {"type": "node", "id": 274113454, "lat": 52.4833539, "lon": 13.3615308, "tags": {"bench": "no", "bin": "no", "bus": "yes", "highway": "bus_stop", "lit": "yes", "name": "Gustav-Müller-Platz", "public_transport": "platform", "shelter": "no", "tactile_paving": "no"}}, {"type": "node", "id": 274113455, "lat": 52.4838429, "lon": 13.3613433, "tags": {"bench": "no", "bin": "yes", "bus": "yes", "highway": "bus_stop", "lit": "yes", "name": "Gustav-Müller-Platz", "public_transport": "platform", "shelter": "no", "tactile_paving": "no"}}, {"type": "node", "id": 274113456, "lat": 52.4863599, "lon": 13.3608059, "tags": {"bench": "no", "bin": "yes", "highway": "bus_stop", "lit": "yes", "name": "S Julius-Leber-Brücke", "network": "Verkehrsverbund Berlin-Brandenburg", "operator": "Berliner Verkehrsbetriebe", "shelter": "yes", "tactile_paving": "yes", "toilets:wheelchair": "no", "wheelchair": "yes"}}, {"type": "node", "id": 274113458, "lat": 52.4859845, "lon": 13.3611154, "tags": {"bench": "yes", "bin": "yes", "bus": "yes", "highway": "bus_stop", "lit": "yes", "name": "S Julius-Leber-Brücke", "network": "Verkehrsverbund Berlin-Brandenburg", "network:short": "VBB", "network:wikidata": "Q315451", "network:wikipedia": "de:Verkehrsverbund Berlin-Brandenburg", "operator": "Berliner Verkehrsbetriebe", "public_transport": "platform", "shelter": "yes", "tactile_paving": "yes", "wheelchair": "yes"}}, {"type": "node", "id": 274115099, "lat": 52.4850213, "lon": 13.3651679, "tags": {"bench": "yes", "bin": "yes", "highway": "bus_stop", "lit": "yes", "name": "Hohenfriedbergstraße", "shelter": "yes", "tactile_paving": "no"}}, {"type": "node", "id": 274115102, "lat": 52.4849942, "lon": 13.3675072, "tags": {"bench": "yes", "bin": "yes", "highway": "bus_stop", "lit": "yes", "name": "Kesselsdorfstraße", "shelter": "yes", "tactile_paving": "no"}}, {"type": "node", "id": 274115104, "lat": 52.4851741, "lon": 13.3682465, "tags": {"bench": "no", "bin": "yes", "highway": "bus_stop", "lit": "yes", "name": "Kesselsdorfstraße", "shelter": "no", "tactile_paving": "no"}}, {"type": "node", "id": 274115105, "lat": 52.481454, "lon": 13.3606104, "tags": {"bench": "no", "bin": "no", "bus": "yes", "highway": "bus_stop", "lit": "no", "name": "Leuthener Straße", "public_transport": "platform", "shelter": "no", "tactile_paving": "no"}}, {"type": "node", "id": 274280680, "lat": 52.4693253, "lon": 13.4415705, "tags": {"bench": "no", "bin": "yes", "bus": "yes", "highway": "bus_stop", "lit": "yes", "name": "S+U Neukölln", "public_transport": "platform", "shelter": "no", "tactile_paving": "yes"}}, {"type": "node", "id": 274954362, "lat": 52.5763977, "lon": 13.5755862, "tags": {"bench": "no", "bin": "yes", "highway": "bus_stop", "lit": "yes", "name": "Kirche", "shelter": "no", "tactile_paving": "no"}}, {"type": "node", "id": 275384821, "lat": 52.4391675, "lon": 13.5928081, "tags": {"bench": "yes", "bin": "yes", "highway": "bus_stop", "lit": "yes", "name": "Krankenhaus Köpenick/Südseite", "shelter": "yes", "tactile_paving": "yes"}}, {"type": "node", "id": 275422713, "lat": 52.4957652, "lon": 13.3664991, "tags": {"bench": "yes", "bin": "no", "highway": "bus_stop", "lit": "no", "name": "Dennewitzplatz", "shelter": "yes", "tactile_paving": "yes"}}, {"type": "node", "id": 275541053, "lat": 52.6644164, "lon": 13.5251411, "tags": {"bench": "no", "bin": "yes", "bus": "yes", "check_date:shelter": "2023-09-16", "highway": "bus_stop", "lit": "no", "name": "Holbeinstraße", "public_transport": "platform", "shelter": "no", "tactile_paving": "no", "wheelchair": "yes"}}, {"type": "node", "id": 277023067, "lat": 52.5088826, "lon": 13.3335572, "tags": {"bench": "no", "bin": "yes", "highway": "bus_stop", "lit": "yes", "name": "Hertzallee", "shelter": "no", "tactile_paving": "no", "wheelchair": "yes"}}, {"type": "node", "id": 277023071, "lat": 52.5092342, "lon": 13.3320918, "tags": {"bench": "no", "bin": "yes", "highway": "bus_stop", "lit": "yes", "name": "Hertzallee", "shelter": "no", "tactile_paving": "no"}}, {"type": "node", "id": 277023078, "lat": 52.5037084, "lon": 13.3301968, "tags": {"bench": "yes", "bin": "yes", "highway": "bus_stop", "lit": "yes", "name": "U Kurfürstendamm", "shelter": "yes", "tactile_paving": "no", "wheelchair": "yes"}}, {"type": "node", "id": 277023088, "lat": 52.5010424, "lon": 13.3310665, "tags": {"bench": "no", "bin": "yes", "highway": "bus_stop", "lit": "yes", "name": "Friedrich-Hollaender-Platz", "shelter": "no", "tactile_paving": "no", "wheelchair": "yes"}}, {"type": "node", "id": 277023089, "lat": 52.5005676, "lon": 13.3303367, "tags": {"bench": "no", "bin": "yes", "highway": "bus_stop", "lit": "yes", "name": "Friedrich-Hollaender-Platz", "shelter": "no", "tactile_paving": "no"}}, {"type": "node", "id": 277023090, "lat": 52.5002127, "lon": 13.3259439, "tags": {"bench": "no", "bin": "yes", "highway": "bus_stop", "lit": "yes", "name": "Lietzenburger Straße/Uhlandstraße", "shelter": "no", "tactile_paving": "no"}}, {"type": "node", "id": 277023091, "lat": 52.4999127, "lon": 13.3253153, "tags": {"bench": "no", "bin": "yes", "highway": "bus_stop", "lit": "yes", "name": "Lietzenburger Straße/Uhlandstraße", "shelter": "no", "tactile_paving": "no"}}, {"type": "node", "id": 277023092, "lat": 52.4973209, "lon": 13.3241287, "tags": {"bench": "yes", "bin": "yes", "bus": "yes", "highway": "bus_stop", "lit": "yes", "name": "Pariser Straße", "public_transport": "platform", "shelter": "yes", "tactile_paving": "no"}}, {"type": "node", "id": 277023093, "lat": 52.4977572, "lon": 13.3245243, "tags": {"bench": "yes", "bin": "yes", "highway": "bus_stop", "lit": "yes", "name": "Pariser Straße", "shelter": "yes", "tactile_paving": "no"}}, {"type": "node", "id": 277023094, "lat": 52.4931544, "lon": 13.3233675, "tags": {"bench": "no", "bin": "yes", "highway": "bus_stop", "lit": "yes", "name": "U Hohenzollernplatz", "shelter": "no", "tactile_paving": "no"}}, {"type": "node", "id": 277023095, "lat": 52.4933302, "lon": 13.3237034, "tags": {"bench": "no", "bin": "yes", "highway": "bus_stop", "lit": "yes", "name": "U Hohenzollernplatz", "shelter": "no", "tactile_paving": "no"}}, {"type": "node", "id": 277023104, "lat": 52.4912607, "lon": 13.3230265, "tags": {"bench": "yes", "bin": "no", "highway": "bus_stop", "lit": "yes", "name": "Güntzelstraße/Uhlandstraße", "shelter": "yes", "tactile_paving": "no"}}, {"type": "node", "id": 277023105, "lat": 52.4918118, "lon": 13.3234162, "tags": {"bench": "yes", "bin": "yes", "highway": "bus_stop", "lit": "yes", "name": "Güntzelstraße/Uhlandstraße", "shelter": "yes", "tactile_paving": "no"}}, {"type": "node", "id": 277023106, "lat": 52.4889282, "lon": 13.3226545, "tags": {"bench": "no", "bin": "yes", "highway": "bus_stop", "lit": "yes", "name": "Fechnerstraße", "shelter": "no", "tactile_paving": "yes"}}, {"type": "node", "id": 277023107, "lat": 52.4898677, "lon": 13.3230283, "tags": {"bench": "no", "bin": "yes", "highway": "bus_stop", "lit": "yes", "name": "Fechnerstraße", "shelter": "no", "tactile_paving": "yes"}}, {"type": "node", "id": 277023116, "lat": 52.4819058, "lon": 13.3163121, "tags": {"bench": "yes", "bin": "no", "highway": "bus_stop", "lit": "yes", "name": "Brabanter Platz", "shelter": "yes", "tactile_paving": "no", "toilets:wheelchair": "no", "wheelchair": "yes"}}, {"type": "node", "id": 277023117, "lat": 52.48178, "lon": 13.3152397, "tags": {"bench": "yes", "bin": "yes", "highway": "bus_stop", "lit": "yes", "name": "Brabanter Platz", "shelter": "yes", "tactile_paving": "no", "toilets:wheelchair": "no", "wheelchair": "yes"}}, {"type": "node", "id": 277023118, "lat": 52.4802198, "lon": 13.3121728, "tags": {"bench": "yes", "bin": "yes", "highway": "bus_stop", "lit": "yes", "name": "S+U Heidelberger Platz", "shelter": "yes", "tactile_paving": "no"}}, {"type": "node", "id": 277023119, "lat": 52.4797286, "lon": 13.3118305, "tags": {"bench": "yes", "bin": "yes", "highway": "bus_stop", "lit": "yes", "name": "S+U Heidelberger Platz", "shelter": "yes", "tactile_paving": "yes"}}, {"type": "node", "id": 277023120, "lat": 52.4783774, "lon": 13.3087974, "tags": {"bench": "no", "bin": "yes", "highway": "bus_stop", "lit": "yes", "name": "Mecklenburgische Straße/Binger Straße", "shelter": "no", "tactile_paving": "no"}}, {"type": "node", "id": 277023122, "lat": 52.4754133, "lon": 13.303408, "tags": {"bench": "yes", "bin": "yes", "highway": "bus_stop", "lit": "yes", "name": "Rudolf-Mosse-Platz", "shelter": "yes", "tactile_paving": "no"}}, {"type": "node", "id": 277023123, "lat": 52.4753415, "lon": 13.3037881, "tags": {"bench": "yes", "bin": "yes", "highway": "bus_stop", "lit": "yes", "name": "Rudolf-Mosse-Platz", "shelter": "yes", "tactile_paving": "no"}}, {"type": "node", "id": 277023136, "lat": 52.4734511, "lon": 13.298353, "tags": {"bench": "no", "bin": "yes", "highway": "bus_stop", "lit": "yes", "name": "Zoppoter Straße", "shelter": "no", "tactile_paving": "no"}}, {"type": "node", "id": 277023147, "lat": 52.4731847, "lon": 13.2994032, "tags": {"bench": "yes", "bin": "yes", "highway": "bus_stop", "lit": "yes", "name": "Zoppoter Straße", "shelter": "yes", "tactile_paving": "no"}}, {"type": "node", "id": 277023162, "lat": 52.4743852, "lon": 13.2940586, "tags": {"bench": "no", "bin": "yes", "bus": "yes", "highway": "bus_stop", "lit": "yes", "name": "Schmargendorf Kirche", "public_transport": "platform", "shelter": "no", "tactile_paving": "no"}}, {"type": "node", "id": 277023164, "lat": 52.4738893, "lon": 13.2949167, "tags": {"bench": "yes", "bin": "yes", "bus": "yes", "highway": "bus_stop", "lit": "yes", "name": "Schmargendorf Kirche", "public_transport": "platform", "shelter": "yes", "tactile_paving": "no"}}, {"type": "node", "id": 277025537, "lat": 52.4754466, "lon": 13.2907063, "tags": {"bench": "no", "bin": "yes", "highway": "bus_stop", "lit": "yes", "name": "Berkaer Straße/Breite Straße", "shelter": "no", "tactile_paving": "no"}}, {"type": "node", "id": 277025539, "lat": 52.4750406, "lon": 13.2906955, "tags": {"bench": "yes", "bin": "yes", "highway": "bus_stop", "lit": "yes", "name": "Berkaer Straße/Breite Straße", "shelter": "yes", "tactile_paving": "yes"}}, {"type": "node", "id": 277025541, "lat": 52.4770574, "lon": 13.2884234, "tags": {"bench": "yes", "bin": "yes", "highway": "bus_stop", "lit": "yes", "name": "Rathaus Schmargendorf", "shelter": "yes", "tactile_paving": "no"}}, {"type": "node", "id": 277025543, "lat": 52.4773486, "lon": 13.2877812, "tags": {"bench": "yes", "bin": "yes", "highway": "bus_stop", "name": "Rathaus Schmargendorf", "shelter": "yes"}}, {"type": "node", "id": 277025555, "lat": 52.4792179, "lon": 13.2855943, "tags": {"bench": "no", "bin": "yes", "highway": "bus_stop", "lit": "yes", "name": "Elsterplatz", "shelter": "no", "tactile_paving": "no"}}, {"type": "node", "id": 277025557, "lat": 52.4791828, "lon": 13.2858949, "tags": {"bench": "yes", "bin": "yes", "highway": "bus_stop", "lit": "yes", "name": "Elsterplatz", "shelter": "no", "tactile_paving": "no"}}, {"type": "node", "id": 277025559, "lat": 52.4794202, "lon": 13.2847017, "tags": {"bench": "yes", "bin": "yes", "highway": "bus_stop", "lit": "yes", "name": "Elsterplatz", "shelter": "yes", "tactile_paving": "no"}}, {"type": "node", "id": 277025561, "lat": 52.4763224, "lon": 13.2818069, "tags": {"bench": "no", "bin": "no", "highway": "bus_stop", "lit": "yes", "name": "Roseneck", "shelter": "no", "tactile_paving": "no"}}, {"type": "node", "id": 278132031, "lat": 52.5388939, "lon": 13.2006478, "tags": {"bench": "no", "bin": "yes", "bus": "yes", "highway": "bus_stop", "lit": "yes", "name": "Moritzstraße", "public_transport": "platform", "shelter": "yes", "tactile_paving": "yes", "wheelchair": "yes"}}, {"type": "node", "id": 280524861, "lat": 52.5383542, "lon": 13.7007234, "tags": {"bench": "yes", "bin": "yes", "bus": "yes", "highway": "bus_stop", "name": "Neuenhagen, Umspannwerk", "public_transport": "platform", "shelter": "yes", "tactile_paving": "no"}}, {"type": "node", "id": 280946151, "lat": 52.4726688, "lon": 13.4283804, "tags": {"bench": "yes", "bin": "yes", "bus": "yes", "highway": "bus_stop", "lit": "yes", "name": "U Leinestraße", "public_transport": "platform", "shelter": "yes", "tactile_paving": "no"}}, {"type": "node", "id": 281388644, "lat": 52.5104014, "lon": 13.4989849, "tags": {"bench": "yes", "bin": "yes", "highway": "bus_stop", "lit": "yes", "name": "S+U Lichtenberg", "shelter": "yes", "tactile_paving": "yes", "wheelchair": "limited"}}, {"type": "node", "id": 282815815, "lat": 52.5112355, "lon": 13.460475, "tags": {"bench": "yes", "bin": "yes", "bus": "yes", "bus_lines": "240;N40", "highway": "bus_stop", "lit": "yes", "name": "Boxhagener Platz", "public_transport": "platform", "shelter": "yes", "tactile_paving": "no"}}, {"type": "node", "id": 282815816, "lat": 52.5112007, "lon": 13.4599363, "tags": {"bench": "no", "bin": "yes", "bus": "yes", "bus_lines": "240;N40", "highway": "bus_stop", "lit": "yes", "name": "Boxhagener Platz", "public_transport": "platform", "shelter": "no", "tactile_paving": "no", "wheelchair": "yes"}}, {"type": "node", "id": 283383080, "lat": 52.4716931, "lon": 13.559035, "tags": {"bench": "yes", "bin": "yes", "highway": "bus_stop", "lit": "yes", "name": "Köpenicker Straße/Innovationspark", "shelter": "yes", "tactile_paving": "no"}}, {"type": "node", "id": 283444057, "lat": 52.5243736, "lon": 13.3337569, "tags": {"bench": "no", "bin": "yes", "highway": "bus_stop", "lit": "yes", "name": "Ottostraße", "shelter": "no", "tactile_paving": "no"}}, {"type": "node", "id": 283444937, "lat": 52.5248662, "lon": 13.3352473, "tags": {"bench": "yes", "bin": "yes", "highway": "bus_stop", "lit": "yes", "name": "Ottostraße", "shelter": "yes", "tactile_paving": "no"}}, {"type": "node", "id": 283573093, "lat": 52.5158409, "lon": 13.4977702, "tags": {"bench": "yes", "bin": "yes", "highway": "bus_stop", "lit": "yes", "name": "Freiaplatz", "shelter": "yes", "tactile_paving": "no"}}, {"type": "node", "id": 283573321, "lat": 52.5160412, "lon": 13.4988073, "tags": {"bench": "no", "bin": "yes", "highway": "bus_stop", "lit": "yes", "name": "Freiaplatz", "shelter": "no", "tactile_paving": "no"}}, {"type": "node", "id": 285945519, "lat": 52.5155186, "lon": 13.4986624, "tags": {"bench": "no", "bin": "yes", "highway": "bus_stop", "lit": "yes", "name": "Freiaplatz", "shelter": "no", "tactile_paving": "yes"}}, {"type": "node", "id": 288728803, "lat": 52.4992472, "lon": 13.4656563, "tags": {"bench": "yes", "bin": "yes", "highway": "bus_stop", "lit": "yes", "name": "Markgrafendamm", "shelter": "yes", "tactile_paving": "yes"}}, {"type": "node", "id": 288905899, "lat": 52.5023568, "lon": 13.3417324, "tags": {"bench": "no", "bin": "yes", "highway": "bus_stop", "lit": "yes", "name": "U Wittenbergplatz", "shelter": "no", "tactile_paving": "no", "wheelchair": "yes"}}, {"type": "node", "id": 289121559, "lat": 52.4666145, "lon": 13.4641736, "tags": {"bus": "yes", "highway": "bus_stop", "name": "Planetenstraße", "public_transport": "platform"}}, {"type": "node", "id": 289121576, "lat": 52.4671063, "lon": 13.464675, "tags": {"bus": "yes", "highway": "bus_stop", "name": "Planetenstraße", "public_transport": "platform", "shelter": "yes"}}, {"type": "node", "id": 294715387, "lat": 52.4304355, "lon": 13.1610684, "tags": {"highway": "bus_stop", "name": "Zum Heckeshorn", "wheelchair": "yes"}}, {"type": "node", "id": 294793384, "lat": 52.5237337, "lon": 13.2033815, "tags": {"bench": "yes", "bin": "yes", "highway": "bus_stop", "lit": "yes", "name": "Götelstraße", "shelter": "yes", "tactile_paving": "no"}}, {"type": "node", "id": 294793392, "lat": 52.5236549, "lon": 13.2023287, "tags": {"bench": "yes", "bin": "yes", "highway": "bus_stop", "lit": "yes", "name": "Götelstraße", "shelter": "yes", "tactile_paving": "no"}}, {"type": "node", "id": 294796556, "lat": 52.526017, "lon": 13.2070394, "tags": {"bench": "yes", "bin": "yes", "highway": "bus_stop", "lit": "yes", "name": "Tiefwerderweg", "shelter": "yes", "tactile_paving": "no"}}, {"type": "node", "id": 295052222, "lat": 52.6348385, "lon": 13.4969134, "tags": {"bench": "no", "bin": "yes", "bus": "yes", "highway": "bus_stop", "lit": "no", "name": "Alt-Buch/Wiltbergstraße", "public_transport": "platform", "shelter": "no", "tactile_paving": "yes"}}, {"type": "node", "id": 295052225, "lat": 52.6347787, "lon": 13.4974622, "tags": {"bench": "no", "bin": "yes", "bus": "yes", "highway": "bus_stop", "lit": "no", "name": "Alt-Buch/Wiltbergstraße", "public_transport": "platform", "shelter": "no", "tactile_paving": "yes"}}, {"type": "node", "id": 295525827, "lat": 52.500778, "lon": 13.4620723, "tags": {"bench": "yes", "bin": "yes", "highway": "bus_stop", "lit": "yes", "name": "Persiusstraße", "shelter": "yes", "tactile_paving": "no"}}, {"type": "node", "id": 295525828, "lat": 52.5009645, "lon": 13.461767, "tags": {"bench": "yes", "bin": "yes", "highway": "bus_stop", "lit": "yes", "name": "Persiusstraße", "shelter": "yes", "tactile_paving": "no"}}, {"type": "node", "id": 295831527, "lat": 52.562852, "lon": 13.3660279, "tags": {"bench": "yes", "bin": "yes", "highway": "bus_stop", "lit": "yes", "name": "U Franz-Neumann-Platz", "shelter": "yes", "tactile_paving": "no"}}, {"type": "node", "id": 296094695, "lat": 52.5055178, "lon": 13.4318395, "tags": {"bench": "yes", "bin": "yes", "bus": "yes", "highway": "bus_stop", "lit": "yes", "name": "Manteuffelstraße/Köpenicker Straße", "public_transport": "platform", "shelter": "yes", "tactile_paving": "yes"}}, {"type": "node", "id": 296094887, "lat": 52.505859, "lon": 13.4319102, "tags": {"bench": "yes", "bin": "yes", "bus": "yes", "highway": "bus_stop", "lit": "yes", "name": "Manteuffelstraße/Köpenicker Straße", "public_transport": "platform", "shelter": "yes", "tactile_paving": "no"}}, {"type": "node", "id": 296095058, "lat": 52.5072959, "lon": 13.4286162, "tags": {"bench": "yes", "bin": "yes", "bus": "yes", "highway": "bus_stop", "lit": "yes", "name": "Bethaniendamm", "public_transport": "platform", "shelter": "yes", "tactile_paving": "no"}}, {"type": "node", "id": 296095562, "lat": 52.5045527, "lon": 13.4345432, "tags": {"bench": "yes", "bin": "yes", "bus": "yes", "highway": "bus_stop", "lit": "no", "name": "Eisenbahnstraße", "public_transport": "platform", "shelter": "yes", "tactile_paving": "no"}}, {"type": "node", "id": 296095564, "lat": 52.5043971, "lon": 13.4353104, "tags": {"bench": "yes", "bin": "no", "bus": "yes", "highway": "bus_stop", "lit": "no", "name": "Eisenbahnstraße", "public_transport": "platform", "shelter": "yes", "tactile_paving": "no"}}, {"type": "node", "id": 296095755, "lat": 52.5070699, "lon": 13.4286892, "tags": {"bench": "yes", "bin": "yes", "bus": "yes", "highway": "bus_stop", "lit": "yes", "name": "Bethaniendamm", "public_transport": "platform", "shelter": "yes", "tactile_paving": "no"}}, {"type": "node", "id": 296095954, "lat": 52.5055406, "lon": 13.4322489, "tags": {"bench": "yes", "bin": "yes", "bus": "yes", "highway": "bus_stop", "lit": "yes", "name": "Manteuffelstraße/Köpenicker Straße", "public_transport": "platform", "shelter": "yes", "tactile_paving": "no"}}, {"type": "node", "id": 296245482, "lat": 52.4753199, "lon": 13.3396878, "tags": {"bench": "no", "bin": "yes", "highway": "bus_stop", "lit": "yes", "name": "Hähnelstraße", "shelter": "no", "tactile_paving": "no", "wheelchair": "yes"}}, {"type": "node", "id": 296914599, "lat": 52.4107699, "lon": 13.3086275, "tags": {"bench": "yes", "bin": "yes", "bus": "yes", "highway": "bus_stop", "lit": "yes", "name": "S Lichterfelde Süd", "public_transport": "platform", "shelter": "yes", "tactile_paving": "no", "wheelchair": "yes"}}, {"type": "node", "id": 297218589, "lat": 52.5057751, "lon": 13.3249938, "tags": {"bench": "no", "bin": "yes", "highway": "bus_stop", "lit": "yes", "name": "Uhlandstraße/Kantstraße", "shelter": "no", "tactile_paving": "no"}}, {"type": "node", "id": 297218647, "lat": 52.5059519, "lon": 13.3220305, "tags": {"bench": "yes", "bin": "yes", "check_date:shelter": "2021-03-22", "check_date:tactile_paving": "2021-03-22", "highway": "bus_stop", "lit": "yes", "name": "Savignyplatz", "shelter": "yes", "tactile_paving": "no"}}, {"type": "node", "id": 297218709, "lat": 52.5056786, "lon": 13.3227332, "tags": {"bench": "yes", "bin": "yes", "bus": "yes", "highway": "bus_stop", "lit": "yes", "name": "Savignyplatz", "public_transport": "platform", "shelter": "yes", "tactile_paving": "no"}}, {"type": "node", "id": 297219334, "lat": 52.5061732, "lon": 13.3179724, "tags": {"bench": "no", "bin": "yes", "highway": "bus_stop", "lit": "yes", "name": "Schlüterstraße", "shelter": "no", "tactile_paving": "no", "wheelchair": "yes"}}, {"type": "node", "id": 297219393, "lat": 52.5059813, "lon": 13.3172005, "tags": {"bench": "no", "bin": "yes", "highway": "bus_stop", "lit": "yes", "name": "Schlüterstraße", "shelter": "no", "tactile_paving": "no", "wheelchair": "yes"}}, {"type": "node", "id": 297219791, "lat": 52.5063747, "lon": 13.3143528, "tags": {"bench": "no", "bin": "yes", "highway": "bus_stop", "lit": "yes", "name": "Kantstraße/Leibnizstraße", "shelter": "no", "tactile_paving": "no", "wheelchair": "yes"}}, {"type": "node", "id": 297219820, "lat": 52.5061906, "lon": 13.3134805, "tags": {"bench": "no", "bin": "yes", "highway": "bus_stop", "lit": "yes", "name": "Kantstraße/Leibnizstraße", "shelter": "no", "tactile_paving": "no", "wheelchair": "yes"}}, {"type": "node", "id": 297219894, "lat": 52.5065213, "lon": 13.3137792, "tags": {"bench": "no", "bin": "yes", "highway": "bus_stop", "lit": "yes", "name": "Kantstraße/Leibnizstraße", "shelter": "no", "tactile_paving": "yes", "wheelchair": "yes"}}, {"type": "node", "id": 297220032, "lat": 52.5059971, "lon": 13.3139975, "tags": {"bench": "no", "bin": "yes", "highway": "bus_stop", "lit": "yes", "name": "Kantstraße/Leibnizstraße", "shelter": "no", "tactile_paving": "yes", "wheelchair": "yes"}}, {"type": "node", "id": 297222096, "lat": 52.5090834, "lon": 13.3142191, "tags": {"bench": "yes", "bin": "yes", "highway": "bus_stop", "lit": "yes", "name": "Goethestraße", "shelter": "yes", "tactile_paving": "no", "wheelchair": "yes"}}, {"type": "node", "id": 297222110, "lat": 52.5086678, "lon": 13.3143865, "tags": {"bench": "yes", "bin": "yes", "bus": "yes", "departures_board": "realtime", "highway": "bus_stop", "lit": "yes", "name": "Goethestraße", "public_transport": "platform", "shelter": "yes", "tactile_paving": "no", "wheelchair": "yes"}}, {"type": "node", "id": 297230912, "lat": 52.5067577, "lon": 13.3068677, "tags": {"bench": "yes", "bin": "yes", "bus": "yes", "highway": "bus_stop", "lit": "yes", "name": "U Wilmersdorfer Straße", "public_transport": "platform", "shelter": "yes", "tactile_paving": "no", "wheelchair": "yes"}}, {"type": "node", "id": 297231079, "lat": 52.5066445, "lon": 13.3063322, "tags": {"bench": "no", "bin": "yes", "bus": "yes", "highway": "bus_stop", "lit": "yes", "name": "U Wilmersdorfer Straße", "public_transport": "platform", "shelter": "no", "tactile_paving": "no"}}, {"type": "node", "id": 297471826, "lat": 52.5067402, "lon": 13.2895755, "tags": {"bench": "yes", "bin": "yes", "highway": "bus_stop", "lit": "yes", "name": "Kuno-Fischer-Straße", "shelter": "yes", "tactile_paving": "no"}}, {"type": "node", "id": 297471891, "lat": 52.5065576, "lon": 13.2899215, "tags": {"bench": "yes", "bin": "yes", "highway": "bus_stop", "lit": "yes", "name": "Kuno-Fischer-Straße", "shelter": "yes", "tactile_paving": "no"}}, {"type": "node", "id": 297687719, "lat": 52.5055206, "lon": 13.4316986, "tags": {"bench": "yes", "bin": "yes", "bus": "yes", "highway": "bus_stop", "lit": "yes", "name": "Manteuffelstraße/Köpenicker Straße", "public_transport": "platform", "shelter": "yes", "tactile_paving": "no"}}, {"type": "node", "id": 298069469, "lat": 52.3971336, "lon": 13.2760906, "tags": {"bench": "yes", "bin": "yes", "highway": "bus_stop", "lit": "yes", "local_ref": "1", "name": "S Teltow Stadt", "shelter": "yes", "tactile_paving": "yes", "wheelchair": "yes"}}, {"type": "node", "id": 298072615, "lat": 52.3885365, "lon": 13.3008597, "tags": {"bench": "yes", "bin": "yes", "highway": "bus_stop", "lit": "yes", "name": "Bahnhof", "shelter": "yes", "tactile_paving": "yes"}}, {"type": "node", "id": 298073911, "lat": 52.3962282, "lon": 13.3051069, "tags": {"bus": "yes", "highway": "bus_stop", "name": "Sigridshorst", "public_transport": "platform"}}, {"type": "node", "id": 298151283, "lat": 52.3998094, "lon": 13.2503588, "tags": {"bench": "yes", "bin": "yes", "highway": "bus_stop", "lit": "yes", "name": "Havelstraße", "shelter": "yes", "tactile_paving": "yes", "wheelchair": "yes"}}, {"type": "node", "id": 298270257, "lat": 52.4780519, "lon": 13.3438119, "tags": {"bench": "yes", "bin": "yes", "check_date:shelter": "2021-03-06", "highway": "bus_stop", "lit": "yes", "name": "S+U Innsbrucker Platz", "shelter": "yes", "tactile_paving": "no"}}, {"type": "node", "id": 298771384, "lat": 52.4579417, "lon": 13.2944437, "tags": {"bench": "yes", "bin": "yes", "highway": "bus_stop", "lit": "yes", "name": "Edwin-Redslob-Straße", "shelter": "yes", "tactile_paving": "no"}}, {"type": "node", "id": 298771407, "lat": 52.4580009, "lon": 13.2953797, "tags": {"bench": "no", "bin": "yes", "highway": "bus_stop", "lit": "yes", "name": "Edwin-Redslob-Straße", "shelter": "yes", "tactile_paving": "no"}}, {"type": "node", "id": 300137877, "lat": 52.471851, "lon": 13.3354196, "tags": {"bench": "no", "bin": "yes", "highway": "bus_stop", "lit": "yes", "name": "Breslauer Platz", "shelter": "no", "tactile_paving": "yes"}}, {"type": "node", "id": 301151200, "lat": 52.5443549, "lon": 13.355267, "tags": {"bench": "yes", "bin": "yes", "highway": "bus_stop", "lit": "yes", "name": "Luxemburger Straße", "shelter": "yes", "tactile_paving": "no", "wheelchair": "yes"}}, {"type": "node", "id": 301497159, "lat": 52.4230911, "lon": 13.7529583, "tags": {"bench": "no", "bin": "yes", "check_date:shelter": "2022-05-01", "highway": "bus_stop", "lit": "yes", "name": "City-Center", "shelter": "no", "tactile_paving": "no"}}, {"type": "node", "id": 303708146, "lat": 52.5700962, "lon": 13.5550135, "tags": {"bench": "yes", "bin": "yes", "highway": "bus_stop", "lit": "yes", "name": "Radieschenpfad", "shelter": "yes", "tactile_paving": "no"}}, {"type": "node", "id": 303708147, "lat": 52.5721745, "lon": 13.5641434, "tags": {"bench": "yes", "bin": "yes", "highway": "bus_stop", "lit": "yes", "name": "Am Gehrensee", "shelter": "yes", "tactile_paving": "yes"}}, {"type": "node", "id": 303708148, "lat": 52.5724898, "lon": 13.5647271, "tags": {"bench": "yes", "bin": "yes", "check_date:shelter": "2023-07-08", "highway": "bus_stop", "lit": "yes", "name": "Am Gehrensee", "shelter": "yes", "tactile_paving": "yes"}}, {"type": "node", "id": 304039493, "lat": 52.3854434, "lon": 13.110907, "tags": {"bench": "yes", "bin": "yes", "highway": "bus_stop", "lit": "yes", "name": "Kleine Straße", "shelter": "yes", "tactile_paving": "no"}}, {"type": "node", "id": 304296307, "lat": 52.5096821, "lon": 13.6059309, "tags": {"bench": "yes", "bin": "yes", "check_date:shelter": "2021-03-05", "highway": "bus_stop", "lit": "yes", "name": "Gielsdorfer Straße", "shelter": "yes", "tactile_paving": "no"}}, {"type": "node", "id": 304296351, "lat": 52.5092697, "lon": 13.6089406, "tags": {"bench": "yes", "bin": "yes", "highway": "bus_stop", "lit": "yes", "name": "Neuenhagener Straße", "shelter": "yes", "tactile_paving": "no"}}, {"type": "node", "id": 306988646, "lat": 52.4298598, "lon": 13.3333109, "tags": {"bench": "no", "bin": "yes", "bus": "yes", "bus_routes": "184;284;N84", "highway": "bus_stop", "lit": "yes", "name": "Amalienstraße", "public_transport": "platform", "shelter": "no", "tactile_paving": "no"}}, {"type": "node", "id": 306988852, "lat": 52.4301468, "lon": 13.3335893, "tags": {"bench": "yes", "bin": "yes", "bus_routes": "184;284;N84", "highway": "bus_stop", "lit": "yes", "name": "Amalienstraße", "shelter": "yes", "tactile_paving": "no"}}, {"type": "node", "id": 306989797, "lat": 52.4321256, "lon": 13.3382475, "tags": {"bench": "yes", "bin": "yes", "bus_routes": "184;284;N84", "highway": "bus_stop", "lit": "yes", "name": "Kaiser-Wilhelm-Straße/Seydlitzstraße", "shelter": "yes", "tactile_paving": "no"}}, {"type": "node", "id": 306989988, "lat": 52.4317329, "lon": 13.3380358, "tags": {"bench": "yes", "bin": "yes", "bus": "yes", "highway": "bus_stop", "lit": "yes", "name": "Kaiser-Wilhelm-Straße/Seydlitzstraße", "public_transport": "platform", "shelter": "yes", "tactile_paving": "no", "wheelchair": "yes"}}, {"type": "node", "id": 307798730, "lat": 52.3394455, "lon": 13.2506627, "tags": {"bus": "yes", "highway": "bus_stop", "name": "Sputendorf, Abzweig", "public_transport": "platform"}}, {"type": "node", "id": 307798732, "lat": 52.3400802, "lon": 13.2511943, "tags": {"bus": "yes", "highway": "bus_stop", "name": "Sputendorf, Abzweig", "public_transport": "platform"}}, {"type": "node", "id": 307798734, "lat": 52.3446146, "lon": 13.2640384, "tags": {"bus": "yes", "highway": "bus_stop", "name": "Sputendorfer Chaussee", "public_transport": "platform"}}, {"type": "node", "id": 307798737, "lat": 52.3445344, "lon": 13.2641753, "tags": {"bus": "yes", "highway": "bus_stop", "name": "Sputendorfer Chaussee", "public_transport": "platform"}}, {"type": "node", "id": 307802169, "lat": 52.3503495, "lon": 13.2740849, "tags": {"bus": "yes", "highway": "bus_stop", "name": "Neubeeren, Dorf", "public_transport": "platform"}}, {"type": "node", "id": 307802173, "lat": 52.3492145, "lon": 13.2751676, "tags": {"bus": "yes", "highway": "bus_stop", "name": "Neubeeren, Dorf", "public_transport": "platform"}}, {"type": "node", "id": 307813072, "lat": 52.3748314, "lon": 13.2634661, "tags": {"highway": "bus_stop", "name": "Ruhlsdorf"}}, {"type": "node", "id": 307816017, "lat": 52.3775434, "lon": 13.2601108, "tags": {"highway": "bus_stop", "name": "Mühlenbergstraße"}}, {"type": "node", "id": 307816025, "lat": 52.3776284, "lon": 13.2599597, "tags": {"highway": "bus_stop", "name": "Mühlenbergstraße"}}, {"type": "node", "id": 308711401, "lat": 52.529191, "lon": 13.5649889, "tags": {"bench": "no", "bin": "yes", "highway": "bus_stop", "lit": "yes", "name": "Cecilienstraße/Blumberger Damm", "shelter": "no", "tactile_paving": "no"}}, {"type": "node", "id": 309751773, "lat": 52.4231025, "lon": 13.3572853, "tags": {"bench": "yes", "bin": "yes", "highway": "bus_stop", "lit": "yes", "name": "Marchandstraße", "shelter": "yes", "tactile_paving": "yes", "wheelchair": "yes"}}, {"type": "node", "id": 309751775, "lat": 52.4232829, "lon": 13.357502, "tags": {"bench": "yes", "bin": "yes", "highway": "bus_stop", "lit": "yes", "name": "Marchandstraße", "shelter": "yes", "tactile_paving": "yes", "wheelchair": "yes"}}, {"type": "node", "id": 309751776, "lat": 52.4205594, "lon": 13.358558, "tags": {"bench": "yes", "bin": "yes", "check_date:shelter": "2023-10-02", "highway": "bus_stop", "lit": "yes", "name": "Friedrichrodaer Straße", "shelter": "yes", "tactile_paving": "no", "wheelchair": "yes"}}, {"type": "node", "id": 309751777, "lat": 52.4204378, "lon": 13.3589307, "tags": {"bench": "yes", "bin": "yes", "check_date:shelter": "2023-10-02", "highway": "bus_stop", "lit": "yes", "name": "Friedrichrodaer Straße", "shelter": "yes", "tactile_paving": "no", "wheelchair": "yes"}}, {"type": "node", "id": 309850214, "lat": 52.5844256, "lon": 13.2069886, "tags": {"bench": "no", "bin": "yes", "check_date:shelter": "2022-01-01", "highway": "bus_stop", "name": "Bürgerablage", "shelter": "no", "tactile_paving": "no", "wheelchair": "yes"}}, {"type": "node", "id": 309850215, "lat": 52.5842821, "lon": 13.2074594, "tags": {"bench": "no", "bin": "no", "check_date:shelter": "2022-01-01", "highway": "bus_stop", "name": "Bürgerablage", "shelter": "no", "tactile_paving": "no", "wheelchair": "yes"}}, {"type": "node", "id": 309883268, "lat": 52.3936829, "lon": 13.2105918, "tags": {"bench": "no", "bin": "yes", "bus": "yes", "highway": "bus_stop", "lit": "yes", "name": "Waldschänke", "public_transport": "platform", "shelter": "no", "tactile_paving": "yes"}}, {"type": "node", "id": 309963444, "lat": 52.38892, "lon": 13.129835, "tags": {"bench": "no", "bin": "yes", "highway": "bus_stop", "lit": "yes", "name": "Steinstücken", "shelter": "no", "tactile_paving": "no", "wheelchair": "yes"}}, {"type": "node", "id": 309963448, "lat": 52.3891759, "lon": 13.1299287, "tags": {"bench": "no", "bin": "yes", "highway": "bus_stop", "lit": "yes", "name": "Steinstücken", "shelter": "no", "tactile_paving": "no", "wheelchair": "yes"}}, {"type": "node", "id": 310244882, "lat": 52.396344, "lon": 13.2440055, "tags": {"bus": "yes", "highway": "bus_stop", "name": "Iserstraße/Gesundheitszentrum", "public_transport": "platform", "shelter": "no"}}, {"type": "node", "id": 310244884, "lat": 52.3963216, "lon": 13.243822, "tags": {"bus": "yes", "highway": "bus_stop", "name": "Iserstraße/Gesundheitszentrum", "public_transport": "platform", "shelter": "yes"}}, {"type": "node", "id": 310244887, "lat": 52.3960134, "lon": 13.2408824, "tags": {"highway": "bus_stop", "name": "Feuerwehr"}}, {"type": "node", "id": 310244888, "lat": 52.3954241, "lon": 13.2399592, "tags": {"highway": "bus_stop", "name": "Feuerwehr"}}, {"type": "node", "id": 310274203, "lat": 52.6298753, "lon": 13.3826237, "tags": {"bench": "yes", "bin": "yes", "bus": "yes", "highway": "bus_stop", "lit": "yes", "name": "Lübarser Weg", "public_transport": "platform", "shelter": "yes", "tactile_paving": "yes"}}, {"type": "node", "id": 310621725, "lat": 52.396559, "lon": 13.0944385, "tags": {"bench": "yes", "bin": "yes", "bus": "yes", "highway": "bus_stop", "kerb": "raised", "kerb:approach_aid": "yes", "lit": "yes", "name": "Spindelstraße", "passenger_information_display": "no", "public_transport": "platform", "shelter": "yes", "tactile_paving": "no", "wheelchair": "yes"}}, {"type": "node", "id": 310621729, "lat": 52.3963994, "lon": 13.0942009, "tags": {"bench": "yes", "bin": "yes", "bus": "yes", "highway": "bus_stop", "lit": "yes", "name": "Spindelstraße", "shelter": "yes", "tactile_paving": "yes"}}, {"type": "node", "id": 313330278, "lat": 52.3783111, "lon": 13.1768049, "tags": {"bus": "yes", "highway": "bus_stop", "name": "Stolper Weg", "public_transport": "stop_position"}}, {"type": "node", "id": 313543073, "lat": 52.4243927, "lon": 13.327877, "tags": {"bench": "no", "bin": "yes", "highway": "bus_stop", "lit": "yes", "name": "Oberhofer Platz", "shelter": "no", "tactile_paving": "no"}}, {"type": "node", "id": 313543118, "lat": 52.4246244, "lon": 13.328823, "tags": {"bench": "yes", "bin": "yes", "highway": "bus_stop", "lit": "yes", "name": "Oberhofer Platz", "shelter": "yes", "tactile_paving": "no"}}, {"type": "node", "id": 316841178, "lat": 52.5719128, "lon": 13.3119234, "tags": {"bench": "yes", "bin": "yes", "highway": "bus_stop", "lit": "yes", "name": "Eichborndamm/Antonienstraße", "shelter": "yes", "tactile_paving": "no"}}, {"type": "node", "id": 316841180, "lat": 52.5716166, "lon": 13.3123299, "tags": {"bench": "yes", "bin": "yes", "highway": "bus_stop", "lit": "yes", "name": "Eichborndamm/Antonienstraße", "shelter": "yes", "tactile_paving": "no"}}, {"type": "node", "id": 317179397, "lat": 52.546935, "lon": 13.3584884, "tags": {"bench": "yes", "bin": "yes", "bus": "yes", "highway": "bus_stop", "lit": "yes", "name": "U Leopoldplatz", "public_transport": "platform", "shelter": "yes", "tactile_paving": "no"}}, {"type": "node", "id": 317179399, "lat": 52.5467388, "lon": 13.3594347, "tags": {"bench": "yes", "bin": "yes", "bus": "yes", "highway": "bus_stop", "lit": "yes", "name": "U Leopoldplatz", "public_transport": "platform", "shelter": "yes", "tactile_paving": "no"}}, {"type": "node", "id": 317322274, "lat": 52.5742717, "lon": 13.3076898, "tags": {"bench": "yes", "bin": "yes", "highway": "bus_stop", "lit": "yes", "name": "Foxweg", "shelter": "no", "tactile_paving": "no"}}, {"type": "node", "id": 317322307, "lat": 52.5738792, "lon": 13.3081916, "tags": {"bench": "no", "bin": "yes", "highway": "bus_stop", "lit": "no", "name": "Foxweg", "shelter": "no", "tactile_paving": "no", "wheelchair": "yes"}}, {"type": "node", "id": 317323277, "lat": 52.5720292, "lon": 13.3084227, "tags": {"bench": "yes", "bin": "yes", "check_date:shelter": "2022-04-05", "highway": "bus_stop", "lit": "yes", "name": "Auguste-Viktoria-Allee/Quäkerstraße", "shelter": "yes", "tactile_paving": "no"}}, {"type": "node", "id": 317437884, "lat": 52.5711754, "lon": 13.3132269, "tags": {"highway": "bus_stop", "lit": "yes", "name": "Eichborndamm/Antonienstraße"}}, {"type": "node", "id": 317438267, "lat": 52.5707599, "lon": 13.3175737, "tags": {"bench": "yes", "bin": "yes", "bus_routes": "125", "covered": "yes", "direction": "S+U-Bhf. Osloer Str.", "highway": "bus_stop", "name": "General-Woyna-Straße", "shelter": "yes", "tactile_paving": "no"}}, {"type": "node", "id": 317438268, "lat": 52.5710132, "lon": 13.3163351, "tags": {"bench": "yes", "bin": "yes", "bus_routes": "125", "covered": "yes", "direction": "Invalidensiedlung", "highway": "bus_stop", "lit": "no", "name": "General-Woyna-Straße", "shelter": "yes", "tactile_paving": "no", "wheelchair": "yes"}}, {"type": "node", "id": 317439251, "lat": 52.5687886, "lon": 13.3172487, "tags": {"bench": "no", "bin": "yes", "check_date:shelter": "2021-12-30", "highway": "bus_stop", "lit": "no", "name": "Zobeltitzstraße", "shelter": "no", "tactile_paving": "no"}}, {"type": "node", "id": 317439252, "lat": 52.569151, "lon": 13.3171968, "tags": {"highway": "bus_stop", "name": "Zobeltitzstraße", "shelter": "no", "tactile_paving": "no"}}, {"type": "node", "id": 317443583, "lat": 52.5666744, "lon": 13.3175737, "tags": {"bench": "yes", "bin": "yes", "highway": "bus_stop", "lit": "yes", "name": "Uranusweg", "shelter": "yes", "tactile_paving": "no"}}, {"type": "node", "id": 318699921, "lat": 52.5633742, "lon": 13.3273903, "tags": {"bench": "yes", "bin": "yes", "bus": "yes", "highway": "bus_stop", "lit": "yes", "name": "U Kurt-Schumacher-Platz", "public_transport": "platform", "shelter": "yes", "tactile_paving": "yes"}}, {"type": "node", "id": 318699922, "lat": 52.5633496, "lon": 13.3268823, "tags": {"bench": "yes", "bin": "yes", "bus": "yes", "highway": "bus_stop", "lit": "yes", "name": "U Kurt-Schumacher-Platz", "public_transport": "platform", "shelter": "yes", "tactile_paving": "yes"}}, {"type": "node", "id": 318702540, "lat": 52.5630065, "lon": 13.3311797, "tags": {"bench": "no", "bin": "yes", "check_date:shelter": "2022-04-16", "highway": "bus_stop", "lit": "no", "name": "Kapweg", "shelter": "no", "tactile_paving": "no", "wheelchair": "yes"}}, {"type": "node", "id": 318702541, "lat": 52.5629069, "lon": 13.3313381, "tags": {"bench": "no", "bin": "no", "check_date:shelter": "2022-04-16", "highway": "bus_stop", "lit": "no", "name": "Kapweg", "shelter": "no", "tactile_paving": "no", "wheelchair": "yes"}}, {"type": "node", "id": 318705242, "lat": 52.5575785, "lon": 13.3729525, "tags": {"bench": "yes", "bin": "yes", "highway": "bus_stop", "lit": "yes", "name": "U Osloer Straße/Tromsöer Straße", "shelter": "yes", "tactile_paving": "no"}}, {"type": "node", "id": 318705246, "lat": 52.557196, "lon": 13.372933, "tags": {"bench": "yes", "bin": "yes", "bus": "yes", "highway": "bus_stop", "lit": "yes", "name": "U Osloer Straße/Tromsöer Straße", "public_transport": "platform", "shelter": "yes", "tactile_paving": "no"}}, {"type": "node", "id": 318709725, "lat": 52.5564994, "lon": 13.3735234, "tags": {"bench": "yes", "bin": "yes", "bus": "yes", "highway": "bus_stop", "lit": "yes", "name": "U Osloer Straße", "public_transport": "platform", "shelter": "yes", "tactile_paving": "no", "wheelchair": "yes"}}, {"type": "node", "id": 318924165, "lat": 52.5773354, "lon": 13.3146363, "tags": {"bench": "yes", "bin": "yes", "highway": "bus_stop", "lit": "yes", "name": "S Eichborndamm", "shelter": "yes", "tactile_paving": "yes"}}, {"type": "node", "id": 318924167, "lat": 52.5773058, "lon": 13.3154613, "tags": {"bench": "no", "bin": "yes", "highway": "bus_stop", "lit": "yes", "name": "S Eichborndamm", "shelter": "no", "tactile_paving": "no"}}, {"type": "node", "id": 319095276, "lat": 52.5743302, "lon": 13.3470376, "tags": {"bench": "yes", "bin": "yes", "check_date:shelter": "2023-08-14", "highway": "bus_stop", "lit": "yes", "name": "U Paracelsus-Bad", "shelter": "yes", "tactile_paving": "no"}}, {"type": "node", "id": 319095277, "lat": 52.5754062, "lon": 13.347997, "tags": {"bench": "yes", "bin": "yes", "highway": "bus_stop", "lit": "yes", "name": "U Paracelsus-Bad", "shelter": "yes", "tactile_paving": "no"}}, {"type": "node", "id": 319546596, "lat": 52.5753453, "lon": 13.3328318, "tags": {"bench": "no", "bin": "yes", "check_date:shelter": "2022-04-17", "highway": "bus_stop", "lit": "no", "name": "Ollenhauerstraße/Lindauer Allee", "shelter": "no", "tactile_paving": "no"}}, {"type": "node", "id": 319546597, "lat": 52.5755961, "lon": 13.3315743, "tags": {"bench": "no", "bin": "no", "check_date:shelter": "2022-04-17", "highway": "bus_stop", "lit": "no", "name": "Ollenhauerstraße/Lindauer Allee", "shelter": "no", "tactile_paving": "no"}}, {"type": "node", "id": 319546599, "lat": 52.5750462, "lon": 13.3317863, "tags": {"bench": "no", "bin": "yes", "check_date:shelter": "2022-04-17", "highway": "bus_stop", "lit": "no", "name": "Ollenhauerstraße/Lindauer Allee", "shelter": "no", "tactile_paving": "no", "wheelchair": "limited"}}, {"type": "node", "id": 319644487, "lat": 52.5754682, "lon": 13.3392339, "tags": {"bench": "yes", "bin": "yes", "bus": "yes", "highway": "bus_stop", "name": "U Lindauer Allee", "public_transport": "platform", "shelter": "yes"}}, {"type": "node", "id": 320441249, "lat": 52.5969406, "lon": 13.3595846, "tags": {"bench": "yes", "bin": "yes", "bus": "yes", "highway": "bus_stop", "lit": "yes", "name": "Wilhelmsruher Damm/Treuenbrietzener Straße", "public_transport": "platform", "shelter": "yes", "tactile_paving": "no", "wheelchair": "yes"}}, {"type": "node", "id": 321252397, "lat": 52.4351964, "lon": 13.7539538, "tags": {"bench": "yes", "bin": "yes", "highway": "bus_stop", "name": "Woltersdorfer Landstraße", "shelter": "no"}}, {"type": "node", "id": 321252398, "lat": 52.4353765, "lon": 13.7541499, "tags": {"bench": "yes", "bin": "yes", "highway": "bus_stop", "lit": "no", "name": "Woltersdorfer Landstraße", "shelter": "yes", "tactile_paving": "no"}}, {"type": "node", "id": 321672108, "lat": 52.5767747, "lon": 13.3073429, "tags": {"highway": "bus_stop", "name": "Otisstraße/Wittestraße", "shelter": "no"}}, {"type": "node", "id": 324328106, "lat": 52.4157846, "lon": 13.3615037, "tags": {"bench": "yes", "bin": "yes", "highway": "bus_stop", "lit": "yes", "name": "Vom Guten Hirten", "shelter": "yes", "tactile_paving": "yes", "wheelchair": "yes"}}, {"type": "node", "id": 324328107, "lat": 52.4158244, "lon": 13.3617001, "tags": {"bench": "yes", "bin": "yes", "highway": "bus_stop", "lit": "yes", "name": "Vom Guten Hirten", "shelter": "yes", "tactile_paving": "yes"}}, {"type": "node", "id": 324334971, "lat": 52.4084751, "lon": 13.3765593, "tags": {"bench": "yes", "bin": "yes", "highway": "bus_stop", "lit": "yes", "name": "Gutspark Marienfelde", "shelter": "yes", "tactile_paving": "no"}}, {"type": "node", "id": 324820693, "lat": 52.3954315, "lon": 13.3990807, "tags": {"bench": "yes", "bin": "yes", "check_date:shelter": "2023-10-13", "highway": "bus_stop", "lit": "yes", "name": "Barnetstraße/Steinstraße", "note": "Route X83", "shelter": "yes", "tactile_paving": "no"}}, {"type": "node", "id": 324820694, "lat": 52.3957582, "lon": 13.3986585, "tags": {"bench": "yes", "bin": "yes", "check_date:shelter": "2023-10-13", "highway": "bus_stop", "lit": "yes", "name": "Barnetstraße/Steinstraße", "note": "Route X83", "shelter": "yes", "tactile_paving": "no"}}, {"type": "node", "id": 324820695, "lat": 52.3936957, "lon": 13.4044944, "tags": {"bench": "yes", "bin": "yes", "highway": "bus_stop", "lit": "yes", "name": "Finchleystraße", "note": "Route X83", "shelter": "yes", "tactile_paving": "no", "wheelchair": "yes"}}, {"type": "node", "id": 324820696, "lat": 52.393865, "lon": 13.4057479, "tags": {"bench": "yes", "bin": "yes", "highway": "bus_stop", "lit": "yes", "name": "Lichtenrader Damm/Barnetstraße", "note": "Route X83", "shelter": "yes", "tactile_paving": "no", "wheelchair": "limited"}}, {"type": "node", "id": 324820697, "lat": 52.3937027, "lon": 13.4075102, "tags": {"bench": "yes", "bin": "yes", "highway": "bus_stop", "lit": "yes", "name": "Lichtenrader Damm/Barnetstraße", "shelter": "yes", "tactile_paving": "no", "wheelchair": "yes"}}, {"type": "node", "id": 324820698, "lat": 52.3942311, "lon": 13.4102427, "tags": {"bench": "yes", "bin": "yes", "check_date:shelter": "2021-11-23", "highway": "bus_stop", "lit": "yes", "name": "Im Domstift/Groß-Ziethener Straße", "shelter": "yes", "tactile_paving": "no", "wheelchair": "yes"}}, {"type": "node", "id": 324820699, "lat": 52.3943023, "lon": 13.4121018, "tags": {"bench": "yes", "bin": "yes", "check_date:shelter": "2021-11-23", "highway": "bus_stop", "lit": "yes", "name": "Im Domstift/Groß-Ziethener Straße", "shelter": "yes", "tactile_paving": "no"}}, {"type": "node", "id": 324820700, "lat": 52.394551, "lon": 13.4163487, "tags": {"highway": "bus_stop", "name": "Volkspark Lichtenrade", "shelter": "yes", "wheelchair": "yes"}}, {"type": "node", "id": 324820701, "lat": 52.3946289, "lon": 13.4159219, "tags": {"bench": "yes", "bin": "yes", "highway": "bus_stop", "lit": "yes", "name": "Volkspark Lichtenrade", "shelter": "yes", "tactile_paving": "yes", "wheelchair": "yes"}}, {"type": "node", "id": 324822681, "lat": 52.3921844, "lon": 13.4200089, "tags": {"bench": "yes", "bin": "no", "highway": "bus_stop", "lit": "no", "name": "Skarbinastraße", "shelter": "yes", "tactile_paving": "no"}}, {"type": "node", "id": 325161333, "lat": 52.5031255, "lon": 13.179669, "tags": {"bench": "no", "bin": "yes", "highway": "bus_stop", "lit": "no", "name": "Zur Haveldüne", "shelter": "no", "tactile_paving": "no"}}, {"type": "node", "id": 325161374, "lat": 52.5094715, "lon": 13.1803672, "tags": {"bench": "no", "bin": "yes", "highway": "bus_stop", "lit": "no", "name": "Gatower Straße/Weinmeisterhornweg", "shelter": "no", "tactile_paving": "no"}}, {"type": "node", "id": 325161450, "lat": 52.515091, "lon": 13.1842242, "tags": {"bench": "yes", "bin": "yes", "highway": "bus_stop", "lit": "yes", "name": "Gatower Straße/Heerstraße", "shelter": "yes", "tactile_paving": "no"}}, {"type": "node", "id": 325666548, "lat": 52.4101752, "lon": 13.3793977, "tags": {"highway": "bus_stop", "name": "S Buckower Chaussee West"}}, {"type": "node", "id": 325695086, "lat": 52.4114715, "lon": 13.3499422, "tags": {"bench": "yes", "bin": "yes", "highway": "bus_stop", "lit": "yes", "name": "Lichterfelder Ring/Waldsassener Straße", "shelter": "yes", "tactile_paving": "no", "wheelchair": "yes"}}, {"type": "node", "id": 325695087, "lat": 52.41218, "lon": 13.349646, "tags": {"bench": "no", "bin": "yes", "check_date:shelter": "2021-10-16", "highway": "bus_stop", "lit": "yes", "name": "Lichterfelder Ring/Waldsassener Straße", "shelter": "no", "tactile_paving": "no", "wheelchair": "yes"}}, {"type": "node", "id": 325696452, "lat": 52.4084326, "lon": 13.3505627, "tags": {"bench": "no", "bin": "yes", "highway": "bus_stop", "lit": "yes", "name": "Waldsassener Straße", "shelter": "no", "tactile_paving": "no"}}, {"type": "node", "id": 325696453, "lat": 52.4080743, "lon": 13.3507759, "tags": {"bench": "yes", "bin": "yes", "highway": "bus_stop", "lit": "yes", "name": "Waldsassener Straße", "shelter": "yes", "tactile_paving": "no"}}, {"type": "node", "id": 325705375, "lat": 52.4163798, "lon": 13.3523229, "tags": {"bench": "yes", "bin": "yes", "check_date:shelter": "2022-10-25", "highway": "bus_stop", "lit": "yes", "name": "Maximilian-Kaller-Straße", "shelter": "yes", "tactile_paving": "no", "wheelchair": "yes"}}, {"type": "node", "id": 325705377, "lat": 52.416562, "lon": 13.3530389, "tags": {"bench": "yes", "bin": "yes", "check_date:shelter": "2022-10-25", "highway": "bus_stop", "lit": "yes", "name": "Maximilian-Kaller-Straße", "shelter": "yes", "tactile_paving": "no", "wheelchair": "yes"}}, {"type": "node", "id": 325705381, "lat": 52.4203515, "lon": 13.350466, "tags": {"highway": "bus_stop", "name": "Brotteroder Straße", "wheelchair": "limited"}}, {"type": "node", "id": 325705387, "lat": 52.4197313, "lon": 13.351087, "tags": {"bench": "no", "bin": "yes", "highway": "bus_stop", "lit": "no", "name": "Brotteroder Straße", "shelter": "no", "tactile_paving": "no", "wheelchair": "yes"}}, {"type": "node", "id": 325705389, "lat": 52.4217246, "lon": 13.3495077, "tags": {"bench": "no", "bin": "yes", "check_date:shelter": "2022-05-15", "highway": "bus_stop", "name": "Blankenhainer Straße", "shelter": "no", "wheelchair": "yes"}}, {"type": "node", "id": 325705392, "lat": 52.4225749, "lon": 13.3486866, "tags": {"bench": "yes", "bin": "yes", "highway": "bus_stop", "lit": "yes", "name": "Blankenhainer Straße", "shelter": "yes", "tactile_paving": "no"}}, {"type": "node", "id": 325705394, "lat": 52.4252, "lon": 13.3476004, "tags": {"bench": "yes", "bin": "yes", "highway": "bus_stop", "lit": "yes", "name": "St. Marien-Krankenhaus", "shelter": "yes", "tactile_paving": "yes"}}, {"type": "node", "id": 325705397, "lat": 52.4246299, "lon": 13.3478772, "tags": {"bench": "yes", "bin": "yes", "highway": "bus_stop", "lit": "yes", "name": "St. Marien-Krankenhaus", "shelter": "yes", "tactile_paving": "yes"}}, {"type": "node", "id": 325705399, "lat": 52.4290468, "lon": 13.3467901, "tags": {"bench": "yes", "bin": "yes", "bus": "yes", "highway": "bus_stop", "lit": "yes", "name": "Eiswaldtstraße", "public_transport": "platform", "shelter": "yes", "tactile_paving": "no", "wheelchair": "yes"}}, {"type": "node", "id": 325708857, "lat": 52.4281039, "lon": 13.3471261, "tags": {"bench": "yes", "bin": "yes", "bus": "yes", "check_date:shelter": "2021-12-21", "highway": "bus_stop", "lit": "yes", "name": "Eiswaldtstraße", "public_transport": "platform", "shelter": "yes", "tactile_paving": "no", "wheelchair": "yes"}}, {"type": "node", "id": 325708860, "lat": 52.431681, "lon": 13.3462903, "tags": {"bench": "no", "bin": "yes", "bus": "yes", "check_date:shelter": "2022-05-15", "highway": "bus_stop", "lit": "yes", "name": "Havensteinstraße", "public_transport": "platform", "shelter": "no", "tactile_paving": "yes", "wheelchair": "yes"}}, {"type": "node", "id": 325708862, "lat": 52.4322757, "lon": 13.3464179, "tags": {"bench": "yes", "bin": "yes", "check_date:shelter": "2021-10-11", "highway": "bus_stop", "lit": "yes", "name": "Havensteinstraße", "shelter": "yes", "tactile_paving": "no", "wheelchair": "yes"}}, {"type": "node", "id": 325710542, "lat": 52.4338832, "lon": 13.3462011, "tags": {"bench": "yes", "bin": "yes", "check_date:shelter": "2021-10-11", "highway": "bus_stop", "lit": "yes", "name": "Kameradenweg", "shelter": "yes", "tactile_paving": "no", "wheelchair": "yes"}}, {"type": "node", "id": 325710543, "lat": 52.4342319, "lon": 13.3460626, "tags": {"bench": "yes", "bin": "yes", "bus": "yes", "check_date:shelter": "2022-05-15", "highway": "bus_stop", "lit": "yes", "name": "Kameradenweg", "public_transport": "platform", "shelter": "yes", "tactile_paving": "no", "wheelchair": "yes"}}, {"type": "node", "id": 325716024, "lat": 52.4360135, "lon": 13.3464331, "tags": {"bench": "yes", "bin": "yes", "bus": "yes", "highway": "bus_stop", "lit": "yes", "name": "Lankwitz Kirche", "public_transport": "platform", "shelter": "yes", "tactile_paving": "yes"}}, {"type": "node", "id": 325716030, "lat": 52.4359184, "lon": 13.3462057, "tags": {"bench": "yes", "bin": "yes", "highway": "bus_stop", "lit": "yes", "name": "Lankwitz Kirche", "shelter": "yes", "tactile_paving": "yes"}}, {"type": "node", "id": 325716035, "lat": 52.43668, "lon": 13.345207, "tags": {"bench": "no", "bin": "yes", "highway": "bus_stop", "lit": "yes", "name": "Lankwitz Kirche", "shelter": "no", "tactile_paving": "yes"}}, {"type": "node", "id": 325716040, "lat": 52.436748, "lon": 13.3454096, "tags": {"bench": "yes", "bin": "yes", "highway": "bus_stop", "lit": "yes", "name": "Lankwitz Kirche", "shelter": "yes", "tactile_paving": "no"}}, {"type": "node", "id": 325716047, "lat": 52.4383731, "lon": 13.3442892, "tags": {"bench": "yes", "bin": "yes", "check_date:shelter": "2022-05-15", "highway": "bus_stop", "lit": "yes", "name": "S Lankwitz", "shelter": "yes", "tactile_paving": "yes", "wheelchair": "yes"}}, {"type": "node", "id": 325716061, "lat": 52.4387429, "lon": 13.3437293, "tags": {"bench": "yes", "bin": "yes", "bus": "yes", "check_date:shelter": "2022-05-15", "highway": "bus_stop", "lit": "yes", "name": "S Lankwitz", "public_transport": "platform", "shelter": "yes", "tactile_paving": "yes", "wheelchair": "yes"}}, {"type": "node", "id": 325721085, "lat": 52.4343889, "lon": 13.3498806, "tags": {"bench": "yes", "bin": "yes", "check_date:shelter": "2021-10-11", "highway": "bus_stop", "lit": "yes", "name": "Paul-Schneider-Straße", "shelter": "yes", "tactile_paving": "no", "wheelchair": "yes"}}, {"type": "node", "id": 325721089, "lat": 52.4339386, "lon": 13.3505926, "tags": {"bench": "yes", "bin": "yes", "check_date:shelter": "2021-10-11", "highway": "bus_stop", "lit": "yes", "name": "Paul-Schneider-Straße", "shelter": "yes", "tactile_paving": "no", "wheelchair": "yes"}}, {"type": "node", "id": 325721092, "lat": 52.4329812, "lon": 13.3529364, "tags": {"bench": "yes", "bin": "yes", "check_date:shelter": "2022-11-28", "highway": "bus_stop", "lit": "no", "name": "Malteserstraße/Kamenzer Damm", "shelter": "yes", "tactile_paving": "no", "wheelchair": "yes"}}, {"type": "node", "id": 325724131, "lat": 52.4295043, "lon": 13.3543015, "tags": {"bench": "yes", "bin": "yes", "highway": "bus_stop", "lit": "yes", "name": "Am Gemeindepark", "shelter": "yes", "tactile_paving": "no"}}, {"type": "node", "id": 325724136, "lat": 52.4298014, "lon": 13.3545574, "tags": {"bench": "yes", "bin": "yes", "highway": "bus_stop", "lit": "no", "name": "Am Gemeindepark", "shelter": "yes", "tactile_paving": "no"}}, {"type": "node", "id": 325724143, "lat": 52.4292195, "lon": 13.3555611, "tags": {"bench": "yes", "bin": "yes", "highway": "bus_stop", "name": "Am Gemeindepark", "shelter": "yes"}}, {"type": "node", "id": 325733465, "lat": 52.4291812, "lon": 13.3594215, "tags": {"bench": "yes", "bin": "yes", "check_date:shelter": "2022-12-28", "highway": "bus_stop", "lit": "yes", "name": "Wedellstraße", "shelter": "yes", "tactile_paving": "no"}}, {"type": "node", "id": 325733472, "lat": 52.4293451, "lon": 13.3579533, "tags": {"bench": "yes", "bin": "yes", "bus": "yes", "check_date:shelter": "2021-01-12", "highway": "bus_stop", "lit": "yes", "name": "Wedellstraße", "public_transport": "platform", "shelter": "yes", "tactile_paving": "no"}}, {"type": "node", "id": 325733476, "lat": 52.4284064, "lon": 13.3623803, "tags": {"bench": "no", "bin": "no", "highway": "bus_stop", "lit": "no", "name": "Wichurastraße", "shelter": "no", "tactile_paving": "no"}}, {"type": "node", "id": 325733481, "lat": 52.4283176, "lon": 13.3623387, "tags": {"bench": "no", "bin": "yes", "highway": "bus_stop", "lit": "yes", "name": "Wichurastraße", "shelter": "no", "tactile_paving": "no"}}, {"type": "node", "id": 325739548, "lat": 52.4276902, "lon": 13.3646796, "tags": {"bench": "yes", "bin": "yes", "covered": "yes", "highway": "bus_stop", "lit": "no", "name": "Preysingstraße", "tactile_paving": "no"}}, {"type": "node", "id": 325745222, "lat": 52.4266654, "lon": 13.3676777, "tags": {"addr:postcode": "12277", "bench": "yes", "bin": "yes", "highway": "bus_stop", "lit": "yes", "name": "Sonnenscheinpfad", "name:ru": "Зонненшайнпфад", "shelter": "yes", "tactile_paving": "no", "wheelchair": "yes"}}, {"type": "node", "id": 325745227, "lat": 52.4265341, "lon": 13.368454, "tags": {"bench": "yes", "bin": "yes", "check_date:shelter": "2023-09-20", "highway": "bus_stop", "lit": "yes", "name": "Sonnenscheinpfad", "shelter": "yes", "tactile_paving": "no", "wheelchair": "yes"}}, {"type": "node", "id": 325748259, "lat": 52.4249914, "lon": 13.3726904, "tags": {"bench": "yes", "bin": "yes", "highway": "bus_stop", "lit": "yes", "name": "Belßstraße/Marienfelder Allee", "shelter": "no", "tactile_paving": "no", "wheelchair": "yes"}}, {"type": "node", "id": 325748265, "lat": 52.4252422, "lon": 13.3725289, "tags": {"bench": "yes", "bin": "yes", "highway": "bus_stop", "lit": "yes", "name": "Belßstraße/Marienfelder Allee", "shelter": "yes", "tactile_paving": "no", "wheelchair": "yes"}}, {"type": "node", "id": 325767696, "lat": 52.4239577, "lon": 13.3745344, "tags": {"bench": "yes", "bin": "yes", "highway": "bus_stop", "lit": "yes", "name": "S Marienfelde", "shelter": "yes", "tactile_paving": "no", "wheelchair": "no"}}, {"type": "node", "id": 325767706, "lat": 52.4236698, "lon": 13.3746396, "tags": {"bench": "no", "bin": "yes", "highway": "bus_stop", "lit": "yes", "name": "S Marienfelde", "shelter": "no", "tactile_paving": "no"}}, {"type": "node", "id": 325770680, "lat": 52.4226625, "lon": 13.3707595, "tags": {"bench": "yes", "bin": "yes", "check_date:shelter": "2023-09-28", "highway": "bus_stop", "lit": "yes", "name": "Hranitzkystraße", "shelter": "yes", "tactile_paving": "no", "wheelchair": "yes"}}, {"type": "node", "id": 325774436, "lat": 52.4221456, "lon": 13.3705835, "tags": {"highway": "bus_stop", "name": "Hranitzkystraße", "shelter": "yes", "tactile_paving": "no"}}, {"type": "node", "id": 325774445, "lat": 52.4211215, "lon": 13.3694624, "tags": {"highway": "bus_stop", "name": "Erinnerungsstätte Marienfelde", "shelter": "yes", "tactile_paving": "no"}}, {"type": "node", "id": 325774500, "lat": 52.4205733, "lon": 13.3692527, "tags": {"highway": "bus_stop", "name": "Erinnerungsstätte Marienfelde", "shelter": "yes"}}, {"type": "node", "id": 325776780, "lat": 52.4178147, "lon": 13.3666923, "tags": {"bench": "no", "bin": "no", "check_date:shelter": "2023-05-24", "highway": "bus_stop", "lit": "no", "name": "Hanielweg", "shelter": "no", "tactile_paving": "no"}}, {"type": "node", "id": 325776799, "lat": 52.417104, "lon": 13.3663783, "tags": {"highway": "bus_stop", "name": "Hanielweg", "shelter": "yes", "tactile_paving": "no"}}, {"type": "node", "id": 325798006, "lat": 52.4271937, "lon": 13.355294, "tags": {"bench": "yes", "bin": "yes", "bus": "yes", "highway": "bus_stop", "lit": "yes", "name": "Emmichstraße", "public_transport": "platform", "shelter": "yes", "tactile_paving": "no", "wheelchair": "yes"}}, {"type": "node", "id": 325798017, "lat": 52.4279511, "lon": 13.3552716, "tags": {"bench": "yes", "bin": "yes", "highway": "bus_stop", "lit": "yes", "name": "Emmichstraße", "shelter": "yes", "tactile_paving": "no"}}, {"type": "node", "id": 325880591, "lat": 52.4365551, "lon": 13.346421, "tags": {"bench": "yes", "bin": "yes", "highway": "bus_stop", "lit": "yes", "name": "Lankwitz Kirche", "shelter": "no", "tactile_paving": "yes"}}, {"type": "node", "id": 325880600, "lat": 52.4359294, "lon": 13.3449374, "tags": {"bench": "yes", "bin": "yes", "highway": "bus_stop", "lit": "yes", "name": "Lankwitz Kirche", "shelter": "yes", "tactile_paving": "no", "wheelchair": "yes"}}, {"type": "node", "id": 325923263, "lat": 52.4335702, "lon": 13.354193, "tags": {"bench": "no", "bin": "yes", "highway": "bus_stop", "lit": "yes", "name": "Malteserstraße/Kamenzer Damm", "shelter": "no", "tactile_paving": "no", "wheelchair": "yes"}}, {"type": "node", "id": 325923268, "lat": 52.4333859, "lon": 13.3537802, "tags": {"bench": "yes", "bin": "yes", "highway": "bus_stop", "lit": "yes", "name": "Malteserstraße/Kamenzer Damm", "shelter": "no", "tactile_paving": "no", "wheelchair": "yes"}}, {"type": "node", "id": 325923274, "lat": 52.4342194, "lon": 13.3588671, "tags": {"bench": "yes", "bin": "yes", "highway": "bus_stop", "lit": "yes", "name": "Kamenzer Damm/Wedellstraße", "shelter": "yes", "tactile_paving": "no", "wheelchair": "yes"}}, {"type": "node", "id": 325923278, "lat": 52.4342467, "lon": 13.3599971, "tags": {"bench": "yes", "bin": "yes", "highway": "bus_stop", "lit": "yes", "name": "Kamenzer Damm/Wedellstraße", "shelter": "yes", "tactile_paving": "no", "wheelchair": "yes"}}, {"type": "node", "id": 325936288, "lat": 52.4346519, "lon": 13.3630003, "tags": {"bench": "yes", "bin": "yes", "check_date:shelter": "2022-09-08", "highway": "bus_stop", "lit": "yes", "name": "Halbauer Weg", "shelter": "yes", "tactile_paving": "no"}}, {"type": "node", "id": 325936292, "lat": 52.4345741, "lon": 13.3613663, "tags": {"bench": "yes", "bin": "yes", "highway": "bus_stop", "lit": "yes", "name": "Halbauer Weg", "shelter": "yes", "tactile_paving": "no"}}, {"type": "node", "id": 325936299, "lat": 52.4365679, "lon": 13.3631065, "tags": {"bench": "yes", "bin": "yes", "highway": "bus_stop", "lit": "yes", "name": "Döhlauer Pfad", "shelter": "yes", "tactile_paving": "no"}}, {"type": "node", "id": 325936308, "lat": 52.4366066, "lon": 13.3622745, "tags": {"bench": "yes", "bin": "yes", "highway": "bus_stop", "lit": "yes", "name": "Döhlauer Pfad", "shelter": "yes", "tactile_paving": "no", "wheelchair": "yes"}}, {"type": "node", "id": 325943724, "lat": 52.4375898, "lon": 13.3571704, "tags": {"bench": "yes", "bin": "yes", "highway": "bus_stop", "lit": "yes", "name": "Wunsiedeler Weg", "shelter": "yes", "tactile_paving": "no", "wheelchair": "yes"}}, {"type": "node", "id": 325943731, "lat": 52.4374973, "lon": 13.3578524, "tags": {"bench": "yes", "bin": "yes", "highway": "bus_stop", "lit": "yes", "name": "Wunsiedeler Weg", "shelter": "yes", "tactile_paving": "no", "wheelchair": "yes"}}, {"type": "node", "id": 325947795, "lat": 52.4386881, "lon": 13.3537035, "tags": {"bench": "no", "bin": "yes", "check_date:shelter": "2023-05-19", "highway": "bus_stop", "lit": "yes", "name": "Langkofelweg", "shelter": "no", "tactile_paving": "no", "wheelchair": "yes"}}, {"type": "node", "id": 325947798, "lat": 52.4388891, "lon": 13.3535661, "tags": {"bench": "yes", "bin": "yes", "check_date:shelter": "2023-05-19", "highway": "bus_stop", "lit": "yes", "name": "Langkofelweg", "shelter": "no", "tactile_paving": "no", "wheelchair": "yes"}}, {"type": "node", "id": 325949564, "lat": 52.4398718, "lon": 13.3509412, "tags": {"bench": "yes", "bin": "yes", "highway": "bus_stop", "lit": "yes", "name": "Edenkobener Weg", "shelter": "yes", "tactile_paving": "yes"}}, {"type": "node", "id": 325949566, "lat": 52.4398854, "lon": 13.3513326, "tags": {"bench": "yes", "bin": "yes", "highway": "bus_stop", "lit": "yes", "name": "Edenkobener Weg", "shelter": "yes", "tactile_paving": "yes"}}, {"type": "node", "id": 325951999, "lat": 52.4381559, "lon": 13.3485491, "tags": {"bench": "yes", "bin": "yes", "highway": "bus_stop", "lit": "yes", "name": "Bruchwitzstraße", "shelter": "yes", "tactile_paving": "yes"}}, {"type": "node", "id": 325952001, "lat": 52.4376409, "lon": 13.3481667, "tags": {"bench": "yes", "bin": "yes", "highway": "bus_stop", "lit": "yes", "name": "Bruchwitzstraße", "shelter": "yes", "tactile_paving": "no"}}, {"type": "node", "id": 325954736, "lat": 52.4343047, "lon": 13.3420948, "tags": {"bench": "yes", "bin": "yes", "highway": "bus_stop", "lit": "yes", "name": "Dillgesstraße", "shelter": "yes", "tactile_paving": "no"}}, {"type": "node", "id": 325954738, "lat": 52.4337894, "lon": 13.3416497, "tags": {"bench": "no", "bin": "yes", "bus": "yes", "highway": "bus_stop", "lit": "yes", "name": "Dillgesstraße", "public_transport": "platform", "shelter": "no", "tactile_paving": "no"}}, {"type": "node", "id": 326074176, "lat": 52.5753219, "lon": 13.3058471, "tags": {"bench": "yes", "bin": "yes", "highway": "bus_stop", "lit": "no", "name": "Otisstraße/Quäkerstraße", "shelter": "no", "tactile_paving": "no"}}, {"type": "node", "id": 326090893, "lat": 52.4177131, "lon": 13.3325084, "tags": {"bench": "no", "bin": "yes", "highway": "bus_stop", "lit": "yes", "name": "Oberhofer Weg", "shelter": "no", "tactile_paving": "no"}}, {"type": "node", "id": 326090896, "lat": 52.4176179, "lon": 13.3326045, "tags": {"bench": "no", "bin": "yes", "highway": "bus_stop", "lit": "yes", "name": "Oberhofer Weg", "shelter": "no", "tactile_paving": "no"}}, {"type": "node", "id": 326095742, "lat": 52.4186389, "lon": 13.3241259, "tags": {"bench": "no", "bin": "yes", "bus": "yes", "highway": "bus_stop", "lit": "yes", "name": "Heinersdorfer Straße/Hildburghauser Straße", "public_transport": "platform", "shelter": "no", "tactile_paving": "yes"}}, {"type": "node", "id": 326095746, "lat": 52.4185663, "lon": 13.3241583, "tags": {"bench": "no", "bin": "yes", "highway": "bus_stop", "lit": "yes", "name": "Heinersdorfer Straße/Hildburghauser Straße", "shelter": "no", "tactile_paving": "yes"}}, {"type": "node", "id": 326095751, "lat": 52.4181516, "lon": 13.3246072, "tags": {"bench": "no", "bin": "yes", "highway": "bus_stop", "lit": "yes", "name": "Heinersdorfer Straße/Hildburghauser Straße", "shelter": "no", "tactile_paving": "no", "wheelchair": "yes"}}, {"type": "node", "id": 326095756, "lat": 52.4190611, "lon": 13.3249686, "tags": {"bench": "no", "bin": "yes", "bus": "yes", "highway": "bus_stop", "lit": "yes", "name": "Heinersdorfer Straße/Hildburghauser Straße", "public_transport": "platform", "shelter": "no", "tactile_paving": "no"}}, {"type": "node", "id": 326098792, "lat": 52.4189706, "lon": 13.3192949, "tags": {"bench": "no", "bin": "yes", "bus": "yes", "highway": "bus_stop", "lit": "yes", "name": "Blanckertzweg", "public_transport": "platform", "shelter": "no", "tactile_paving": "yes"}}, {"type": "node", "id": 326098797, "lat": 52.4188877, "lon": 13.3195587, "tags": {"bench": "no", "bin": "yes", "highway": "bus_stop", "lit": "yes", "name": "Blanckertzweg", "shelter": "no", "tactile_paving": "yes"}}, {"type": "node", "id": 326109748, "lat": 52.4177909, "lon": 13.314485, "tags": {"bench": "yes", "bin": "no", "check_date:shelter": "2022-12-14", "highway": "bus_stop", "lit": "yes", "name": "S Osdorfer Straße", "shelter": "yes", "tactile_paving": "no", "toilets:wheelchair": "no", "wheelchair": "yes"}}, {"type": "node", "id": 326109756, "lat": 52.4174523, "lon": 13.3144566, "tags": {"highway": "bus_stop", "name": "S Osdorfer Straße"}},