{"version": 0.6, "generator": "Overpass API 0.7.61.5 4133829e", "osm3s": {"timestamp_osm_base": "2024-01-02T22:21:00Z", "copyright": "The data included in this document is from www.openstreetmap.org. The data is made available under ODbL."}, "elements": [{"type": "node", "id": 702412647, "lat": 52.5396469, "lon": 13.41347, "tags": {"addr:city": "Berlin", "addr:country": "DE", "addr:housenumber": "97", "addr:postcode": "10435", "addr:street": "Knaackstraße", "addr:suburb": "Prenzlauer Berg", "amenity": "bicycle_rental", "capacity": "800", "contact:phone": "+493043739999", "name": "Berlin on Bike", "operator": "Martin Wollenberg", "website": "https://berlinonbike.de/", "wheelchair": "limited"}}, {"type": "node", "id": 892479228, "lat": 52.3922516, "lon": 13.0917157, "tags": {"amenity": "bicycle_rental", "bicycle_rental": "dropoff_point", "brand": "nextbike", "brand:wikidata": "Q2351279", "brand:wikipedia": "de:Nextbike", "contact:email": "kundenservice@nextbike.de", "contact:facebook": "https://www.facebook.com/nextbike/", "contact:instagram": "https://www.instagram.com/nextbike_de/", "contact:phone": "+49 30 692 05046", "contact:twitter": "https://twitter.com/nextbike", "contact:website": "https://www.nextbike.de/potsdam/de/", "contact:xing": "https://www.xing.com/companies/nextbikegmbh", "contact:youtube": "https://www.youtube.com/user/nextbikede", "fee": "yes", "name": "Rathaus Babelsberg", "network": "PotsdamRad", "operator": "nextbike GmbH", "operator:type": "business", "operator:wikidata": "Q2351279", "operator:wikipedia": "de:Nextbike", "ref": "5218"}}, {"type": "node", "id": 892479232, "lat": 52.3893925, "lon": 13.0995735, "tags": {"amenity": "bicycle_rental", "bicycle_rental": "docking_station", "brand": "nextbike", "brand:wikidata": "Q2351279", "brand:wikipedia": "de:Nextbike", "contact:email": "kundenservice@nextbike.de", "contact:facebook": "https://www.facebook.com/nextbike/", "contact:instagram": "https://www.instagram.com/nextbike_de/", "contact:phone": "+49 30 692 05046", "contact:twitter": "https://twitter.com/nextbike", "contact:website": "https://www.nextbike.de/potsdam/de/", "contact:xing": "https://www.xing.com/companies/nextbikegmbh", "contact:youtube": "https://www.youtube.com/user/nextbikede", "fee": "yes", "name": "Kopernikusstraße", "network": "PotsdamRad", "operator": "nextbike GmbH", "operator:type": "business", "operator:wikidata": "Q2351279", "operator:wikipedia": "de:Nextbike", "ref": "5219"}}, {"type": "node", "id": 892479238, "lat": 52.3940653, "lon": 13.1288573, "tags": {"amenity": "bicycle_rental", "bicycle_rental": "docking_station", "brand": "nextbike", "brand:wikidata": "Q2351279", "brand:wikipedia": "de:Nextbike", "contact:email": "kundenservice@nextbike.de", "contact:facebook": "https://www.facebook.com/nextbike/", "contact:instagram": "https://www.instagram.com/nextbike_de/", "contact:phone": "+49 30 692 05046", "contact:twitter": "https://twitter.com/nextbike", "contact:website": "https://www.nextbike.de/potsdam/de/", "contact:xing": "https://www.xing.com/companies/nextbikegmbh", "contact:youtube": "https://www.youtube.com/user/nextbikede", "fee": "yes", "name": "Bahnhof Griebnitzsee", "network": "PotsdamRad", "operator": "nextbike GmbH", "operator:type": "business", "operator:wikidata": "Q2351279", "operator:wikipedia": "de:Nextbike", "ref": "5221"}}, {"type": "node", "id": 1200368016, "lat": 52.510016, "lon": 13.4055756, "tags": {"amenity": "bicycle_rental", "bicycle_rental": "shop", "contact:website": "http://berlinandbike.com/", "covered": "yes", "fee": "yes", "name": "Best Western am Spittelmarkt", "note": "Info an Rezeption", "operator": "Rent a Bike FCC GmbH", "shop": "rental"}}, {"type": "node", "id": 1223025464, "lat": 52.394371, "lon": 13.1024839, "tags": {"amenity": "bicycle_rental", "bicycle_rental": "docking_station", "brand": "nextbike", "brand:wikidata": "Q2351279", "brand:wikipedia": "de:Nextbike", "capacity": "8", "contact:email": "kundenservice@nextbike.de", "contact:facebook": "https://www.facebook.com/nextbike/", "contact:instagram": "https://www.instagram.com/nextbike_de/", "contact:phone": "+49 30 692 05046", "contact:twitter": "https://twitter.com/nextbike", "contact:website": "https://www.nextbike.de/potsdam/de/", "contact:xing": "https://www.xing.com/companies/nextbikegmbh", "contact:youtube": "https://www.youtube.com/user/nextbikede", "fee": "yes", "name": "Plantagenplatz", "network": "PotsdamRad", "operator": "nextbike GmbH", "operator:type": "business", "operator:wikidata": "Q2351279", "operator:wikipedia": "de:Nextbike", "ref": "5220;Plantagenplatz"}}, {"type": "node", "id": 1229132880, "lat": 52.5328032, "lon": 13.4131111, "tags": {"amenity": "bicycle_rental", "wheelchair": "limited"}}, {"type": "node", "id": 1251201121, "lat": 52.5081067, "lon": 13.3760927, "tags": {"amenity": "bicycle_rental", "bicycle_rental": "docking_station", "brand": "Call a Bike", "brand:wikidata": "Q1060525", "brand:wikipedia": "de:Call a Bike", "capacity": "15", "name": "U-Bhf. Potsdamer Platz/Linkstraße", "network": "Call a Bike", "network:wikidata": "Q1060525", "network:wikipedia": "de:Call a Bike", "operator": "Deutsche Bahn Connect", "operator:wikidata": "Q1152100", "operator:wikipedia": "de:Deutsche Bahn Connect", "ref": "1104"}}, {"type": "node", "id": 1296844656, "lat": 52.5354232, "lon": 13.4066737, "tags": {"amenity": "bicycle_rental", "bicycle_rental": "docking_station", "capacity": "16", "check_date": "2023-11-12", "contact:phone": "+49 30 12086364", "covered": "no", "fee": "yes", "level": "0", "network": "Deezer nextbike", "opening_hours": "24/7", "operator": "nextbike GmbH", "ref": "1234", "ref_name": "Schwedter Straße", "wheelchair": "yes"}}, {"type": "node", "id": 1296844663, "lat": 52.5201667, "lon": 13.4059333, "tags": {"amenity": "bicycle_rental", "bicycle_rental": "dropoff_point", "name": "Karl-Liebknecht-Straße/Spandauer Straße", "network": "call-a-bike", "operator": "Deutsche Bahn Connect GmbH", "ref": "1161", "source": "website;gps", "wheelchair": "yes"}}, {"type": "node", "id": 1296844664, "lat": 52.5325581, "lon": 13.3992467, "tags": {"amenity": "bicycle_rental", "bicycle_rental": "docking_station", "brand": "nextbike", "brand:wikidata": "Q2351279", "capacity": "12", "contact:phone": "+49 30 12086364", "contact:website": "https://www.deezernextbike.de/", "covered": "no", "fee": "yes", "name": "nextbike", "network": "nextbike Berlin", "operator": "Nextbike", "operator:type": "private", "ref": "1231", "ref_name": "Weinbergspark"}}, {"type": "node", "id": 1296844665, "lat": 52.5351772, "lon": 13.3993474, "tags": {"amenity": "bicycle_rental", "bicycle_rental": "docking_station", "brand": "nextbike", "brand:wikidata": "Q2351279", "capacity": "6", "contact:phone": "+49 30 12086364", "contact:website": "https://www.deezernextbike.de/", "covered": "no", "fee": "yes", "network": "nextbike Berlin", "operator": "Nextbike", "operator:type": "private", "ref": "1264", "ref_name": "Anklamer Straße"}}, {"type": "node", "id": 1296844667, "lat": 52.5353579, "lon": 13.3904525, "tags": {"amenity": "bicycle_rental", "bicycle_rental": "dropoff_point", "capacity": "20", "contact:phone": "+49 30 12086364", "contact:website": "https://www.deezernextbike.de/", "covered": "no", "fee": "yes", "network": "Deezer nextbike", "operator": "nextbike GmbH", "ref": "1196", "ref_name": "Ackerstraße", "wheelchair": "yes"}}, {"type": "node", "id": 1296844669, "lat": 52.5271332, "lon": 13.39807, "tags": {"amenity": "bicycle_rental", "bicycle_rental": "docking_station", "brand": "nextbike", "brand:wikidata": "Q2351279", "capacity": "13", "contact:phone": "+49 30 12086364", "covered": "no", "fee": "yes", "network": "nextbike Berlin", "operator": "Nextbike", "operator:type": "private", "ref": "1198", "ref_name": "Große Hamburger Straße", "wheelchair": "yes"}}, {"type": "node", "id": 1296844673, "lat": 52.5282063, "lon": 13.3928226, "tags": {"amenity": "bicycle_rental", "bicycle_rental": "docking_station", "brand": "nextbike", "brand:wikidata": "Q2351279", "capacity": "20", "contact:phone": "+49 30 12086364", "covered": "no", "fee": "yes", "network": "nextbike Berlin", "operator": "Nextbike", "operator:type": "private", "ref": "1229", "ref_name": "Tucholskystraße", "wheelchair": "yes"}}, {"type": "node", "id": 1296844674, "lat": 52.5278582, "lon": 13.4089959, "tags": {"amenity": "bicycle_rental", "bicycle_rental": "dropoff_point", "capacity": "17", "name": "Linienstraße / Alte Schönhauser Straße", "network": "call-a-bike", "operator": "Deutsche Bahn Connect GmbH", "ref": "1154"}}, {"type": "node", "id": 1296844675, "lat": 52.5237797, "lon": 13.4111165, "tags": {"amenity": "bicycle_rental", "bicycle_rental": "docking_station", "brand": "nextbike", "brand:wikidata": "Q2351279", "capacity": "12", "contact:phone": "+49 30 12086364", "covered": "no", "fee": "yes", "lit": "yes", "network": "nextbike Berlin", "opening_hours": "24/7", "operator": "Nextbike", "operator:type": "private", "ref": "1237", "ref_name": "Memhardstraße"}}, {"type": "node", "id": 1339760355, "lat": 52.4990796, "lon": 13.3037113, "tags": {"amenity": "bicycle_rental", "bicycle_rental": "docking_station", "brand": "nextbike", "brand:wikidata": "Q2351279", "brand:wikipedia": "de:Nextbike", "capacity": "5", "fixme": "ref_name", "name": "nextbike", "network": "nextbike Berlin", "operator": "Nextbike", "operator:type": "private", "ref": "5230", "ref_name": "Halensee"}}, {"type": "node", "id": 1339760358, "lat": 52.4969551, "lon": 13.291167, "tags": {"amenity": "bicycle_rental", "bicycle_rental": "dropoff_point", "brand": "nextbike", "brand:wikidata": "Q2351279", "brand:wikipedia": "de:Nextbike", "name": "nextbike", "network": "nextbike Berlin", "operator": "Nextbike", "operator:type": "private", "ref": "5233", "ref_name": "Halensee", "wheelchair": "yes"}}, {"type": "node", "id": 1349696697, "lat": 52.5193718, "lon": 13.385511, "tags": {"addr:city": "Berlin", "addr:country": "DE", "addr:housenumber": "8", "addr:postcode": "10117", "addr:street": "Neustädtische Kirchstraße", "addr:suburb": "Mitte", "amenity": "bicycle_rental", "bicycle_rental": "shop", "name": "Take a bike", "opening_hours": "Mo-Su 09:30-19:00", "payment:credit_cards": "yes", "payment:debit_cards": "yes", "phone": "+493020654730", "shop": "rental", "wheelchair": "yes"}}, {"type": "node", "id": 1502947783, "lat": 52.5121434, "lon": 13.3765143, "tags": {"amenity": "bicycle_rental", "bicycle_rental": "docking_station", "capacity": "22", "contact:phone": "+49 30 12086364", "contact:website": "https://www.nextbike.de/de/berlin/", "covered": "no", "fee": "yes", "network": "Deezer nextbike", "opening_hours": "24/7", "operator": "nextbike GmbH", "operator:type": "private", "ref": "1220", "ref_name": "Lennéstraße"}}, {"type": "node", "id": 1612137710, "lat": 52.5129774, "lon": 13.3970527, "tags": {"amenity": "bicycle_rental", "bicycle_rental": "docking_station", "capacity": "16", "mapillary": "1306212046443381", "network": "nextbike Berlin", "operator": "nextbike GmbH", "was:network": "call-a-bike"}}, {"type": "node", "id": 1614581955, "lat": 52.5242187, "lon": 13.3874519, "tags": {"amenity": "bicycle_rental", "bicycle_rental": "docking_station", "brand": "nextbike", "brand:wikidata": "Q2351279", "capacity": "10", "check_date": "2023-09-24", "covered": "no", "fee": "yes", "network": "nextbike Berlin", "operator": "Nextbike", "operator:type": "private", "ref": "1248", "ref_name": "Friedrichstadtpalast", "source": "survey", "toilets:wheelchair": "yes", "wheelchair": "yes"}}, {"type": "node", "id": 1619251872, "lat": 52.5119705, "lon": 13.4084591, "tags": {"amenity": "bicycle_rental", "bicycle_rental": "docking_station", "bicycle_rental:position": "lane", "brand": "nextbike", "brand:wikidata": "Q2351279", "capacity": "12", "contact:phone": "+49 30 12086364", "covered": "no", "fee": "yes", "network": "nextbike Berlin", "opening_hours": "24/7", "operator": "Nextbike", "operator:type": "private", "ref": "1205", "ref_name": "U Märkisches Museum"}}, {"type": "node", "id": 1811233024, "lat": 52.5220142, "lon": 13.4006665, "tags": {"amenity": "bicycle_rental", "bicycle_rental": "dropoff_point", "fee": "yes", "name": "Burgstraße / Neue Promenade", "network": "call-a-bike", "operator": "Deutsche Bahn Connect GmbH", "ref": "1151", "wheelchair": "yes"}}, {"type": "node", "id": 1834091926, "lat": 52.4827703, "lon": 13.4383457, "tags": {"addr:housenumber": "1", "addr:postcode": "12045", "addr:street": "Elbestraße", "amenity": "bicycle_rental", "email": "info@mogool-bikes.de", "fax": "+49 30 54 48 83 90", "name": "Moghul Rikschas", "opening_hours": "We-Fr 12:00-19:00; Sa 10:00-16:00", "operator": "Neumann und Rosenau GbR", "phone": "+49 30 54 48 83 93", "shop": "bicycle", "website": "https://mogool-bikes.com/", "wheelchair": "yes"}}, {"type": "node", "id": 1870414832, "lat": 52.4969893, "lon": 13.3497939, "tags": {"addr:city": "Berlin", "addr:country": "DE", "addr:housenumber": "109", "addr:postcode": "10777", "addr:street": "Eisenacher Straße", "addr:suburb": "Schöneberg", "amenity": "bicycle_rental", "disused:shop": "bicycle", "name": "Bike Shop Schöneberg", "opening_hours": "Mo-Fr 10:00-13:00,14:00-19:00", "phone": "+49 30 21912030", "service:bicycle:pump": "no", "service:bicycle:repair": "yes", "toilets:wheelchair": "no", "website": "http://www.bikeshop-schoeneberg.de", "wheelchair": "yes"}}, {"type": "node", "id": 1949062894, "lat": 52.5333397, "lon": 13.4144756, "tags": {"amenity": "bicycle_rental", "name": "Prenzlberger Orange Bikes", "operator": "Netzwerk SPIEL / KULTUR Prenzlauer Berg e.V.", "url": "http://www.orange-bikes.de/", "wheelchair": "limited"}}, {"type": "node", "id": 1957555687, "lat": 52.4902202, "lon": 13.3867918, "tags": {"amenity": "bicycle_rental", "bicycle_rental": "docking_station", "brand": "nextbike", "brand:wikidata": "Q2351279", "capacity": "11", "contact:phone": "+49 30 12086364", "contact:website": "https://www.deezernextbike.de/", "covered": "no", "fee": "yes", "network": "nextbike Berlin", "opening_hours": "24/7", "operator": "Nextbike", "operator:type": "private", "wheelchair": "yes"}}, {"type": "node", "id": 1979921504, "lat": 52.5027995, "lon": 13.3250278, "tags": {"amenity": "bicycle_rental", "bicycle_rental": "docking_station", "capacity": "16", "name": "Uhlandstraße / Grolmanstraße", "network": "call-a-bike", "operator": "Deutsche Bahn Connect GmbH", "ref": "1711", "wheelchair": "yes"}}, {"type": "node", "id": 1982703198, "lat": 52.507324, "lon": 13.3981555, "tags": {"amenity": "bicycle_rental", "bicycle_rental": "docking_station", "capacity": "12", "name": "Rudi-Dutschke-Straße / Axel-Springer-Straße", "network": "call-a-bike", "operator": "Deutsche Bahn Connect GmbH", "ref": "1321", "toilets:wheelchair": "no", "wheelchair": "no"}}, {"type": "node", "id": 1982708172, "lat": 52.4977484, "lon": 13.4316029, "tags": {"amenity": "bicycle_rental", "bicycle_rental": "dropoff_point", "capacity": "18", "name": "Wiener Straße / Spreewaldplatz", "network": "call-a-bike", "operator": "Deutsche Bahn Connect GmbH", "ref": "1371"}}, {"type": "node", "id": 1982717508, "lat": 52.4996712, "lon": 13.416725, "tags": {"amenity": "bicycle_rental", "name": "Kottbusser Tor / Reichenberger Straße", "network": "call-a-bike", "operator": "Deutsche Bahn Connect GmbH", "ref": "1333"}}, {"type": "node", "id": 1982736736, "lat": 52.501171, "lon": 13.4421311, "tags": {"amenity": "bicycle_rental", "bicycle_rental": "dropoff_point", "name": "U-Bhf. Schlesisches Tor / Köpenicker Straße", "network": "call-a-bike", "operator": "Deutsche Bahn Connect GmbH", "ref": "1381", "wheelchair": "no"}}, {"type": "node", "id": 1982894315, "lat": 52.4989713, "lon": 13.4261668, "tags": {"amenity": "bicycle_rental", "bicycle_rental": "docking_station", "brand": "nextbike", "brand:wikidata": "Q2351279", "capacity": "10", "contact:phone": "+49 30 12086364", "covered": "no", "fee": "yes", "lit": "no", "network": "nextbike Berlin", "opening_hours": "24/7", "operator": "Nextbike", "operator:type": "private", "ref": "1471", "ref_name": "U Görlitzer Bahnhof"}}, {"type": "node", "id": 1982897272, "lat": 52.4845201, "lon": 13.3855161, "tags": {"amenity": "bicycle_rental", "bicycle_rental": "docking_station", "capacity": "12", "contact:phone": "+49 30 12086364", "contact:website": "https://www.deezernextbike.de/", "covered": "no", "fee": "yes", "name": "Platz der Luftbrücke", "network": "Deezer nextbike", "opening_hours": "24/7", "operator": "nextbike GmbH", "ref": "1800", "ref_name": "Platz der Luftbrücke"}}, {"type": "node", "id": 2005099023, "lat": 52.5427489, "lon": 13.4186985, "tags": {"amenity": "bicycle_rental", "bicycle_rental": "docking_station", "capacity": "18", "contact:phone": "+49 30 12086364", "contact:website": "https://www.deezernextbike.de/", "covered": "no", "fee": "yes", "network": "Deezer nextbike", "operator": "nextbike GmbH", "ref": "1533", "ref_name": "Helmholtzplatz", "wheelchair": "yes"}}, {"type": "node", "id": 2005703972, "lat": 52.5409335, "lon": 13.414552, "tags": {"amenity": "bicycle_rental", "bicycle_rental": "docking_station", "capacity": "20", "comment": "http://wiki.openstreetmap.org/wiki/Berlin/Bicycle_Rental", "contact:phone": "+49 30 12086364", "contact:website": "https://www.deezernextbike.de/", "covered": "no", "fee": "yes", "network": "Deezer nextbike", "operator": "nextbike GmbH", "ref": "1535", "ref_name": "Danziger Straße"}}, {"type": "node", "id": 2383570904, "lat": 52.3888382, "lon": 13.1174218, "tags": {"amenity": "bicycle_rental", "bicycle_rental": "docking_station", "brand": "nextbike", "brand:wikidata": "Q2351279", "brand:wikipedia": "de:Nextbike", "capacity": "10", "contact:email": "kundenservice@nextbike.de", "contact:facebook": "https://www.facebook.com/nextbike/", "contact:instagram": "https://www.instagram.com/nextbike_de/", "contact:phone": "+49 30 692 05046", "contact:twitter": "https://twitter.com/nextbike", "contact:website": "https://www.nextbike.de/potsdam/de/", "contact:xing": "https://www.xing.com/companies/nextbikegmbh", "contact:youtube": "https://www.youtube.com/user/nextbikede", "fee": "yes", "name": "Hochschule für Film und Fernsehen", "network": "PotsdamRad", "operator": "nextbike GmbH", "operator:type": "business", "operator:wikidata": "Q2351279", "operator:wikipedia": "de:Nextbike", "ref": "5223"}}, {"type": "node", "id": 2477396066, "lat": 52.4772313, "lon": 13.4229702, "tags": {"amenity": "bicycle_rental", "bicycle_rental": "docking_station", "capacity": "10", "contact:phone": "+49 30 12086364", "contact:website": "https://www.deezernextbike.de/", "covered": "no", "fee": "yes", "network": "Deezer nextbike", "opening_hours": "24/7", "operator": "nextbike GmbH", "ref": "1584", "ref_name": "Herrfurthplatz"}}, {"type": "node", "id": 2477396069, "lat": 52.4817141, "lon": 13.4353652, "tags": {"amenity": "bicycle_rental", "check_date": "2021-07-24", "contact:website": "https://www.nextbike.de/", "covered": "no", "fee": "yes", "fixme:ref": "1587", "fixme:ref_name": "Schönstedtstraße", "network": "Deezer nextbike", "note": "Stationsrad / Fahrrad markiert zu erbauende Station. / Bike marks station yet to be built.", "opening_hours": "24/7", "operator": "nextbike GmbH", "operator:type": "private", "website": "https://www.nextbike.de/"}}, {"type": "node", "id": 2542447131, "lat": 52.5490958, "lon": 13.3486326, "tags": {"addr:city": "Berlin", "addr:country": "DE", "addr:housenumber": "104", "addr:postcode": "13353", "addr:street": "Seestraße", "addr:suburb": "Wedding", "amenity": "bicycle_rental", "contact:phone": "+4930 25 323 323", "email": "f.mandra@arcor.de", "name": "FRANCIS Fahrradservice", "note": "Schwerpunkt Fahrradreparatur. Ankauf/Verkauf/Service/Verleih. Nebenbei Schlittenverleih.", "opening_hours": "Mo-Fr 11:00-18:00; Sa 10:00-14:00", "shop": "bicycle", "toilets:wheelchair": "no", "website": "http://ffs-fahrrad.de", "wheelchair": "yes"}}, {"type": "node", "id": 2574425613, "lat": 52.4917653, "lon": 13.4259609, "tags": {"amenity": "bicycle_rental", "bicycle_rental": "docking_station", "capacity": "10", "contact:phone": "+49 30 12086364", "contact:website": "https://www.deezernextbike.de/", "covered": "no", "fee": "yes", "network": "Deezer nextbike", "opening_hours": "24/7", "operator": "nextbike GmbH", "operator:type": "private", "ref": "1590", "ref_name": "Hobrechtstraße"}}, {"type": "node", "id": 2625372928, "lat": 52.479864, "lon": 13.4224082, "tags": {"addr:country": "DE", "addr:housenumber": "9", "addr:postcode": "12049", "addr:street": "Mahlower Straße", "amenity": "bicycle_rental", "bicycle_rental": "shop", "contact:facebook": "https://www.facebook.com/RentABike44/", "description": "Bieten auch Fahrradreparaturen innerhalb der Woche an (Mo-Do). \nAlso offers bike reparation services within the week (Mo-Th).", "email": "rentabike44@gmail.com", "name": "Rent A Bike 44", "opening_hours": "Mo-Su 11:00-19:00", "phone": "+49 1577 7800606", "shop": "rental", "source": "https://www.facebook.com/RentABike44/", "wheelchair": "limited"}}, {"type": "node", "id": 2707786979, "lat": 52.3660055, "lon": 13.0935811, "tags": {"amenity": "bicycle_rental", "bicycle_rental": "docking_station", "brand": "nextbike", "brand:wikidata": "Q2351279", "brand:wikipedia": "de:Nextbike", "contact:email": "kundenservice@nextbike.de", "contact:facebook": "https://www.facebook.com/nextbike/", "contact:instagram": "https://www.instagram.com/nextbike_de/", "contact:phone": "+49 30 692 05046", "contact:twitter": "https://twitter.com/nextbike", "contact:website": "https://www.nextbike.de/potsdam/de/", "contact:xing": "https://www.xing.com/companies/nextbikegmbh", "contact:youtube": "https://www.youtube.com/user/nextbikede", "fee": "yes", "name": "Waldstadt/Heinrich-Mann-Allee", "network": "PotsdamRad", "operator": "nextbike GmbH", "operator:type": "business", "operator:wikidata": "Q2351279", "operator:wikipedia": "de:Nextbike", "ref": "5213"}}, {"type": "node", "id": 2747977968, "lat": 52.5113214, "lon": 13.3346933, "tags": {"amenity": "bicycle_rental", "bicycle_rental": "shop", "name": "Rent a Bike", "shop": "rental"}}, {"type": "node", "id": 2749149916, "lat": 52.5100204, "lon": 13.3759141, "tags": {"amenity": "bicycle_rental", "bicycle_rental": "dropoff_point", "brand": "Call a Bike", "brand:wikidata": "Q1060525", "brand:wikipedia": "de:Call a Bike", "capacity": "10", "check_date": "2023-05-06", "name": "Potsdamer Platz/Ebertstraße", "network": "Call a Bike", "network:wikidata": "Q1060525", "network:wikipedia": "de:Call a Bike", "operator": "Deutsche Bahn Connect", "operator:wikidata": "Q1152100", "operator:wikipedia": "de:Deutsche Bahn Connect", "ref": "1101"}}, {"type": "node", "id": 2749196819, "lat": 52.5494171, "lon": 13.3874728, "tags": {"amenity": "bicycle_rental", "bicycle_rental": "docking_station", "capacity": "15", "contact:phone": "+49 30 12086364", "contact:website": "https://www.deezernextbike.de/", "covered": "no", "fee": "yes", "network": "Deezer nextbike", "operator": "nextbike GmbH", "ref": "1262", "ref_name": "S-Bhf. Gesundbrunnen/Hanne-Sobek-Platz", "wheelchair": "yes"}}, {"type": "node", "id": 2817842708, "lat": 52.5351353, "lon": 13.349526, "tags": {"addr:city": "Berlin", "addr:country": "DE", "addr:housenumber": "38", "addr:postcode": "10559", "addr:street": "Quitzowstraße", "addr:suburb": "Moabit", "amenity": "bicycle_rental", "bicycle_rental": "docking_station", "brand": "nextbike", "brand:wikidata": "Q2351279", "brand:wikipedia": "de:Nextbike", "capacity": "5", "name": "nextbike", "network": "nextbike Berlin", "operator": "Nextbike", "operator:type": "private"}}, {"type": "node", "id": 2863122189, "lat": 52.5428744, "lon": 13.4117208, "tags": {"amenity": "bicycle_rental", "bicycle_rental": "docking_station", "capacity": "14", "contact:phone": "+49 30 12086364", "contact:website": "https://www.deezernextbike.de/", "covered": "no", "fee": "yes", "network": "Deezer nextbike", "operator": "nextbike GmbH", "ref": "1532", "ref_name": "U-Bhf. Eberswalder Straße"}}, {"type": "node", "id": 2911737329, "lat": 52.5263559, "lon": 13.447003, "tags": {"amenity": "bicycle_rental", "bicycle_rental": "dropoff_point", "capacity": "14", "name": "Landsberger Allee / Danziger Straße", "network": "call-a-bike", "operator": "Deutsche Bahn Connect GmbH", "ref": "1398", "wheelchair": "limited"}}, {"type": "node", "id": 2971264788, "lat": 52.5184681, "lon": 13.3643955, "tags": {"amenity": "bicycle_rental", "bicycle_rental": "dropoff_point", "name": "Haus der Kulturen der Welt / John-Foster-Dulles-Allee", "network": "call-a-bike", "operator": "Deutsche Bahn Connect GmbH", "ref": "1117", "toilets:wheelchair": "yes", "wheelchair": "yes"}}, {"type": "node", "id": 2985068855, "lat": 52.5201363, "lon": 13.3477019, "tags": {"amenity": "bicycle_rental", "name": "S-Bhf. Bellevue", "network": "call-a-bike", "operator": "Deutsche Bahn Connect GmbH", "ref": "1600", "wheelchair": "yes"}}, {"type": "node", "id": 3106074241, "lat": 52.5408589, "lon": 13.4048998, "tags": {"amenity": "bicycle_rental", "bicycle_rental": "docking_station", "brand": "nextbike", "brand:wikidata": "Q2351279", "capacity": "18", "contact:phone": "+49 30 12086364", "covered": "no", "fee": "yes", "network": "nextbike Berlin", "opening_hours": "24/7", "operator": "Nextbike", "operator:type": "private", "ref": "1534", "ref_name": "Mauerpark"}}, {"type": "node", "id": 3107369502, "lat": 52.4484468, "lon": 13.627577, "tags": {"amenity": "bicycle_rental", "bicycle_rental": "shop", "contact:email": "benno@fahrradimkietz.de", "contact:phone": "+49 172 5295699", "name": "Bennos Fahrradverleih", "opening_hours": "\"Bei Anruf „Rad“\"", "phone": "0172 52 95 699", "shop": "rental", "website": "https://www.fahrradimkietz.de/"}}, {"type": "node", "id": 3279791915, "lat": 52.475709, "lon": 13.364026, "tags": {"amenity": "bicycle_rental", "bicycle_rental": "docking_station", "capacity": "10", "name": "S-Bhf. Südkreuz / Hildegard-Knef-Platz", "network": "call-a-bike", "operator": "Deutsche Bahn Connect GmbH", "ref": "1520"}}, {"type": "node", "id": 3423746761, "lat": 52.4742827, "lon": 13.4554471, "tags": {"amenity": "bicycle_rental", "bicycle_rental": "docking_station", "capacity": "10", "contact:phone": "+49 30 12086364", "contact:website": "https://www.deezernextbike.de/", "covered": "no", "fee": "yes", "network": "Deezer nextbike", "opening_hours": "24/7", "operator": "nextbike GmbH", "operator:type": "private", "ref": "1586", "ref_name": "S Sonnenallee"}}, {"type": "node", "id": 3479528824, "lat": 52.543813, "lon": 13.396973, "tags": {"amenity": "bicycle_rental", "bicycle_rental": "docking_station", "capacity": "15", "contact:phone": "+49 30 12086364", "contact:website": "https://www.deezernextbike.de/", "covered": "no", "fee": "yes", "network": "Deezer nextbike", "operator": "nextbike GmbH", "ref": "1251", "ref_name": "Swinemünder Straße / Lortzingstraße", "toilets:wheelchair": "no", "wheelchair": "no"}}, {"type": "node", "id": 3486690272, "lat": 52.5240351, "lon": 13.3687542, "tags": {"amenity": "bicycle_rental", "bicycle_rental": "dropoff_point", "name": "S-Bhf. Hauptbahnhof / Washingtonplatz", "network": "call-a-bike", "operator": "Deutsche Bahn Connect GmbH", "ref": "1110"}}, {"type": "node", "id": 3489099153, "lat": 52.5195367, "lon": 13.4331722, "tags": {"amenity": "bicycle_rental"}}, {"type": "node", "id": 3493728130, "lat": 52.5331279, "lon": 13.4294205, "tags": {"amenity": "bicycle_rental", "bicycle_rental": "docking_station", "capacity": "16", "name": "Greifswalder Straße / Hufelandstraße", "network": "call-a-bike", "note": "Call-a-bike is not active anymore in Berlin.", "operator": "Deutsche Bahn Connect GmbH", "ref": "1215", "wheelchair": "yes"}}, {"type": "node", "id": 3493728131, "lat": 52.5284058, "lon": 13.4166757, "tags": {"amenity": "bicycle_rental", "bicycle_rental": "docking_station", "brand": "nextbike", "brand:wikidata": "Q2351279", "capacity": "18", "contact:phone": "+49 30 12086364", "covered": "no", "fee": "yes", "network": "nextbike Berlin", "operator": "Nextbike", "operator:type": "private", "ref": "1537", "ref_name": "Prenzlauer Allee"}}, {"type": "node", "id": 3493728133, "lat": 52.5307931, "lon": 13.4111484, "tags": {"amenity": "bicycle_rental", "name": "Stadtbüro Call a Bike / Schönhauser Allee", "network": "call-a-bike", "operator": "Deutsche Bahn Connect GmbH", "ref": "1001"}}, {"type": "node", "id": 3493728134, "lat": 52.5289431, "lon": 13.4385489, "tags": {"amenity": "bicycle_rental", "bicycle_rental": "docking_station", "capacity": "16", "name": "Volkspark Friedrichshain / Virchowstraße", "network": "call-a-bike", "operator": "Deutsche Bahn Connect GmbH", "ref": "1208", "wheelchair": "limited"}}, {"type": "node", "id": 3505058078, "lat": 52.3963967, "lon": 13.0900425, "tags": {"amenity": "bicycle_rental", "name": "AKTVIT - Fahrradträger für Anhängerkupplung (Vermietung)", "note": "Es können Fahrradheckträger für bis zu 3 Fahrräder von Thule gemietet werden.", "website": "http://www.aktvit.de/"}}, {"type": "node", "id": 3524049657, "lat": 52.5367212, "lon": 13.3972119, "tags": {"amenity": "bicycle_rental", "bicycle_rental": "docking_station", "capacity": "20", "contact:phone": "+49 30 12086364", "contact:website": "https://www.deezernextbike.de/", "covered": "no", "fee": "yes", "network": "Deezer nextbike", "operator": "nextbike GmbH", "ref": "1232", "ref_name": "U-Bernauer Straße", "wheelchair": "yes"}}, {"type": "node", "id": 3526657772, "lat": 52.5294756, "lon": 13.4003457, "tags": {"amenity": "bicycle_rental", "bicycle_rental": "dropoff_point", "capacity": "16", "name": "U-Rosenthaler Platz / Torstraße", "network": "call-a-bike", "operator": "Deutsche Bahn Connect GmbH", "ref": "1141", "wheelchair": "yes"}}, {"type": "node", "id": 3531014393, "lat": 52.5056298, "lon": 13.3238849, "tags": {"amenity": "bicycle_rental", "operator": "Rentabike-berlin.de"}}, {"type": "node", "id": 3532698373, "lat": 52.5035499, "lon": 13.3274649, "tags": {"amenity": "bicycle_rental", "name": "Rent a bike"}}, {"type": "node", "id": 3561939752, "lat": 52.5078137, "lon": 13.4496307, "tags": {"amenity": "bicycle_rental", "bicycle_rental": "docking_station", "capacity": "11", "name": "Helsingforser Platz / Warschauer Straße", "network": "call-a-bike", "operator": "Deutsche Bahn Connect GmbH", "ref": "1392"}}, {"type": "node", "id": 3561939756, "lat": 52.5174148, "lon": 13.4413841, "tags": {"amenity": "bicycle_rental", "bicycle_rental": "docking_station", "capacity": "15", "name": "Straße der Pariser Kommune / Karl-Marx-Allee", "network": "call-a-bike", "operator": "Deutsche Bahn Connect GmbH", "ref": "1301", "wheelchair": "yes"}}, {"type": "node", "id": 3561939757, "lat": 52.5156131, "lon": 13.45344, "tags": {"amenity": "bicycle_rental", "bicycle_rental": "docking_station", "capacity": "10", "contact:phone": "+49 30 12086364", "contact:website": "https://www.deezernextbike.de/", "covered": "no", "fee": "yes", "network": "Deezer nextbike", "operator": "nextbike GmbH", "ref": "1459", "ref_name": "U Frankfurter Tor", "wheelchair": "yes"}}, {"type": "node", "id": 3561939758, "lat": 52.5032008, "lon": 13.4456129, "tags": {"amenity": "bicycle_rental", "bicycle_rental": "dropoff_point", "capacity": "16", "name": "Warschauer Straße / Mühlenstraße", "network": "call-a-bike", "operator": "Deutsche Bahn Connect GmbH", "ref": "1390", "wheelchair": "yes"}}, {"type": "node", "id": 3608517040, "lat": 52.515478, "lon": 13.4721096, "tags": {"amenity": "bicycle_rental", "bicycle_rental": "dropoff_point", "capacity": "16", "contact:phone": "+49 30 12086364", "contact:website": "https://www.deezernextbike.de/", "covered": "no", "fee": "yes", "network": "Deezer nextbike", "operator": "nextbike GmbH", "ref": "1460", "ref_name": "Schleidenplatz"}}, {"type": "node", "id": 3608517041, "lat": 52.5005369, "lon": 13.4522707, "tags": {"amenity": "bicycle_rental", "bicycle_rental": "dropoff_point", "capacity": "8", "name": "Stralauer Allee 4 / Coca-Cola", "network": "call-a-bike", "operator": "Deutsche Bahn Connect GmbH", "ref": "1391"}}, {"type": "node", "id": 3625765330, "lat": 52.5075875, "lon": 13.3890135, "tags": {"amenity": "bicycle_rental", "capacity": "20", "name": "Checkpoint Charlie", "network": "call-a-bike", "operator": "Deutsche Bahn Connect GmbH", "ref": "1187"}}, {"type": "node", "id": 3625765331, "lat": 52.4972152, "lon": 13.3801403, "tags": {"amenity": "bicycle_rental", "bicycle_rental": "docking_station", "brand": "Call a Bike", "brand:wikidata": "Q1060525", "capacity": "10", "name": "Obentrautstraße / Möckernstraße", "network": "Call a Bike", "network:wikidata": "Q1060525", "operator": "Deutsche Bahn Connect", "operator:wikidata": "Q1152100", "ref": "1350", "wheelchair": "yes"}}, {"type": "node", "id": 3666234835, "lat": 52.4953278, "lon": 13.4048457, "tags": {"amenity": "bicycle_rental", "bicycle_rental": "docking_station", "brand": "nextbike", "brand:wikidata": "Q2351279", "capacity": "13", "contact:phone": "+49 30 12086364", "covered": "no", "fee": "yes", "network": "nextbike Berlin", "opening_hours": "24/7", "operator": "Nextbike", "operator:type": "private", "ref": "1452", "ref_name": "Baerwaldstraße"}}, {"type": "node", "id": 3666234836, "lat": 52.4945797, "lon": 13.4152568, "tags": {"amenity": "bicycle_rental", "bicycle_rental": "docking_station", "capacity": "12", "contact:phone": "+49 30 12086364", "contact:website": "https://www.deezernextbike.de/", "covered": "no", "fee": "yes", "lit": "yes", "network": "Deezer nextbike", "opening_hours": "24/7", "operator": "nextbike GmbH", "ref": "1453", "ref_name": "Grimmstraße"}}, {"type": "node", "id": 3666234837, "lat": 52.4870944, "lon": 13.4223463, "tags": {"amenity": "bicycle_rental", "bicycle_rental": "docking_station", "capacity": "8", "contact:phone": "+49 30 12086364", "contact:website": "https://www.deezernextbike.de/", "covered": "no", "fee": "yes", "lit": "yes", "network": "Deezer nextbike", "opening_hours": "24/7", "operator": "nextbike GmbH", "ref": "1454", "ref_name": "U Hermannplatz/Hasenheide"}}, {"type": "node", "id": 3709297100, "lat": 52.4816696, "lon": 13.3568228, "tags": {"amenity": "bicycle_rental", "name": "EUREF / Gasometer", "network": "call-a-bike", "operator": "Deutsche Bahn Connect GmbH", "ref": "1515"}}, {"type": "node", "id": 3709297101, "lat": 52.4699929, "lon": 13.4414485, "tags": {"amenity": "bicycle_rental", "bicycle_rental": "docking_station", "capacity": "8", "contact:phone": "+49 30 12086364", "contact:website": "https://www.deezernextbike.de/", "covered": "no", "fee": "yes", "lit": "yes", "network": "Deezer nextbike", "opening_hours": "24/7", "operator": "nextbike GmbH", "ref": "1585", "ref_name": "S Neukölln"}}, {"type": "node", "id": 3710356958, "lat": 52.4889874, "lon": 13.3946648, "tags": {"amenity": "bicycle_rental", "bicycle_rental": "docking_station", "capacity": "8", "contact:phone": "+49 30 12086364", "contact:website": "https://www.deezernextbike.de/", "covered": "no", "fee": "yes", "lit": "yes", "network": "Deezer nextbike", "opening_hours": "24/7", "operator": "nextbike GmbH", "ref": "1450", "ref_name": "Marheinekeplatz"}}, {"type": "node", "id": 3799527247, "lat": 52.4983409, "lon": 13.3241998, "tags": {"addr:city": "Berlin", "addr:country": "DE", "addr:housenumber": "45", "addr:postcode": "10719", "addr:street": "Uhlandstraße", "addr:suburb": "Wilmersdorf", "amenity": "bicycle_rental", "brand": "Swapfiets", "brand:wikidata": "Q62104374", "contact:website": "https://swapfiets.de/", "name": "Swapfiets", "network": "Swapfiets", "network:wikidata": "Q62104374", "opening_hours": "Mo-Sa 12:00-18:00; Su off", "operator": "Swapfiets", "operator:wikidata": "Q62104374", "service:bicycle:pump": "no", "service:bicycle:rental": "yes", "service:bicycle:retail": "no", "wheelchair": "no"}}, {"type": "node", "id": 3946739753, "lat": 52.5233755, "lon": 13.3319378, "tags": {"amenity": "bicycle_rental", "bicycle_rental": "shop", "description": "5 Euro for customers, 10 Euro else.", "fee": "yes", "name": "Hotel Les Nations", "opening_hours": "Mo-Fr 07:00-21:00; Sa,Su 08:00-18:00", "operator": "Hotel Les Nations", "shop": "rental", "wheelchair": "limited"}}, {"type": "node", "id": 4226875720, "lat": 52.5329499, "lon": 13.4139691, "tags": {"amenity": "bicycle_rental", "name": "Kollwitz 45 Surf House", "wheelchair": "yes"}}, {"type": "node", "id": 4261575772, "lat": 52.5288145, "lon": 13.4056331, "tags": {"addr:city": "Berlin", "addr:country": "DE", "addr:housenumber": "58", "addr:postcode": "10119", "addr:street": "Linienstraße", "addr:suburb": "Mitte", "amenity": "bicycle_rental", "bicycle_rental": "shop", "name": "Mietradmitte", "shop": "rental", "website": "https://www.mietradmitte.de/", "wheelchair": "no"}}, {"type": "node", "id": 4364985697, "lat": 52.3692253, "lon": 13.1404253, "tags": {"amenity": "bicycle_rental", "brand": "nextbike", "brand:wikidata": "Q2351279", "brand:wikipedia": "de:Nextbike", "contact:email": "kundenservice@nextbike.de", "contact:facebook": "https://www.facebook.com/nextbike/", "contact:instagram": "https://www.instagram.com/nextbike_de/", "contact:phone": "+49 30 692 05046", "contact:twitter": "https://twitter.com/nextbike", "contact:website": "https://www.nextbike.de/potsdam/de/", "contact:xing": "https://www.xing.com/companies/nextbikegmbh", "contact:youtube": "https://www.youtube.com/user/nextbikede", "fee": "yes", "name": "Gartenstadt Drewitz", "network": "PotsdamRad", "operator": "nextbike GmbH", "operator:type": "business", "operator:wikidata": "Q2351279", "operator:wikipedia": "de:Nextbike", "ref": "5245;Gartenstadt Drewitz"}}, {"type": "node", "id": 4484956595, "lat": 52.5028205, "lon": 13.484883, "tags": {"amenity": "bicycle_rental", "bicycle_rental": "dropoff_point", "brand": "nextbike", "brand:wikidata": "Q2351279", "brand:wikipedia": "de:Nextbike", "network": "nextbike Berlin", "opening_hours": "24/7", "operator": "Nextbike", "operator:type": "private", "ref": "1191"}}, {"type": "node", "id": 4617726083, "lat": 52.5096025, "lon": 13.4978695, "tags": {"amenity": "bicycle_rental", "bicycle_rental": "docking_station", "brand": "nextbike", "brand:wikidata": "Q2351279", "brand:wikipedia": "de:Nextbike", "capacity": "10", "name": "nextbike", "network": "nextbike Berlin", "operator": "Nextbike", "operator:type": "private", "ref": "1193"}}, {"type": "node", "id": 4620039775, "lat": 52.5158863, "lon": 13.4793587, "tags": {"amenity": "bicycle_rental", "bicycle_rental": "docking_station", "brand": "nextbike", "brand:wikidata": "Q2351279", "brand:wikipedia": "de:Nextbike", "capacity": "8", "name": "nextbike", "network": "nextbike Berlin", "operator": "Nextbike", "operator:type": "private", "ref": "1188"}}, {"type": "node", "id": 4623395303, "lat": 52.5133359, "lon": 13.477207, "tags": {"amenity": "bicycle_rental", "bicycle_rental": "docking_station", "brand": "nextbike", "brand:wikidata": "Q2351279", "brand:wikipedia": "de:Nextbike", "capacity": "8", "name": "nextbike", "network": "nextbike Berlin", "operator": "Nextbike", "operator:type": "private", "ref": "1189"}}, {"type": "node", "id": 4716470191, "lat": 52.3821975, "lon": 13.1411841, "tags": {"amenity": "bicycle_rental", "capacity": "6", "fee": "yes", "name": "Steinstraße", "network": "PotsdamRad", "operator": "nextbike GmbH", "operator:type": "private", "ref": "5243"}}, {"type": "node", "id": 4773022893, "lat": 52.3756913, "lon": 13.1284978, "tags": {"amenity": "bicycle_rental", "brand": "nextbike", "brand:wikidata": "Q2351279", "brand:wikipedia": "de:Nextbike", "contact:email": "kundenservice@nextbike.de", "contact:facebook": "https://www.facebook.com/nextbike/", "contact:instagram": "https://www.instagram.com/nextbike_de/", "contact:phone": "+49 30 692 05046", "contact:twitter": "https://twitter.com/nextbike", "contact:website": "https://www.nextbike.de/potsdam/de/", "contact:xing": "https://www.xing.com/companies/nextbikegmbh", "contact:youtube": "https://www.youtube.com/user/nextbikede", "fee": "yes", "name": "Johannes-Kepler-Platz", "network": "PotsdamRad", "operator": "nextbike GmbH", "operator:type": "business", "operator:wikidata": "Q2351279", "operator:wikipedia": "de:Nextbike"}}, {"type": "node", "id": 4792215796, "lat": 52.4583159, "lon": 13.546103, "tags": {"addr:city": "Berlin", "addr:country": "DE", "addr:housenumber": "193", "addr:postcode": "12459", "addr:street": "An der Wuhlheide", "addr:suburb": "Oberschöneweide", "amenity": "bicycle_rental", "operator": "Jugendverkehrsschule Treptow-Köpenick"}}, {"type": "node", "id": 4885751443, "lat": 52.5124308, "lon": 13.4887065, "tags": {"amenity": "bicycle_rental", "bicycle_rental": "dropoff_point", "brand": "nextbike", "brand:wikidata": "Q2351279", "brand:wikipedia": "de:Nextbike", "capacity": "8", "fee": "yes", "network": "nextbike Berlin", "operator": "Nextbike", "operator:type": "private", "ref": "1894"}}, {"type": "node", "id": 4945909040, "lat": 52.5126066, "lon": 13.4054648, "tags": {"amenity": "bicycle_rental", "contact:website": "http://berlinandbike.com/", "covered": "no", "fee": "yes", "note": "Info an Rezeption (Novotel Berlin Mitte)", "operator": "Rent a Bike FCC GmbH"}}, {"type": "node", "id": 4959065520, "lat": 52.4679465, "lon": 13.4308696, "tags": {"amenity": "bicycle_rental", "bicycle_rental": "dropoff_point", "capacity": "10", "contact:phone": "+49 30 12086364", "contact:website": "https://www.deezernextbike.de/", "covered": "no", "fee": "yes", "lit": "yes", "network": "Deezer nextbike", "opening_hours": "24/7", "operator": "nextbike GmbH", "ref": "1582", "ref_name": "S+U Hermannstraße"}}, {"type": "node", "id": 4959067322, "lat": 52.4728121, "lon": 13.428575, "tags": {"amenity": "bicycle_rental", "capacity": "15", "contact:phone": "+49 30 12086364", "contact:website": "https://www.deezernextbike.de/", "covered": "no", "fee": "yes", "network": "Deezer nextbike", "opening_hours": "24/7", "operator": "nextbike GmbH", "ref": "1583", "ref_name": "U Leinestraße", "wheelchair": "yes"}}, {"type": "node", "id": 4959116188, "lat": 52.4735091, "lon": 13.4408447, "tags": {"amenity": "bicycle_rental", "bicycle_rental": "docking_station", "capacity": "9", "contact:phone": "+49 30 12086364", "contact:website": "https://www.deezernextbike.de/", "covered": "no", "fee": "yes", "network": "Deezer nextbike", "opening_hours": "24/7", "operator": "nextbike GmbH", "ref": "1580", "ref_name": "U Karl-Marx-Straße"}}, {"type": "node", "id": 4972817373, "lat": 52.5425118, "lon": 13.3754778, "tags": {"addr:housenumber": "30", "addr:street": "Neue Hochstraße", "amenity": "bicycle_rental", "bicycle_rental": "docking_station", "brand": "nextbike", "brand:wikidata": "Q2351279", "brand:wikipedia": "de:Nextbike", "capacity": "14", "check_date": "2023-01-30", "covered": "no", "fee": "yes", "level": "0", "name": "Neue Hochstraße", "network": "nextbike Berlin", "operator": "Nextbike", "operator:type": "private", "payment:google_pay": "yes", "payment:mastercard": "yes", "payment:paypal": "yes", "payment:visa": "yes", "ref": "1250", "ref_name": "Neue Hochstraße", "wheelchair": "yes"}}, {"type": "node", "id": 5020959405, "lat": 52.5376231, "lon": 13.4015868, "tags": {"amenity": "bicycle_rental", "bicycle_rental": "docking_station", "capacity": "18", "contact:phone": "+49 30 12086364", "contact:website": "https://www.deezernextbike.de/", "covered": "no", "fee": "yes", "network": "Deezer nextbike", "operator": "nextbike GmbH", "ref": "1233", "ref_name": "Arkonaplatz"}}, {"type": "node", "id": 5109781022, "lat": 52.5259985, "lon": 13.3651648, "tags": {"amenity": "bicycle_rental", "bicycle_rental": "shop", "name": "Lehrter Shop", "shop": "rental", "wheelchair": "limited"}}, {"type": "node", "id": 5171487415, "lat": 52.5220273, "lon": 13.4080932, "tags": {"addr:city": "Berlin", "addr:housenumber": "13", "addr:postcode": "10178", "addr:street": "Karl-Liebknecht-Straße", "amenity": "bicycle_rental", "bicycle_rental": "shop", "brand": "Swapfiets", "brand:wikidata": "Q62104374", "fee": "yes", "level": "0", "name": "Swapfiets", "network": "Swapfiets", "network:wikidata": "Q62104374", "operator": "Swapfiets", "operator:wikidata": "Q62104374", "service:bicycle:rental": "yes", "shop": "rental", "website": "https://swapfiets.de/", "wheelchair": "yes"}}, {"type": "node", "id": 5214782211, "lat": 52.4804968, "lon": 13.4243327, "tags": {"amenity": "bicycle_rental", "bicycle_rental": "docking_station", "capacity": "9", "contact:website": "https://www.nextbike.de/", "covered": "no", "fee": "yes", "network": "Deezer nextbike", "operator": "nextbike GmbH", "operator:type": "private", "ref": "1591", "ref_name": "U Boddinstraße"}}, {"type": "node", "id": 5493801717, "lat": 52.5120279, "lon": 13.3175898, "tags": {"amenity": "bicycle_rental", "bicycle_rental": "docking_station", "brand": "nextbike", "brand:wikidata": "Q2351279", "brand:wikipedia": "de:Nextbike", "check_date": "2023-04-13", "fee": "yes", "network": "nextbike Berlin", "opening_hours": "24/7", "operator": "Nextbike", "operator:type": "private"}}, {"type": "node", "id": 5571881319, "lat": 52.4885783, "lon": 13.3526241, "tags": {"amenity": "bicycle_rental", "bicycle_rental": "docking_station", "capacity": "6", "fee": "yes", "name": "Merseburger Straße", "network": "nextbike", "operator": "nextbike GmbH", "operator:type": "private", "ref": "1805"}}, {"type": "node", "id": 5696776137, "lat": 52.5025374, "lon": 13.3445102, "tags": {"amenity": "bicycle_rental", "bicycle_rental": "shop", "name": "Ibis", "shop": "rental"}}, {"type": "node", "id": 5981262735, "lat": 52.4846622, "lon": 13.4337889, "tags": {"amenity": "bicycle_rental", "bicycle_rental": "docking_station", "capacity": "5", "contact:phone": "+49 30 12086364", "contact:website": "https://www.deezernextbike.de/", "covered": "no", "fee": "yes", "network": "Deezer nextbike", "opening_hours": "24/7", "operator": "nextbike GmbH", "ref": "1581", "ref_name": "Sonnenallee"}}, {"type": "node", "id": 5993762879, "lat": 52.5327711, "lon": 13.4757601, "tags": {"amenity": "bicycle_rental", "bicycle_rental": "docking_station", "brand": "nextbike", "brand:wikidata": "Q2351279", "brand:wikipedia": "de:Nextbike", "capacity": "10", "fee": "yes", "name": "nextbike", "network": "nextbike Berlin", "operator": "Nextbike", "operator:type": "private", "ref": "1898", "wheelchair": "yes"}}, {"type": "node", "id": 6044426190, "lat": 52.5015733, "lon": 13.3837335, "tags": {"amenity": "bicycle_rental"}}, {"type": "node", "id": 6321505038, "lat": 52.5010708, "lon": 13.422661, "tags": {"access": "customers", "amenity": "bicycle_rental", "bicycle_rental": "institutional", "brand": "fLotte", "brand:wikidata": "Q102333872", "capacity": "1", "description": "Bakfiets CargoTrike Classic Narrow mit 2 Kinderbänken", "description:location": "Frauenzentrum Schokofabrik / OYA", "image": "https://flotte-berlin.de/wp-content/uploads/2018/01/Lotte1.jpg", "name": "Lotte", "operator": "ADFC", "operator:wikidata": "Q24349", "operator:wikipedia": "de:ADFC", "rental": "cargo_bike", "website": "https://flotte-berlin.de/cb-items/lotte"}}, {"type": "node", "id": 6321514112, "lat": 52.5439682, "lon": 13.4150928, "tags": {"access": "customers", "amenity": "bicycle_rental", "bicycle_rental": "institutional", "brand": "fLotte", "brand:wikidata": "Q102333872", "capacity": "1", "contact:website": "https://flotte-berlin.de/cb-items/luise/", "description": "Bakfiets CargoBike Classic Long mit 1 Kinderbank", "description:location": "Café Butter", "image": "https://flotte-berlin.de/wp-content/uploads/2017/12/Luise.jpg", "name": "Luise", "opening_hours": "Mo 09:00-11:00,14:00-17:00; Tu-Fr 09:00-11:00,14:00-23:00; Sa 16:00-22:00; Su,PH off", "operator": "ADFC", "operator:wikidata": "Q24349", "operator:wikipedia": "de:ADFC", "rental": "cargo_bike", "website": "https://flotte-berlin.de/cb-items/luise"}}, {"type": "node", "id": 6321524843, "lat": 52.51223, "lon": 13.4951806, "tags": {"access": "customers", "amenity": "bicycle_rental", "bicycle_rental": "institutional", "brand": "fLotte", "brand:wikidata": "Q102333872", "capacity": "1", "description": "Bakfiets CargoTrike Classic Wide mit 2 Kinderbänken", "description:location": "Bioladen NaturPur", "image": "https://flotte-berlin.de/wp-content/uploads/2018/01/Lukas.jpg", "name": "Lukas", "opening_hours": "Mo-Fr 10:00-19:00; Sa 09:30-14:30", "operator": "ADFC", "operator:wikidata": "Q24349", "operator:wikipedia": "de:ADFC", "rental": "cargo_bike", "website": "https://flotte-berlin.de/cb-items/lukas"}}, {"type": "node", "id": 6321527780, "lat": 52.474225, "lon": 13.328743, "tags": {"access": "customers", "amenity": "bicycle_rental", "bicycle_rental": "institutional", "brand": "fLotte", "brand:wikidata": "Q102333872", "capacity": "1", "description": "Bakfiets CargoTrike Classic Wide mit 2 Kinderbänken", "description:location": "Buchhandlung Zauberberg", "image": "https://flotte-berlin.de/wp-content/uploads/2018/06/Frieda.jpg", "name": "Frieda", "opening_hours": "Mo-Fr 10:00-19:00; Sa 10:00-14:00", "operator": "ADFC", "operator:wikidata": "Q24349", "operator:wikipedia": "de:ADFC", "rental": "cargo_bike", "website": "https://flotte-berlin.de/cb-items/frieda"}}, {"type": "node", "id": 6321543808, "lat": 52.5343, "lon": 13.5132452, "tags": {"access": "customers", "amenity": "bicycle_rental", "bicycle_rental": "institutional", "brand": "fLotte", "brand:wikidata": "Q102333872", "capacity": "2", "description": "Bakfiets CargoTrike Classic Wide mit 2 Kinderbänken", "description:location": "IKEA Lichtenberg", "image": "https://flotte-berlin.de/wp-content/uploads/2018/10/Margaretha.jpg", "name": "Margaretha; Annika", "opening_hours": "Mo-Sa 10:00-20:00", "operator": "ADFC", "operator:wikidata": "Q24349", "operator:wikipedia": "de:ADFC", "rental": "cargo_bike", "website": "https://flotte-berlin.de/cb-items/margaretha"}}, {"type": "node", "id": 6342186152, "lat": 52.4900863, "lon": 13.4487673, "tags": {"access": "customers", "amenity": "bicycle_rental", "bicycle_rental": "institutional", "brand": "fLotte", "brand:wikidata": "Q102333872", "capacity": "2", "description": "PFAU-Tec Jumbo ohne Kinderbank (Walter) und Bakfiets CargoTrike Classic Wide mit 2 Kinderbänken und Regenverdeck (Inge)", "description:location": "Fahrradpraxis Jürgen Albrecht", "image": "https://flotte-berlin.de/wp-content/uploads/2018/01/Walter.jpg", "name": "Walter; Inge", "opening_hours": "Tu-Fr 10:00-20:00; Sa 10:00-16:00", "operator": "ADFC", "operator:wikidata": "Q24349", "operator:wikipedia": "de:ADFC", "rental": "cargo_bike", "website": "https://flotte-berlin.de/cb-items/walter"}}, {"type": "node", "id": 6351879209, "lat": 52.5252817, "lon": 13.4673508, "tags": {"amenity": "bicycle_rental", "bicycle_rental": "docking_station", "brand": "nextbike", "brand:wikidata": "Q2351279", "brand:wikipedia": "de:Nextbike", "capacity": "5", "fee": "yes", "name": "nextbike", "network": "nextbike Berlin", "operator": "Nextbike", "operator:type": "private", "ref": "1880", "wheelchair": "yes"}}, {"type": "node", "id": 6351880541, "lat": 52.5279924, "lon": 13.4686644, "tags": {"amenity": "bicycle_rental", "bicycle_rental": "docking_station", "brand": "nextbike", "brand:wikidata": "Q2351279", "brand:wikipedia": "de:Nextbike", "capacity": "5", "fee": "yes", "name": "nextbike", "network": "nextbike Berlin", "operator": "Nextbike", "operator:type": "private", "ref": "1881", "wheelchair": "yes"}}, {"type": "node", "id": 6352088554, "lat": 52.5289881, "lon": 13.4569517, "tags": {"amenity": "bicycle_rental", "bicycle_rental": "docking_station", "brand": "nextbike", "brand:wikidata": "Q2351279", "brand:wikipedia": "de:Nextbike", "capacity": "5", "fee": "yes", "name": "nextbike", "network": "nextbike Berlin", "operator": "Nextbike", "operator:type": "private", "ref": "1541", "website": "https://www.nextbike.de/", "wheelchair": "yes"}}, {"type": "node", "id": 6388055820, "lat": 52.3907757, "lon": 13.1212612, "tags": {"amenity": "bicycle_rental", "bicycle_parking": "rack", "bicycle_rental": "docking_station", "brand": "nextbike", "brand:wikidata": "Q2351279", "brand:wikipedia": "de:Nextbike", "capacity": "10", "contact:email": "kundenservice@nextbike.de", "contact:facebook": "https://www.facebook.com/nextbike/", "contact:instagram": "https://www.instagram.com/nextbike_de/", "contact:linkedin": "https://www.linkedin.com/company/nextbike", "contact:phone": "+49 30 692 05046", "contact:twitter": "https://twitter.com/nextbike", "contact:website": "https://www.nextbike.de/potsdam/de/", "contact:xing": "https://www.xing.com/companies/nextbikegmbh", "contact:youtube": "https://www.youtube.com/user/nextbikede", "name": "5235 RBB nextbike station", "network": "PotsdamRad", "operator": "nextbike GmbH", "operator:type": "business", "operator:wikidata": "Q2351279", "operator:wikipedia": "de:Nextbike", "ref": "5235", "ref_name": "RBB"}}, {"type": "node", "id": 6395608538, "lat": 52.5163563, "lon": 13.4542142, "tags": {"amenity": "bicycle_rental", "bicycle_rental": "dropoff_point", "network": "call-a-bike", "operator": "Deutsche Bahn Connect GmbH", "ref": "10636", "wheelchair": "yes"}}, {"type": "node", "id": 6413646973, "lat": 52.5051041, "lon": 13.385951, "tags": {"addr:housenumber": "11", "addr:street": "Anhalter Straße", "amenity": "bicycle_rental", "bicycle_rental": "shop", "charge": "12 EUR/d", "email": "info@rentabike-berlin.de", "name": "Fahrrad Werkstatt", "opening_hours": "PH,Mo-Su 10:00-15:00", "phone": "+49 30 24037867", "shop": "rental", "website": "https://www.rentabike-berlin.de/", "wheelchair": "yes"}}, {"type": "node", "id": 6434271234, "lat": 52.5317438, "lon": 13.4321951, "tags": {"amenity": "bicycle_rental", "fee": "yes"}}, {"type": "node", "id": 6436729823, "lat": 52.5044976, "lon": 13.3819158, "tags": {"amenity": "bicycle_rental", "bicycle_rental": "docking_station", "capacity": "10", "covered": "no", "fee": "yes", "name": "S Anhalter Bahnhof", "network": "Deezer nextbike", "operator": "nextbike GmbH", "operator:type": "private", "ref": "1442", "ref_name": "S Anhalter Bahnhof"}}, {"type": "node", "id": 6457352269, "lat": 52.4935295, "lon": 13.3708206, "tags": {"amenity": "bicycle_rental", "bicycle_rental": "shop", "capacity": "5", "contact:website": "https://www.hellweg.de/Service/Miettransporter-Anhaenger-mieten/", "description": "Lastenräder", "network": "Hellweg Lastenräder", "opening_hours": "24/7", "operator": "Hellweg", "operator:type": "business"}}, {"type": "node", "id": 6501540658, "lat": 52.4709879, "lon": 13.448039, "tags": {"amenity": "bicycle_rental", "capacity": "14", "contact:phone": "+49 30 12086364", "contact:website": "https://www.deezernextbike.de/", "covered": "no", "fee": "yes", "network": "Deezer nextbike", "opening_hours": "24/7", "operator": "nextbike GmbH", "ref": "1607", "ref_name": "Unstrutstraße"}}, {"type": "node", "id": 6564968026, "lat": 52.4911493, "lon": 13.3965464, "tags": {"amenity": "bicycle_rental", "fee": "yes", "network": "Deezer nextbike", "operator": "nextbike GmbH", "operator:type": "private", "ref": "1477"}}, {"type": "node", "id": 6597351860, "lat": 52.477468, "lon": 13.4489369, "tags": {"amenity": "bicycle_rental", "bicycle_rental": "dropoff_point", "capacity": "7", "contact:phone": "+49 30 12086364", "contact:website": "https://www.deezernextbike.de/", "covered": "no", "fee": "yes", "network": "Deezer nextbike", "opening_hours": "24/7", "operator": "nextbike GmbH", "ref": "1608", "ref_name": "Sonnenallee/Treptower Straße"}}, {"type": "node", "id": 6618695860, "lat": 52.5491621, "lon": 13.4169038, "tags": {"alt_name": "Mobilitätshub Schönhauser Allee", "amenity": "bicycle_rental", "bicycle_rental": "dropoff_point", "brand": "nextbike", "brand:wikidata": "Q2351279", "capacity": "5", "contact:phone": "+49 30 12086364", "covered": "no", "fee": "yes", "network": "nextbike Berlin", "operator": "Nextbike", "operator:type": "private", "ref": "1550", "ref_name": "Jelbi-Station S+U Schönhauser Allee"}}, {"type": "node", "id": 6626956381, "lat": 52.5000021, "lon": 13.3213084, "tags": {"amenity": "bicycle_rental", "bicycle_rental": "docking_station", "brand": "nextbike", "brand:wikidata": "Q2351279", "brand:wikipedia": "de:Nextbike", "capacity": "12", "name": "nextbike", "network": "nextbike Berlin", "operator": "Nextbike", "operator:type": "private", "ref": "1643"}}, {"type": "node", "id": 6694598051, "lat": 52.5020498, "lon": 13.4251739, "tags": {"amenity": "bicycle_rental", "bicycle_rental": "docking_station", "brand": "nextbike", "brand:wikidata": "Q2351279", "capacity": "7", "contact:phone": "+49 30 12086364", "covered": "no", "fee": "yes", "lit": "yes", "network": "nextbike Berlin", "opening_hours": "24/7", "operator": "Nextbike", "operator:type": "private", "ref": "1494", "ref_name": "Mariannenplatz"}}, {"type": "node", "id": 6694598056, "lat": 52.5019325, "lon": 13.4162518, "tags": {"amenity": "bicycle_rental", "bicycle_rental": "docking_station", "brand": "nextbike", "brand:wikidata": "Q2351279", "capacity": "14", "contact:phone": "+49 30 12086364", "covered": "no", "fee": "yes", "network": "nextbike Berlin", "opening_hours": "24/7", "operator": "Nextbike", "operator:type": "private", "ref": "1445", "ref_name": "Oranienplatz", "wheelchair": "yes"}}, {"type": "node", "id": 6744214854, "lat": 52.4822146, "lon": 13.4087276, "tags": {"amenity": "bicycle_rental", "bicycle_rental": "docking_station", "capacity": "5", "contact:phone": "+49 30 12086364", "contact:website": "https://www.deezernextbike.de/", "covered": "no", "fee": "yes", "network": "Deezer nextbike", "opening_hours": "24/7", "operator": "nextbike GmbH", "ref": "1600", "ref_name": "Columbiadamm"}}, {"type": "node", "id": 6754950704, "lat": 52.5227919, "lon": 13.4732727, "tags": {"amenity": "bicycle_rental", "bicycle_rental": "docking_station", "brand": "nextbike", "brand:wikidata": "Q2351279", "brand:wikipedia": "de:Nextbike", "capacity": "9", "name": "nextbike", "network": "nextbike Berlin", "operator": "Nextbike", "operator:type": "private", "ref": "1871", "website": "https://www.nextbike.de/", "wheelchair": "yes"}}, {"type": "node", "id": 6755046406, "lat": 52.5364292, "lon": 13.2949861, "tags": {"amenity": "bicycle_rental", "fee": "yes", "name": "Jelbi-Station U Jakob-Kaiser-Platz", "operator": "BVG, Tier, Nextbike"}}, {"type": "node", "id": 6775830987, "lat": 52.4777619, "lon": 13.4287156, "tags": {"amenity": "bicycle_rental", "capacity": "5", "contact:phone": "+49 30 12086364", "contact:website": "https://www.deezernextbike.de/", "covered": "no", "fee": "yes", "network": "Deezer nextbike", "opening_hours": "24/7", "operator": "nextbike GmbH", "operator:type": "private", "ref": "1613", "ref_name": "Werbellinstr./Falkstr."}}, {"type": "node", "id": 6786616205, "lat": 52.4899644, "lon": 13.4291527, "tags": {"amenity": "bicycle_rental", "capacity": "5", "contact:phone": "+49 30 12086364", "contact:website": "https://www.deezernextbike.de/", "covered": "no", "fee": "yes", "lit": "yes", "network": "Deezer nextbike", "opening_hours": "24/7", "operator": "nextbike GmbH", "ref": "1594", "ref_name": "Reuterplatz"}}, {"type": "node", "id": 6816242146, "lat": 52.4654061, "lon": 13.4423257, "tags": {"amenity": "bicycle_rental", "bicycle_rental": "docking_station", "capacity": "4", "contact:phone": "+49 30 12086364", "contact:website": "https://www.deezernextbike.de/", "covered": "no", "fee": "yes", "network": "Deezer nextbike", "opening_hours": "24/7", "operator": "nextbike GmbH", "ref": "1605", "ref_name": "Karl-Marx-Straße/Delbrückstraße"}}, {"type": "node", "id": 6846266544, "lat": 52.3881991, "lon": 13.1223683, "tags": {"amenity": "bicycle_rental", "bicycle_rental": "docking_station", "brand": "nextbike", "brand:wikidata": "Q2351279", "brand:wikipedia": "de:Nextbike", "capacity": "8", "contact:email": "kundenservice@nextbike.de", "contact:facebook": "https://www.facebook.com/nextbike/", "contact:instagram": "https://www.instagram.com/nextbike_de/", "contact:phone": "+49 30 692 05046", "contact:twitter": "https://twitter.com/nextbike", "contact:website": "https://www.nextbike.de/potsdam/de/", "contact:xing": "https://www.xing.com/companies/nextbikegmbh", "contact:youtube": "https://www.youtube.com/user/nextbikede", "fee": "yes", "name": "Studio Babelsberg / Guido-Seeber-Haus", "network": "PotsdamRad", "operator": "nextbike GmbH", "operator:type": "business", "operator:wikidata": "Q2351279", "operator:wikipedia": "de:Nextbike", "ref": "5254"}}, {"type": "node", "id": 6853740043, "lat": 52.5305124, "lon": 13.3339053, "tags": {"amenity": "bicycle_rental", "bicycle_rental": "docking_station", "brand": "nextbike", "brand:wikidata": "Q2351279", "capacity": "5", "fee": "yes", "name": "nextbike", "network": "nextbike Berlin", "operator": "Nextbike", "operator:type": "private", "wheelchair": "yes"}}, {"type": "node", "id": 6873399521, "lat": 52.3825561, "lon": 13.1214014, "tags": {"amenity": "bicycle_rental", "bicycle_rental": "docking_station", "brand": "nextbike", "brand:wikidata": "Q2351279", "brand:wikipedia": "de:Nextbike", "capacity": "6", "contact:email": "kundenservice@nextbike.de", "contact:facebook": "https://www.facebook.com/nextbike/", "contact:instagram": "https://www.instagram.com/nextbike_de/", "contact:phone": "+49 30 692 05046", "contact:twitter": "https://twitter.com/nextbike", "contact:website": "https://www.nextbike.de/potsdam/de/", "contact:xing": "https://www.xing.com/companies/nextbikegmbh", "contact:youtube": "https://www.youtube.com/user/nextbikede", "fee": "yes", "name": "Bahnhof Medienstadt", "network": "PotsdamRad", "operator": "nextbike GmbH", "operator:type": "business", "operator:wikidata": "Q2351279", "operator:wikipedia": "de:Nextbike", "ref": "5242"}}, {"type": "node", "id": 6877768487, "lat": 52.5401743, "lon": 13.4136797, "tags": {"amenity": "bicycle_rental", "opening_hours": "24/7"}}, {"type": "node", "id": 6937974351, "lat": 52.5263822, "lon": 13.4469017, "tags": {"amenity": "bicycle_rental", "bicycle_rental": "docking_station", "brand": "nextbike", "brand:wikidata": "Q2351279", "brand:wikipedia": "de:Nextbike", "capacity": "16", "fee": "yes", "mapillary": "1054433708632804", "network": "nextbike Berlin", "operator": "Nextbike", "operator:type": "private", "wheelchair": "yes"}}, {"type": "node", "id": 6938066148, "lat": 52.5117888, "lon": 13.3843431, "tags": {"amenity": "bicycle_rental", "bicycle_rental": "docking_station", "brand": "nextbike", "brand:wikidata": "Q2351279", "brand:wikipedia": "de:Nextbike", "capacity": "12", "name": "nextbike", "network": "nextbike Berlin", "operator": "Nextbike", "operator:type": "private", "ref": "1208", "wheelchair": "limited"}}, {"type": "node", "id": 6961443033, "lat": 52.524269, "lon": 13.3686112, "tags": {"amenity": "bicycle_rental", "bicycle_rental": "docking_station", "brand": "nextbike", "brand:wikidata": "Q2351279", "brand:wikipedia": "de:Nextbike", "capacity": "8", "fee": "yes", "network": "nextbike Berlin", "operator": "Nextbike", "operator:type": "private", "ref": "1376"}}, {"type": "node", "id": 6965019422, "lat": 52.5034899, "lon": 13.3951938, "tags": {"amenity": "bicycle_rental", "bicycle_rental": "docking_station", "capacity": "7", "fee": "yes", "network": "Deezer nextbike", "operator": "nextbike GmbH", "operator:type": "private"}}, {"type": "node", "id": 6965201099, "lat": 52.5065899, "lon": 13.2825497, "tags": {"amenity": "bicycle_rental", "bicycle_rental": "dropoff_point", "brand": "nextbike", "brand:wikidata": "Q2351279", "brand:wikipedia": "de:Nextbike", "name": "nextbike", "network": "nextbike Berlin", "operator": "Nextbike", "operator:type": "private"}}, {"type": "node", "id": 6979263400, "lat": 52.527304, "lon": 13.449303, "tags": {"amenity": "bicycle_rental", "bicycle_rental": "dropoff_point", "capacity": "10", "contact:phone": "+49 30 12086364", "contact:website": "https://www.deezernextbike.de/", "covered": "no", "fee": "yes", "name": "Jelbi-Station Landsberger Allee/Petersburger Str.", "network": "Deezer nextbike", "opening_hours": "24/7", "operator": "nextbike GmbH", "operator:type": "private", "wheelchair": "yes"}}, {"type": "node", "id": 6985773444, "lat": 52.5099961, "lon": 13.3759399, "tags": {"amenity": "bicycle_rental", "bicycle_rental": "dropoff_point", "brand": "nextbike", "brand:wikidata": "Q2351279", "brand:wikipedia": "de:Nextbike", "name": "nextbike", "network": "nextbike Berlin", "note": "Station nur durch Stationsrad gekennzeichnet, keine Säule", "operator": "Nextbike", "operator:type": "private"}}, {"type": "node", "id": 7024422042, "lat": 52.4944355, "lon": 13.4246549, "tags": {"amenity": "bicycle_rental", "bicycle_rental": "docking_station", "capacity": "10", "contact:phone": "+49 30 12086364", "contact:website": "https://www.deezernextbike.de/", "covered": "no", "fee": "yes", "network": "Deezer nextbike", "opening_hours": "24/7", "operator": "nextbike GmbH", "ref": "1596", "ref_name": "Schinkestraße", "wheelchair": "no"}}, {"type": "node", "id": 7110243818, "lat": 52.4926109, "lon": 13.4303597, "tags": {"amenity": "bicycle_rental", "bicycle_rental": "docking_station", "capacity": "5", "contact:phone": "+49 30 12086364", "contact:website": "https://www.deezernextbike.de/", "covered": "no", "fee": "yes", "network": "Deezer nextbike", "opening_hours": "24/7", "operator": "nextbike GmbH", "ref": "1592", "ref_name": "Liberdastraße / Maybachufer"}}, {"type": "node", "id": 7133617544, "lat": 52.4851333, "lon": 13.444439, "tags": {"amenity": "bicycle_rental", "bicycle_rental": "docking_station", "capacity": "5", "contact:phone": "+49 30 12086364", "contact:website": "https://www.deezernextbike.de/", "covered": "no", "fee": "yes", "network": "Deezer nextbike", "opening_hours": "24/7", "operator": "nextbike GmbH", "ref": "1599", "ref_name": "Wildenbruchplatz"}}, {"type": "node", "id": 7168575591, "lat": 52.4529409, "lon": 13.3857525, "tags": {"amenity": "bicycle_rental", "ref_name": "Jelbi-Station U Ullsteinstraße"}}, {"type": "node", "id": 7193311437, "lat": 52.5442138, "lon": 13.3693945, "tags": {"amenity": "bicycle_rental", "bicycle_rental": "docking_station", "brand": "nextbike", "brand:wikidata": "Q2351279", "capacity": "10", "covered": "no", "fee": "yes", "name": "Nettelbeckplatz", "network": "nextbike Berlin", "opening_hours": "24/7", "operator": "Nextbike", "operator:type": "private", "ref": "1253", "ref_name": "Nettelbeckplatz"}}, {"type": "node", "id": 7193746305, "lat": 52.4960518, "lon": 13.4306507, "tags": {"amenity": "bicycle_rental", "bicycle_rental": "docking_station", "capacity": "5", "contact:phone": "+49 30 12086364", "contact:website": "https://www.deezernextbike.de/", "covered": "no", "fee": "yes", "network": "Deezer nextbike", "opening_hours": "24/7", "operator": "nextbike GmbH", "ref": "1631", "ref:name": "Ohlauer Straße/Reichenberger Straße"}}, {"type": "node", "id": 7212405642, "lat": 52.4869712, "lon": 13.4473584, "tags": {"amenity": "bicycle_rental", "bicycle_rental": "docking_station", "capacity": "10", "contact:phone": "+49 30 12086364", "contact:website": "https://www.deezernextbike.de/", "covered": "no", "fee": "yes", "network": "Deezer nextbike", "opening_hours": "24/7", "operator": "nextbike GmbH", "ref": "1597", "ref_name": "Wildenbruchstr."}}, {"type": "node", "id": 7217029077, "lat": 52.4831242, "lon": 13.3799521, "tags": {"amenity": "bicycle_rental", "brand": "nextbike", "brand:wikidata": "Q2351279", "capacity": "12", "network": "nextbike Berlin", "opening_hours": "24/7", "operator": "Nextbike", "operator:type": "private"}}, {"type": "node", "id": 7243560632, "lat": 52.5075799, "lon": 13.465151, "tags": {"amenity": "bicycle_rental", "bicycle_rental": "docking_station", "brand": "nextbike", "brand:wikidata": "Q2351279", "capacity": "5", "covered": "no", "fee": "yes", "network": "nextbike Berlin", "operator": "Nextbike", "operator:type": "private", "ref": "1506", "ref_name": "Wühlischstraße/Holteistraße"}}, {"type": "node", "id": 7296606437, "lat": 52.4949732, "lon": 13.4385669, "tags": {"amenity": "bicycle_rental", "bicycle_rental": "docking_station", "capacity": "10", "contact:phone": "+49 30 12086364", "contact:website": "https://www.deezernextbike.de/", "covered": "no", "fee": "yes", "lit": "no", "network": "Deezer nextbike", "opening_hours": "24/7", "operator": "nextbike GmbH", "ref": "1483", "ref_name": "Wiener Str. / Glogauer Str."}}, {"type": "node", "id": 7318572320, "lat": 52.5454076, "lon": 13.4039748, "tags": {"amenity": "bicycle_rental", "bicycle_rental": "docking_station", "capacity": "10", "contact:phone": "+49 30 12086364", "contact:website": "https://www.deezernextbike.de/", "covered": "no", "fee": "yes", "network": "Deezer nextbike", "operator": "nextbike GmbH", "ref": "1547", "ref_name": "Max-Schmeling-Halle"}}, {"type": "node", "id": 7319282614, "lat": 52.5289274, "lon": 13.4097786, "tags": {"amenity": "bicycle_rental", "wheelchair": "yes"}}, {"type": "node", "id": 7319905713, "lat": 52.5639401, "lon": 13.0982265, "tags": {"amenity": "bicycle_rental", "bicycle_parking": "wall_loops", "capacity": "20"}}, {"type": "node", "id": 7328944569, "lat": 52.5363087, "lon": 13.4202481, "tags": {"amenity": "bicycle_rental", "bicycle_rental": "docking_station", "brand": "nextbike", "brand:wikidata": "Q2351279", "capacity": "5", "check_date": "2022-09-26", "contact:phone": "+49 30 12086364", "covered": "no", "fee": "yes", "network": "nextbike Berlin", "opening_hours": "24/7", "operator": "Nextbike", "operator:type": "private"}}, {"type": "node", "id": 7329013824, "lat": 52.5466673, "lon": 13.4100408, "tags": {"amenity": "bicycle_rental", "bicycle_rental": "docking_station", "capacity": "5", "contact:phone": "+49 30 12086364", "contact:website": "https://www.deezernextbike.de/", "covered": "no", "fee": "yes", "network": "Deezer nextbike", "operator": "nextbike GmbH", "ref": "1546", "ref_name": "Cantianstraße"}}, {"type": "node", "id": 7335311028, "lat": 52.5310893, "lon": 13.433678, "tags": {"amenity": "bicycle_rental", "bicycle_rental": "docking_station", "brand": "nextbike", "brand:wikidata": "Q2351279", "capacity": "20", "contact:phone": "+49 30 12086364", "covered": "no", "fee": "yes", "fixme": "ref ergänzen", "network": "nextbike Berlin", "operator": "Nextbike", "operator:type": "private", "ref_name": "Hufelandstraße"}}, {"type": "node", "id": 7342957825, "lat": 52.5396039, "lon": 13.4016081, "tags": {"amenity": "bicycle_rental", "bicycle_rental": "docking_station", "capacity": "10", "contact:phone": "+49 30 12086364", "contact:website": "https://www.deezernextbike.de/", "covered": "no", "fee": "yes", "network": "Deezer nextbike", "operator": "nextbike GmbH", "ref": "1378", "ref_name": "Bernauer Straße / Wolliner Straße"}}, {"type": "node", "id": 7342965219, "lat": 52.530951, "lon": 13.3947818, "tags": {"amenity": "bicycle_rental", "bicycle_rental": "docking_station", "brand": "nextbike", "brand:wikidata": "Q2351279", "capacity": "8", "check_date": "2023-06-29", "contact:phone": "+49 30 12086364", "covered": "no", "fee": "yes", "network": "nextbike Berlin", "operator": "Nextbike", "operator:type": "private", "payment:credit_cards": "yes", "payment:debit_cards": "yes", "payment:paypal": "yes", "ref": "1228", "ref_name": "Bergstraße", "wheelchair": "no"}}, {"type": "node", "id": 7355082579, "lat": 52.5220504, "lon": 13.4109528, "tags": {"amenity": "bicycle_rental", "bicycle_rental": "docking_station", "capacity": "13", "contact:phone": "+49 30 12086364", "contact:website": "https://www.deezernextbike.de/", "covered": "no", "fee": "yes", "network": "Deezer nextbike", "operator": "nextbike GmbH", "ref": "1239", "ref_name": "S+U Alexanderplatz (Dircksenstraße)"}}, {"type": "node", "id": 7355157986, "lat": 52.5328387, "lon": 13.4168702, "tags": {"amenity": "bicycle_rental", "bicycle_rental": "docking_station", "brand": "nextbike", "brand:wikidata": "Q2351279", "capacity": "10", "contact:phone": "+49 30 12086364", "covered": "no", "fee": "yes", "network": "nextbike Berlin", "operator": "Nextbike", "operator:type": "private", "ref": "1549", "ref_name": "Straßburger Straße", "wheelchair": "yes"}}, {"type": "node", "id": 7359296581, "lat": 52.5294826, "lon": 13.3882799, "tags": {"amenity": "bicycle_rental", "bicycle_rental": "docking_station", "brand": "nextbike", "brand:wikidata": "Q2351279", "capacity": "11", "contact:phone": "+49 30 12086364", "contact:website": "https://www.nextbike.de/", "covered": "no", "fee": "yes", "network": "nextbike Berlin", "operator": "Nextbike", "operator:type": "private", "ref": "1195", "ref_name": "Tieckstraße"}}, {"type": "node", "id": 7389274493, "lat": 52.5375837, "lon": 13.4283117, "tags": {"amenity": "bicycle_rental", "bicycle_rental": "docking_station", "brand": "nextbike", "brand:wikidata": "Q2351279", "capacity": "10", "contact:phone": "+49 30 12086364", "covered": "no", "fee": "yes", "network": "nextbike Berlin", "operator": "Nextbike", "operator:type": "private", "ref": "1552", "ref_name": "Danziger Straße/Winsstraße", "wheelchair": "yes"}}, {"type": "node", "id": 7392377879, "lat": 52.5120516, "lon": 13.4618745, "tags": {"amenity": "bicycle_rental", "bicycle_rental": "docking_station", "brand": "nextbike", "brand:wikidata": "Q2351279", "capacity": "11", "contact:phone": "+49 30 12086364", "covered": "no", "fee": "yes", "network": "nextbike Berlin", "operator": "Nextbike", "operator:type": "private", "ref": "1469", "ref_name": "Boxhagener Straße"}}, {"type": "node", "id": 7398918911, "lat": 52.5125632, "lon": 13.4669943, "tags": {"amenity": "bicycle_rental", "bicycle_rental": "dropoff_point", "brand": "nextbike", "brand:wikidata": "Q2351279", "capacity": "5", "covered": "no", "fee": "yes", "network": "nextbike Berlin", "operator": "Nextbike", "operator:type": "private", "ref": "1511", "ref_name": "Jungstraße / Scharnweberstraße"}}, {"type": "node", "id": 7475686244, "lat": 52.5046872, "lon": 13.4350187, "tags": {"amenity": "bicycle_rental", "bicycle_rental": "docking_station", "bicycle_rental:position": "pedestrian_area", "brand": "nextbike", "brand:wikidata": "Q2351279", "brand:wikipedia": "de:Nextbike", "capacity": "10", "contact:phone": "+49 30 12086364", "contact:website": "https://www.deezernextbike.de/", "covered": "no", "fee": "yes", "network": "nextbike Berlin", "operator": "Nextbike", "operator:type": "private", "ref": "1486", "ref_name": "Köpenicker Straße/Eisenbahnstraße"}}, {"type": "node", "id": 7502699979, "lat": 52.5047044, "lon": 13.399575, "tags": {"amenity": "bicycle_rental", "bicycle_rental": "docking_station", "capacity": "5", "contact:phone": "+49 30 12086364", "contact:website": "https://www.deezernextbike.de/", "covered": "no", "fee": "yes", "network": "Deezer nextbike", "opening_hours": "24/7", "operator": "nextbike GmbH", "ref": "1394", "ref_name": "Ritterstraße/Alte Jakobstraße"}}, {"type": "node", "id": 7536994037, "lat": 52.513672, "lon": 13.4222599, "tags": {"amenity": "bicycle_rental", "bicycle_rental": "dropoff_point", "ref_name": "S+U Jannowitzbrücke/Holzmarktstr."}}, {"type": "node", "id": 7549284891, "lat": 52.5527395, "lon": 13.4210834, "tags": {"amenity": "bicycle_rental", "bicycle_rental": "docking_station", "bicycle_rental:position": "sidewalk", "brand": "nextbike", "brand:wikidata": "Q2351279", "capacity": "10", "contact:phone": "+49 30 12086364", "covered": "no", "fee": "yes", "network": "nextbike Berlin", "operator": "Nextbike", "operator:type": "private", "ref": "1562", "ref_name": "Wisbyer Straße/Lewaldstraße"}}, {"type": "node", "id": 7553531438, "lat": 52.5444297, "lon": 13.391405, "tags": {"amenity": "bicycle_rental", "bicycle_rental": "docking_station", "capacity": "10", "contact:phone": "+49 30 12086364", "contact:website": "https://www.deezernextbike.de/", "covered": "no", "fee": "yes", "network": "Deezer nextbike", "operator": "nextbike GmbH", "ref": "1365", "ref_name": "Brunnenstraße/Rügener Straße"}}, {"type": "node", "id": 7574890999, "lat": 52.5329008, "lon": 13.412381, "tags": {"amenity": "bicycle_rental", "bicycle_rental": "docking_station", "capacity": "10", "contact:phone": "+49 30 12086364", "contact:website": "https://www.deezernextbike.de/", "covered": "no", "fee": "yes", "network": "Deezer nextbike", "operator": "nextbike GmbH", "ref": "1543", "ref_name": "U Senefelder Platz"}}, {"type": "node", "id": 7575370768, "lat": 52.539472, "lon": 13.3884375, "tags": {"amenity": "bicycle_rental", "bicycle_rental": "docking_station", "capacity": "5", "check_date": "2023-11-10", "contact:phone": "+49 30 12086364", "contact:website": "https://www.deezernextbike.de/", "covered": "no", "fee": "yes", "network": "Deezer nextbike", "opening_hours": "24/7", "operator": "nextbike GmbH", "ref": "1364", "ref_name": "Jasmunder Straße / Usedomer Straße"}}, {"type": "node", "id": 7575380500, "lat": 52.5472573, "lon": 13.3942929, "tags": {"amenity": "bicycle_rental", "bicycle_rental": "docking_station", "capacity": "10", "contact:phone": "+49 30 12086364", "contact:website": "https://www.deezernextbike.de/", "covered": "no", "fee": "yes", "network": "Deezer nextbike", "operator": "nextbike GmbH", "ref": "10", "ref_name": "Swinemünder Straße / Ramlerstraße"}}, {"type": "node", "id": 7588562255, "lat": 52.4938742, "lon": 13.4611415, "tags": {"amenity": "bicycle_rental", "bicycle_rental": "docking_station", "bike_ride": "bus;light_rail", "capacity": "5", "contact:phone": "+49 30 12086364", "contact:website": "https://www.deezernextbike.de/", "covered": "no", "fee": "yes", "network": "Deezer nextbike", "operator": "nextbike GmbH", "ref": "1404", "ref_name": "S Treptower Park"}}, {"type": "node", "id": 7588568980, "lat": 52.5450917, "lon": 13.4273423, "tags": {"amenity": "bicycle_rental", "bicycle_rental": "docking_station", "capacity": "10", "contact:phone": "+49 30 12086364", "contact:website": "https://www.deezernextbike.de/", "covered": "no", "fee": "yes", "network": "Deezer nextbike", "operator": "nextbike GmbH", "ref": "1559", "ref_name": "S Prenzlauer Allee"}}, {"type": "node", "id": 7682968505, "lat": 52.5036283, "lon": 13.4948136, "tags": {"amenity": "bicycle_rental", "bicycle_rental": "docking_station", "brand": "nextbike", "brand:wikidata": "Q2351279", "capacity": "10", "check_date": "2020.07.14", "contact:website": "https://www.nextbike.de/", "fee": "yes", "network": "nextbike Berlin", "opening_hours": "24/7", "operator": "Nextbike", "operator:type": "private", "phone": "+49 30 12086364", "ref": "1874"}}, {"type": "node", "id": 7683797230, "lat": 52.5085809, "lon": 13.5254293, "tags": {"amenity": "bicycle_rental", "bicycle_rental": "dropoff_point", "brand": "nextbike", "brand:wikidata": "Q2351279", "capacity": "8", "fee": "yes", "network": "nextbike Berlin", "opening_hours": "24/7", "operator": "Nextbike", "operator:type": "private"}}, {"type": "node", "id": 7683872513, "lat": 52.4788596, "lon": 13.473877, "tags": {"amenity": "bicycle_rental", "bicycle_rental": "docking_station", "bike_ride": "bus;light_rail", "brand": "nextbike", "brand:wikidata": "Q2351279", "capacity": "7", "fee": "yes", "network": "nextbike Berlin", "opening_hours": "24/7", "operator": "Nextbike", "operator:type": "private"}}, {"type": "node", "id": 7683877612, "lat": 52.4966401, "lon": 13.5237611, "tags": {"amenity": "bicycle_rental", "bicycle_rental": "docking_station", "brand": "nextbike", "brand:wikidata": "Q2351279", "capacity": "9", "fee": "yes", "network": "nextbike Berlin", "opening_hours": "24/7", "operator": "Nextbike", "operator:type": "private"}}, {"type": "node", "id": 7683892934, "lat": 52.468838, "lon": 13.4672115, "tags": {"amenity": "bicycle_rental", "bicycle_rental": "docking_station", "brand": "nextbike", "brand:wikidata": "Q2351279", "capacity": "10", "contact:phone": "+49 30 12086364", "contact:website": "https://www.deezernextbike.de/", "covered": "no", "fee": "yes", "network": "nextbike Berlin", "opening_hours": "24/7", "operator": "Nextbike", "operator:type": "private", "ref": "1610"}}, {"type": "node", "id": 7683893481, "lat": 52.5136223, "lon": 13.5198998, "tags": {"amenity": "bicycle_rental", "bicycle_rental": "docking_station", "brand": "nextbike", "brand:wikidata": "Q2351279", "capacity": "8", "fee": "yes", "network": "nextbike Berlin", "opening_hours": "24/7", "operator": "Nextbike", "operator:type": "private"}}, {"type": "node", "id": 7684392807, "lat": 52.4990069, "lon": 13.4802702, "tags": {"amenity": "bicycle_rental", "bicycle_rental": "docking_station", "brand": "nextbike", "brand:wikidata": "Q2351279", "capacity": "10", "fee": "yes", "network": "nextbike Berlin", "opening_hours": "24/7", "operator": "Nextbike", "operator:type": "private"}}, {"type": "node", "id": 7684393415, "lat": 52.5374675, "lon": 13.4493458, "tags": {"amenity": "bicycle_rental", "bicycle_rental": "docking_station", "brand": "nextbike", "brand:wikidata": "Q2351279", "capacity": "10", "fee": "yes", "network": "nextbike Berlin", "opening_hours": "24/7", "operator": "Nextbike", "operator:type": "private"}}, {"type": "node", "id": 7684397486, "lat": 52.4694463, "lon": 13.491279, "tags": {"amenity": "bicycle_rental", "bicycle_rental": "docking_station", "brand": "nextbike", "brand:wikidata": "Q2351279", "capacity": "8", "contact:phone": "+49 30 12086364", "covered": "no", "fee": "yes", "network": "nextbike Berlin", "opening_hours": "24/7", "operator": "Nextbike", "operator:type": "private", "ref": "1406", "ref_name": "Köpenicker Landstraße/Baumschulenstraße"}}, {"type": "node", "id": 7684405161, "lat": 52.5403565, "lon": 13.4374012, "tags": {"amenity": "bicycle_rental", "bicycle_rental": "docking_station", "brand": "nextbike", "brand:wikidata": "Q2351279", "capacity": "10", "fee": "yes", "network": "nextbike Berlin", "opening_hours": "24/7", "operator": "Nextbike", "operator:type": "private"}}, {"type": "node", "id": 7684406743, "lat": 52.5427167, "lon": 13.4431812, "tags": {"amenity": "bicycle_rental", "bicycle_rental": "docking_station", "brand": "nextbike", "brand:wikidata": "Q2351279", "capacity": "4", "fee": "yes", "network": "nextbike Berlin", "opening_hours": "24/7", "operator": "Nextbike", "operator:type": "private"}}, {"type": "node", "id": 7684409860, "lat": 52.5016442, "lon": 13.4771939, "tags": {"amenity": "bicycle_rental", "bicycle_rental": "docking_station", "brand": "nextbike", "brand:wikidata": "Q2351279", "capacity": "10", "contact:phone": "+49 30 12086364", "contact:website": "https://www.nextbike.de/", "fee": "yes", "network": "nextbike Berlin", "opening_hours": "24/7", "operator": "Nextbike", "operator:type": "private", "ref": "1899", "ref_name": "S Rummelsburg"}}, {"type": "node", "id": 7684511154, "lat": 52.5362255, "lon": 13.4322342, "tags": {"amenity": "bicycle_rental", "bicycle_rental": "docking_station", "brand": "nextbike", "brand:wikidata": "Q2351279", "capacity": "10", "network": "nextbike Berlin", "opening_hours": "24/7", "operator": "Nextbike", "operator:type": "private"}}, {"type": "node", "id": 7684537774, "lat": 52.5198653, "lon": 13.4220548, "tags": {"amenity": "bicycle_rental", "bicycle_rental": "docking_station", "brand": "nextbike", "brand:wikidata": "Q2351279", "capacity": "10", "network": "nextbike Berlin", "opening_hours": "24/7", "operator": "Nextbike", "operator:type": "private"}}, {"type": "node", "id": 7684540115, "lat": 52.5392006, "lon": 13.4249454, "tags": {"amenity": "bicycle_rental", "bicycle_rental": "dropoff_point", "mapillary": "528143331550421", "network": "nextbike Berlin", "note": "Stationsrad", "ref:signed": "no", "ref_name:signed": "no"}}, {"type": "node", "id": 7684546547, "lat": 52.5345932, "lon": 13.4190229, "tags": {"amenity": "bicycle_rental", "bicycle_rental": "dropoff_point", "brand": "nextbike", "brand:wikidata": "Q2351279", "capacity": "18", "network": "nextbike Berlin", "opening_hours": "24/7", "operator": "Nextbike", "operator:type": "private"}}, {"type": "node", "id": 7684549357, "lat": 52.5307104, "lon": 13.4186648, "tags": {"amenity": "bicycle_rental", "bicycle_rental": "dropoff_point", "brand": "nextbike", "brand:wikidata": "Q2351279", "capacity": "10", "network": "nextbike Berlin", "opening_hours": "24/7", "operator": "Nextbike", "operator:type": "private"}}, {"type": "node", "id": 7684571940, "lat": 52.5133238, "lon": 13.4155773, "tags": {"amenity": "bicycle_rental", "bicycle_rental": "dropoff_point", "brand": "nextbike", "brand:wikidata": "Q2351279", "capacity": "9", "network": "nextbike Berlin", "opening_hours": "24/7", "operator": "Nextbike", "operator:type": "private"}}, {"type": "node", "id": 7684580131, "lat": 52.5153554, "lon": 13.4177398, "tags": {"amenity": "bicycle_rental", "bicycle_rental": "docking_station", "capacity": "14", "contact:phone": "+49 30 12086364", "contact:website": "https://www.deezernextbike.de/", "covered": "no", "fee": "yes", "network": "Deezer nextbike", "opening_hours": "24/7", "operator": "nextbike GmbH", "operator:type": "private", "ref": "1243", "ref_name": "S+U Jannowitzbrücke"}}, {"type": "node", "id": 7684591726, "lat": 52.5014912, "lon": 13.4520844, "tags": {"amenity": "bicycle_rental", "bicycle_rental": "docking_station", "brand": "nextbike", "brand:wikidata": "Q2351279", "capacity": "5", "network": "nextbike Berlin", "opening_hours": "24/7", "operator": "Nextbike", "operator:type": "private"}}, {"type": "node", "id": 7684595312, "lat": 52.5278259, "lon": 13.4249024, "tags": {"amenity": "bicycle_rental", "bicycle_rental": "docking_station", "brand": "nextbike", "brand:wikidata": "Q2351279", "capacity": "17", "network": "nextbike Berlin", "opening_hours": "24/7", "operator": "Nextbike", "operator:type": "private"}}, {"type": "node", "id": 7684601303, "lat": 52.5289383, "lon": 13.4385405, "tags": {"amenity": "bicycle_rental", "bicycle_rental": "docking_station", "brand": "nextbike", "brand:wikidata": "Q2351279", "capacity": "14", "network": "nextbike Berlin", "opening_hours": "24/7", "operator": "Nextbike", "operator:type": "private"}}, {"type": "node", "id": 7684601752, "lat": 52.5040339, "lon": 13.4107548, "tags": {"amenity": "bicycle_rental", "bicycle_rental": "docking_station", "brand": "nextbike", "brand:wikidata": "Q2351279", "capacity": "10", "check_date": "2023-05-20", "covered": "no", "fee": "yes", "level": "0", "network": "nextbike Berlin", "opening_hours": "24/7", "operator": "Nextbike", "operator:type": "private", "source": "survey"}}, {"type": "node", "id": 7684608180, "lat": 52.5234857, "lon": 13.4330727, "tags": {"amenity": "bicycle_rental", "bicycle_rental": "docking_station", "brand": "nextbike", "brand:wikidata": "Q2351279", "capacity": "9", "network": "nextbike Berlin", "opening_hours": "24/7", "operator": "Nextbike", "operator:type": "private"}}, {"type": "node", "id": 7684609534, "lat": 52.5005514, "lon": 13.4522446, "tags": {"amenity": "bicycle_rental", "bicycle_rental": "dropoff_point", "brand": "nextbike", "brand:wikidata": "Q2351279", "capacity": "8", "network": "nextbike Berlin", "opening_hours": "24/7", "operator": "Nextbike", "operator:type": "private"}}, {"type": "node", "id": 7684610092, "lat": 52.503406, "lon": 13.4449931, "tags": {"amenity": "bicycle_rental", "bicycle_rental": "docking_station", "brand": "nextbike", "brand:wikidata": "Q2351279", "capacity": "12", "network": "nextbike Berlin", "opening_hours": "24/7", "operator": "Nextbike", "operator:type": "private"}}, {"type": "node", "id": 7684663019, "lat": 52.5010167, "lon": 13.4591135, "tags": {"amenity": "bicycle_rental", "bicycle_rental": "docking_station", "brand": "nextbike", "brand:wikidata": "Q2351279", "capacity": "5", "network": "nextbike Berlin", "opening_hours": "24/7", "operator": "Nextbike", "operator:type": "private", "ref": "1516", "ref:name": "Rochowstr./Corinthstr."}}, {"type": "node", "id": 7684693360, "lat": 52.4987736, "lon": 13.4590681, "tags": {"amenity": "bicycle_rental", "bicycle_rental": "dropoff_point", "capacity": "5", "network": "Deezer nextbike", "opening_hours": "24/7"}}, {"type": "node", "id": 7688108958, "lat": 52.4978315, "lon": 13.520788, "tags": {"access": "customers", "amenity": "bicycle_rental", "bicycle_rental": "institutional", "brand": "fLotte", "brand:wikidata": "Q102333872", "capacity": "1", "description": "Bakfiets CargoBike Classic Long mit Kinderbank", "description:location": "Bodo-Uhse-Bibliothek", "image": "https://flotte-berlin.de/wp-content/uploads/2018/10/Bodo.jpg", "name": "Bodo", "operator": "ADFC", "operator:wikidata": "Q24349", "operator:wikipedia": "de:ADFC", "rental": "cargo_bike", "website": "https://flotte-berlin.de/cb-items/bodo"}}, {"type": "node", "id": 7688108959, "lat": 52.5307582, "lon": 13.4707385, "tags": {"access": "customers", "amenity": "bicycle_rental", "bicycle_rental": "institutional", "brand": "fLotte", "brand:wikidata": "Q102333872", "capacity": "1", "description": "Bakfiets CargoBike Classic Long mit Kinderbank", "description:location": "Anton-Saefkow-Bibliothek", "image": "https://flotte-berlin.de/wp-content/uploads/2018/10/Anton.jpg", "name": "Anton", "operator": "ADFC", "operator:wikidata": "Q24349", "operator:wikipedia": "de:ADFC", "rental": "cargo_bike", "website": "https://flotte-berlin.de/cb-items/anton"}}, {"type": "node", "id": 7688108960, "lat": 52.5426133, "lon": 13.230528, "tags": {"access": "customers", "amenity": "bicycle_rental", "bicycle_rental": "institutional", "brand": "fLotte", "brand:wikidata": "Q102333872", "capacity": "1", "description": "PedalPower Berliner Lastenrad mit Kinderbank", "description:location": "Spielhaus Goldbeckweg", "image": "https://flotte-berlin.de/wp-content/uploads/2018/10/Bärbel.jpg", "name": "Bärbel", "opening_hours": "Mo-Fr 11:00-17:00", "operator": "ADFC", "operator:wikidata": "Q24349", "operator:wikipedia": "de:ADFC", "rental": "cargo_bike", "shop": "rental", "website": "https://flotte-berlin.de/cb-items/baerbel"}}, {"type": "node", "id": 7688108961, "lat": 52.5647745, "lon": 13.5058412, "tags": {"access": "customers", "amenity": "bicycle_rental", "bicycle_rental": "institutional", "brand": "fLotte", "brand:wikidata": "Q102333872", "capacity": "1", "description": "Bakfiets CargoBike Classic Long mit Kinderbank", "description:location": "Anna-Seghers-Bibliothek", "image": "https://flotte-berlin.de/wp-content/uploads/2018/10/Anna.jpg", "name": "Anna", "operator": "ADFC", "operator:wikidata": "Q24349", "operator:wikipedia": "de:ADFC", "rental": "cargo_bike", "website": "https://flotte-berlin.de/cb-items/anna"}}, {"type": "node", "id": 7688108962, "lat": 52.5617446, "lon": 13.2093626, "tags": {"access": "customers", "amenity": "bicycle_rental", "bicycle_rental": "institutional", "brand": "fLotte", "brand:wikidata": "Q102333872", "capacity": "1", "description": "PedalPower Berliner Lastenrad mit Kinderbank", "description:location": "Familienzentrum VillaNova", "image": "https://flotte-berlin.de/wp-content/uploads/2018/10/Giovanni.jpg", "name": "Giovanni", "operator": "ADFC", "operator:wikidata": "Q24349", "operator:wikipedia": "de:ADFC", "rental": "cargo_bike", "website": "https://flotte-berlin.de/cb-items/giovanni"}}, {"type": "node", "id": 7688108963, "lat": 52.568455, "lon": 13.214757, "tags": {"access": "customers", "amenity": "bicycle_rental", "bicycle_rental": "institutional", "brand": "fLotte", "brand:wikidata": "Q102333872", "capacity": "1", "description": "PedalPower Berliner Lastenrad mit Kinderbank", "description:location": "SUZ Spandau - Gartenarbeitsschule Hakenfelde", "image": "https://flotte-berlin.de/wp-content/uploads/2018/10/Suzi.jpg", "name": "Suzi", "operator": "ADFC", "operator:wikidata": "Q24349", "operator:wikipedia": "de:ADFC", "rental": "cargo_bike", "website": "https://flotte-berlin.de/cb-items/suzi"}}, {"type": "node", "id": 7688108964, "lat": 52.5327858, "lon": 13.180542, "tags": {"access": "customers", "amenity": "bicycle_rental", "bicycle_rental": "institutional", "brand": "fLotte", "brand:wikidata": "Q102333872", "capacity": "1", "description": "Bakfiets CargoBike Classic Long mit Kinderbank", "description:location": "agens", "image": "https://flotte-berlin.de/wp-content/uploads/2018/10/Brummi.jpg", "name": "Brummi", "operator": "ADFC", "operator:wikidata": "Q24349", "operator:wikipedia": "de:ADFC", "rental": "cargo_bike", "website": "https://flotte-berlin.de/cb-items/brummi"}}, {"type": "node", "id": 7688108965, "lat": 52.5297867, "lon": 13.1389214, "tags": {"access": "customers", "amenity": "bicycle_rental", "bicycle_rental": "institutional", "brand": "fLotte", "brand:wikidata": "Q102333872", "capacity": "1", "description": "PedalPower Berliner Lastenrad mit Kinderbank", "description:location": "Jona’s Haus", "image": "https://flotte-berlin.de/wp-content/uploads/2018/10/Jona.jpg", "name": "Jona", "operator": "ADFC", "operator:wikidata": "Q24349", "operator:wikipedia": "de:ADFC", "rental": "cargo_bike", "website": "https://flotte-berlin.de/cb-items/jona"}}, {"type": "node", "id": 7688108966, "lat": 52.5471783, "lon": 13.2006344, "tags": {"access": "customers", "amenity": "bicycle_rental", "bicycle_rental": "institutional", "brand": "fLotte", "brand:wikidata": "Q102333872", "capacity": "1", "description": "Bakfiets CargoBike Classic Long mit Kinderbank", "description:location": "Spandauer Jugend e.V.", "image": "https://flotte-berlin.de/wp-content/uploads/2018/10/Radewanne.jpg", "name": "Radewanne", "old_name": "Eulalia", "operator": "ADFC", "operator:wikidata": "Q24349", "operator:wikipedia": "de:ADFC", "rental": "cargo_bike", "website": "https://flotte-berlin.de/cb-items/radewanne"}}, {"type": "node", "id": 7688108967, "lat": 52.5482285, "lon": 13.1835932, "tags": {"access": "customers", "amenity": "bicycle_rental", "bicycle_rental": "institutional", "brand": "fLotte", "brand:wikidata": "Q102333872", "capacity": "1", "description": "Bakfiets CargoBike Classic Long mit Kinderbank", "description:location": "Quartiersmanagement Falkenhagener Feld Ost", "image": "https://flotte-berlin.de/wp-content/uploads/2018/10/SteFFi.jpg", "name": "SteFFi", "operator": "ADFC", "operator:wikidata": "Q24349", "operator:wikipedia": "de:ADFC", "rental": "cargo_bike", "website": "https://flotte-berlin.de/cb-items/steffi/"}}, {"type": "node", "id": 7688108968, "lat": 52.5383449, "lon": 13.2670016, "tags": {"access": "customers", "amenity": "bicycle_rental", "bicycle_rental": "institutional", "brand": "fLotte", "brand:wikidata": "Q102333872", "capacity": "1", "description": "Bakfiets CargoBike Classic Long mit Kinderbank", "description:location": "Schülerhaus an der Schule an der Jungfernheide", "image": "https://flotte-berlin.de/wp-content/uploads/2018/10/Radler.jpg", "name": "Radler", "operator": "ADFC", "operator:wikidata": "Q24349", "operator:wikipedia": "de:ADFC", "rental": "cargo_bike", "website": "https://flotte-berlin.de/cb-items/radler"}}, {"type": "node", "id": 7688108969, "lat": 52.5179266, "lon": 13.1688315, "tags": {"access": "customers", "amenity": "bicycle_rental", "bicycle_rental": "institutional", "brand": "fLotte", "brand:wikidata": "Q102333872", "capacity": "1", "description": "Bakfiets CargoBike Classic Long mit Kinderbank", "description:location": "Kulturzentrum Staaken", "image": "https://flotte-berlin.de/wp-content/uploads/2018/10/Clipper.jpg", "name": "Clipper", "operator": "ADFC", "operator:wikidata": "Q24349", "operator:wikipedia": "de:ADFC", "rental": "cargo_bike", "website": "https://flotte-berlin.de/cb-items/clipper"}}, {"type": "node", "id": 7688108970, "lat": 52.5454536, "lon": 13.500345, "tags": {"access": "customers", "amenity": "bicycle_rental", "bicycle_rental": "institutional", "brand": "fLotte", "brand:wikidata": "Q102333872", "capacity": "1", "description": "Bakfiets CargoBike Classic Long mit Kinderbank", "description:location": "Familienbüro Lichtenberg", "image": "https://flotte-berlin.de/wp-content/uploads/2018/10/Zoe.jpg", "name": "Zoe", "operator": "ADFC", "operator:wikidata": "Q24349", "operator:wikipedia": "de:ADFC", "rental": "cargo_bike", "website": "https://flotte-berlin.de/cb-items/zoe"}}, {"type": "node", "id": 7688108971, "lat": 52.5361844, "lon": 13.2013606, "tags": {"access": "customers", "amenity": "bicycle_rental", "bicycle_rental": "institutional", "brand": "fLotte", "brand:wikidata": "Q102333872", "capacity": "1", "description": "Bakfiets CargoBike Classic Long mit Kinderbank", "description:location": "Bezirkszentralbibliothek Spandau", "image": "https://flotte-berlin.de/wp-content/uploads/2018/10/Rosi.jpg", "name": "Rosi", "operator": "ADFC", "operator:wikidata": "Q24349", "operator:wikipedia": "de:ADFC", "rental": "cargo_bike", "website": "https://flotte-berlin.de/cb-items/rosi"}}, {"type": "node", "id": 7688108973, "lat": 52.4840005, "lon": 13.388597, "tags": {"access": "customers", "amenity": "bicycle_rental", "bicycle_rental": "institutional", "brand": "fLotte", "brand:wikidata": "Q102333872", "capacity": "1", "description": "zweirädriges Bullitt-Lastenrad mit Deckel (ohne Kinderbank)", "description:location": "CityLAB Berlin", "image": "https://flotte-berlin.de/wp-content/uploads/2018/08/Lars.jpg", "name": "Lars", "operator": "ADFC", "operator:wikidata": "Q24349", "operator:wikipedia": "de:ADFC", "rental": "cargo_bike", "website": "https://flotte-berlin.de/cb-items/lars"}}, {"type": "node", "id": 7688108974, "lat": 52.5110188, "lon": 13.3893165, "tags": {"access": "customers", "amenity": "bicycle_rental", "bicycle_rental": "institutional", "brand": "fLotte", "brand:wikidata": "Q102333872", "capacity": "1", "description": "Bakfiets CargoBike Classic Long mit 1 Kinderbank", "description:location": "Alnatura Mitte Friedrichstraße", "image": "https://flotte-berlin.de/wp-content/uploads/2018/06/Tilo.jpg", "name": "Tilo", "operator": "ADFC", "operator:wikidata": "Q24349", "operator:wikipedia": "de:ADFC", "rental": "cargo_bike", "website": "https://flotte-berlin.de/cb-items/tilo"}}, {"type": "node", "id": 7688108975, "lat": 52.4429617, "lon": 13.2936621, "tags": {"access": "customers", "amenity": "bicycle_rental", "bicycle_rental": "institutional", "brand": "fLotte", "brand:wikidata": "Q102333872", "capacity": "1", "description": "CargoBike Classic Long mit Kinderbank", "description:location": "Alnatura", "image": "https://flotte-berlin.de/wp-content/uploads/2019/09/AlnaturaSeven.jpg", "name": "Salomon", "operator": "ADFC", "operator:wikidata": "Q24349", "operator:wikipedia": "de:ADFC", "rental": "cargo_bike", "website": "https://flotte-berlin.de/cb-items/salomon"}}, {"type": "node", "id": 7688108977, "lat": 52.5496295, "lon": 13.415147, "tags": {"access": "customers", "amenity": "bicycle_rental", "bicycle_rental": "institutional", "brand": "fLotte", "brand:wikidata": "Q102333872", "capacity": "1", "description": "Bakfiets CargoTrike Classic Wide mit 2 Kinderbänken und Regenverdeck", "description:location": "Schönhauser Allee Arcaden - Information im Shopping-Center", "image": "https://flotte-berlin.de/wp-content/uploads/2018/05/Bella.jpg", "name": "Bella", "operator": "ADFC", "operator:wikidata": "Q24349", "operator:wikipedia": "de:ADFC", "rental": "cargo_bike", "website": "https://flotte-berlin.de/cb-items/bella"}}, {"type": "node", "id": 7688108978, "lat": 52.4935034, "lon": 13.3947113, "tags": {"access": "customers", "amenity": "bicycle_rental", "bicycle_rental": "institutional", "brand": "fLotte", "brand:wikidata": "Q102333872", "capacity": "2", "description": "Zonix Cargo Trike mit einer Kinderbank (Ali) und PedalPower Long Harry einspurig (Lisbeth)", "description:location": "Bilder-Buch-Laden", "image": "https://flotte-berlin.de/wp-content/uploads/2018/03/Ali.jpg", "name": "Ali; Lisbeth", "operator": "ADFC", "operator:wikidata": "Q24349", "operator:wikipedia": "de:ADFC", "rental": "cargo_bike", "website": "https://flotte-berlin.de/cb-items/ali"}},