{"version": 0.6, "generator": "Overpass API 0.7.61.5 4133829e", "osm3s": {"timestamp_osm_base": "2024-01-02T13:45:02Z", "copyright": "The data included in this document is from www.openstreetmap.org. The data is made available under ODbL."}, "elements": [{"type": "node", "id": 30061331, "lat": 52.5251505, "lon": 13.3379787, "tags": {"addr:city": "Berlin", "addr:housenumber": "83", "addr:postcode": "10555", "addr:street": "Alt-Moabit", "name": "Sofort Sanierung 24", "office": "construction_company", "opening_hours": "Mo-Sa 07:30-19:30", "phone": "+49 170 6000606", "website": "https://sofortsanierung.de", "wheelchair": "no"}}, {"type": "node", "id": 35300987, "lat": 52.5393584, "lon": 13.3501615, "tags": {"contact:website": "https://www.urbanizers.de", "fixme": "better office type", "name": "Urbanizers", "office": "architect", "old_name": "Lindengarten"}}, {"type": "node", "id": 87040412, "lat": 52.5114393, "lon": 13.384316, "tags": {"addr:city": "Berlin", "addr:housenumber": "44", "addr:postcode": "10117", "addr:street": "Wilhelmstraße", "contact:email": "berlin@embassy.mzv.cz", "contact:fax": "+49 30 2294033", "contact:phone": "+49 30 226380", "country": "CZ", "diplomatic": "embassy", "embassy": "yes", "name": "Botschaft der Tschechischen Republik", "name:cs": "Velvyslanectví České republiky", "name:de": "Botschaft der Tschechischen Republik", "name:en": "Embassy of the Czech Republic", "name:fr": "Ambassade de Tchéquie", "name:sk": "Veľvyslanectvo Českej republiky", "office": "diplomatic", "opening_hours": "Mo-Fr 08:30-11:00", "target": "DE", "website": "https://www.mzv.cz/berlin", "wheelchair": "no", "wikidata": "Q2457582", "wikipedia": "de:Tschechische Botschaft in Berlin"}}, {"type": "node", "id": 89304553, "lat": 52.5122655, "lon": 13.4093648, "tags": {"addr:city": "Berlin", "addr:country": "DE", "addr:postcode": "10179", "addr:suburb": "Mitte", "country": "AU", "diplomatic": "embassy", "email": "info.berlin@dfat.gov.au", "embassy": "yes", "fax": "+49 30 88 00 88 210", "name": "Botschaft von Australien", "name:en": "Australian Embassy", "name:fr": "Ambassade dAustralie", "office": "diplomatic", "opening_hours": "Mo,We-Fr 08:30-17:00", "phone": "+49 30 88 00 88 0", "target": "CH;DE;LI", "website": "https://germany.embassy.gov.au/", "wheelchair": "no", "wikidata": "Q782851", "wikipedia": "de:Australische Botschaft in Berlin"}}, {"type": "node", "id": 248780712, "lat": 52.5916198, "lon": 13.3305132, "tags": {"addr:city": "Berlin", "addr:country": "DE", "addr:housenumber": "35-43", "addr:postcode": "13437", "addr:street": "Techowpromenade", "addr:suburb": "Wittenau", "denomination": "roman_catholic", "name": "Katholische Kirchengemeinde St. Martin Berlin", "office": "religion", "phone": "+4930346550243", "religion": "christian", "service_times": "Fr 09:00; Su 18:00", "website": "http://www.st-martin-berlin.de"}}, {"type": "node", "id": 266629317, "lat": 52.5079266, "lon": 13.5882447, "tags": {"addr:city": "Berlin", "addr:country": "DE", "addr:housenumber": "30", "addr:postcode": "12621", "addr:street": "Mädewalder Weg", "addr:suburb": "Kaulsdorf", "craft": "painter", "email": "farbeunddesign@freenet.de", "mobile": "+49 162 2457875", "name": "Farbe & Design", "office": "painter", "opening_hours": "\"Termine nur nach Absprache\"", "operator": "Kai Steinberg", "phone": "+49 30 23536779", "website": "https://www.farbeunddesign-berlin.de/", "wheelchair": "no"}}, {"type": "node", "id": 268498019, "lat": 52.4758632, "lon": 13.3281391, "tags": {"addr:city": "Berlin", "addr:country": "DE", "addr:housenumber": "67", "addr:postcode": "12161", "addr:street": "Bundesallee", "addr:suburb": "Friedenau", "description": "Wind Turbine Technology Specialists", "name": "BerlinWind GmbH", "office": "company", "phone": "+49 30 68833340", "website": "http://www.BerlinWind.com"}}, {"type": "node", "id": 268916634, "lat": 52.4668265, "lon": 13.4362391, "tags": {"addr:city": "Berlin", "addr:country": "DE", "addr:housenumber": "37", "addr:postcode": "12051", "addr:street": "Silbersteinstraße", "addr:suburb": "Neukölln", "check_date": "2023-05-01", "name": "MIG Security", "office": "company"}}, {"type": "node", "id": 268917065, "lat": 52.5135508, "lon": 13.3028655, "tags": {"addr:city": "Berlin", "addr:country": "DE", "addr:housenumber": "5", "addr:postcode": "10585", "addr:street": "Gierkezeile", "addr:suburb": "Charlottenburg", "contact:website": "http://www.platane19.de/", "office": "association", "operator": "Platane 19 e.V."}}, {"type": "node", "id": 275368512, "lat": 52.5467722, "lon": 13.3565162, "tags": {"addr:city": "Berlin", "addr:country": "DE", "addr:housename": "Jobcenter Mitte am Leopoldplatz", "addr:housenumber": "147", "addr:postcode": "13353", "addr:street": "Müllerstraße", "addr:suburb": "Wedding", "brand": "Jobcenter", "brand:wikidata": "Q56292847", "contact:phone": "+49 30 5555 45 2222", "contact:website": "https://www.berlin.de/jobcenter/mitte/", "name": "Jobcenter Mitte am Leopoldplatz", "office": "employment_agency", "opening_hours": "Mo-We 08:00-16:00; Th 08:00-18:00; Fr 08:00-14:00; Sa-Su,PH off", "wheelchair": "yes"}}, {"type": "node", "id": 278826729, "lat": 52.5141142, "lon": 13.402527, "tags": {"addr:city": "Berlin", "addr:country": "DE", "addr:housenumber": "11-12", "addr:postcode": "10178", "addr:street": "Brüderstraße", "check_date:opening_hours": "2022-11-03", "country": "DE-SN", "diplomatic": "liaison", "liaison": "subnational", "name": "Vertretung des Freistaates Sachsen beim Bund", "name:de": "Vertretung des Freistaates Sachsen beim Bund", "name:en": "Representative Office of Saxony", "name:fr": "Représentation de la Saxe", "office": "diplomatic", "opening_hours:signed": "no", "phone": "+49 30 20606-0", "short_name": "LV Sachsen;Landesvertretung Sachsen", "target": "DE", "website": "https://www.landesvertretung.sachsen.de/", "wheelchair": "no", "wikidata": "Q1371579", "wikipedia": "de:Vertretung des Freistaates Sachsen beim Bund"}}, {"type": "node", "id": 304183504, "lat": 52.5114112, "lon": 13.612096, "tags": {"addr:city": "Berlin", "addr:country": "DE", "addr:housenumber": "75", "addr:postcode": "12623", "addr:street": "Hönower Straße", "addr:suburb": "Mahlsdorf", "amenity": "dentist", "health_facility:type": "office", "health_specialty:dentistry": "yes", "healthcare": "dentist", "medical_system:western": "yes", "office": "physician", "operator": "Dr. med. dent. Dietmar Kämpf"}}, {"type": "node", "id": 312664973, "lat": 52.52879, "lon": 13.464058, "tags": {"addr:city": "Berlin", "addr:country": "DE", "addr:housenumber": "30", "addr:postcode": "10369", "addr:street": "Karl-Lade-Straße", "addr:suburb": "Fennpfuhl", "brand": "Die Linke", "brand:wikidata": "Q49764", "name": "Wahlkreisbüro Sebastian Schlüsselburg", "office": "political_party"}}, {"type": "node", "id": 313285294, "lat": 52.5277671, "lon": 13.4514279, "tags": {"addr:city": "Berlin", "addr:country": "DE", "addr:housenumber": "99C", "addr:postcode": "10407", "addr:street": "Landsberger Allee", "addr:suburb": "Prenzlauer Berg", "contact:website": "https://c2c-lab.org/", "name": "Cradle to Cradle Lab", "office": "ngo", "operator": "Cradle to Cradle – Wiege zur Wiege e.V.", "short_name": "C2C Lab", "wheelchair": "limited"}}, {"type": "node", "id": 314821152, "lat": 52.492993, "lon": 13.3224551, "tags": {"addr:city": "Berlin", "addr:country": "DE", "addr:housenumber": "194", "addr:postcode": "10717", "addr:street": "Hohenzollerndamm", "addr:suburb": "Wilmersdorf", "name": "Sanssouci & Co. KG", "office": "collection", "phone": "+49 30 45806243", "website": "http://www.sanssouci-co.de", "wheelchair": "yes"}}, {"type": "node", "id": 330264334, "lat": 52.5295304, "lon": 13.4017825, "tags": {"addr:city": "Berlin", "addr:country": "DE", "addr:housenumber": "72", "addr:postcode": "10119", "addr:street": "Rosenthaler Straße", "addr:suburb": "Mitte", "air_conditioning": "no", "amenity": "cafe", "contact:email": "info@sanktoberholz.de", "contact:facebook": "https://www.facebook.com/sanktoberholz", "contact:foursquare": "https://foursquare.com/v/4adcf782f964a520016321e3", "contact:instagram": "https://www.instagram.com/oberholz/", "contact:phone": "+49 30 24085586", "contact:twitter": "https://twitter.com/oberholz", "contact:website": "https://sanktoberholz.de/standorte/rosenthaler/", "cuisine": "coffee_shop", "diet:vegetarian": "yes", "door": "hinged", "entrance": "yes", "indoor_seating": "yes", "internet_access": "wlan", "level": "0", "name": "St. Oberholz", "office": "coworking", "opening_hours": "Mo-Th 08:00-24:00, Fr 08:00-03:00, Sa 09:00-03:00, Su 09:00-24:00", "operator": "Louca & Oberholz GbR", "outdoor_seating": "yes", "payment:credit_cards": "yes", "payment:debit_cards": "yes", "smoking": "outside", "start_date": "2005", "takeaway": "yes", "toilets:wheelchair": "no", "wheelchair": "limited", "wikidata": "Q24229388"}}, {"type": "node", "id": 331398399, "lat": 52.4279428, "lon": 13.3475571, "tags": {"addr:city": "Berlin", "addr:housenumber": "87", "addr:postcode": "12249", "addr:street": "Gallwitzallee", "government": "administrative", "level": "1", "name": "Bürgeramt Lankwitz", "office": "government", "opening_hours": "Mo 08:00-15:00; Tu 10:00-18:00; We 07:30-14:30; Th 10:00-18:00; Fr 08:00-13:00", "website": "https://service.berlin.de/standort/122276/", "wheelchair": "no"}}, {"type": "node", "id": 344283391, "lat": 52.525986, "lon": 13.3143654, "tags": {"addr:city": "Berlin", "addr:country": "DE", "addr:housenumber": "31", "addr:postcode": "10589", "addr:street": "Kaiserin-Augusta-Allee", "addr:suburb": "Charlottenburg", "amenity": "research_institute", "member_of": "Fraunhofer-Gesellschaft", "name": "Fraunhofer-Institut für Offene Kommunikationssysteme", "name:de": "Fraunhofer-Institut für Offene Kommunikationssysteme", "name:en": "Fraunhofer Institute for Open Communication Systems", "office": "research", "phone": "+49 30 3463 7000", "ref:gerit": "28400", "research": "telecommunication", "research_institution": "yes", "short_name": "FOKUS"}}, {"type": "node", "id": 344289307, "lat": 52.5416843, "lon": 13.3858547, "tags": {"addr:city": "Berlin", "addr:country": "DE", "addr:housenumber": "25", "addr:postcode": "13355", "addr:street": "Gustav-Meyer-Allee", "addr:suburb": "Gesundbrunnen", "contact:phone": "+49 30464030", "contact:website": "https://www.izm.fraunhofer.de/", "member_of": "Fraunhofer-Gesellschaft", "name": "Fraunhofer Institut für Zuverlässigkeit und Mikrointegration", "office": "research", "opening_hours": "Mo-Fr 09:00-17:00", "research_institution": "yes"}}, {"type": "node", "id": 344289311, "lat": 52.5425244, "lon": 13.3845233, "tags": {"addr:city": "Berlin", "addr:country": "DE", "addr:housenumber": "25", "addr:postcode": "13355", "addr:street": "Gustav-Meyer-Allee", "addr:suburb": "Gesundbrunnen", "amenity": "research_institute", "member_of": "Fraunhofer-Gesellschaft", "name": "Fraunhofer Institut für Zuverlässigkeit und Mikrointegration", "office": "research", "ref:gerit": "10649", "research_institution": "electronics", "short_name": "IZM", "website": "https://www.izm.fraunhofer.de", "wikidata": "Q1452049"}}, {"type": "node", "id": 348075887, "lat": 52.4757469, "lon": 13.314478, "tags": {"addr:city": "Berlin", "addr:country": "DE", "addr:housenumber": "16", "addr:postcode": "14197", "addr:street": "Hohensteiner Straße", "addr:suburb": "Wilmersdorf", "country": "GA", "diplomatic": "embassy", "embassy": "yes", "name": "Botschaft Gabun", "name:en": "Embassy of Gabon", "name:fr": "Ambassade du Gabon", "office": "diplomatic", "official_name": "Botschaft der Gabunischen Republik", "target": "AT;DE", "website": "http://www.amba-allemagne.ga/"}}, {"type": "node", "id": 354483335, "lat": 52.4961456, "lon": 13.329858, "tags": {"addr:city": "Berlin", "addr:housenumber": "1", "addr:postcode": "10719", "addr:street": "Pariser Straße", "name": "Leibniz-Zentrum für Literatur- und Kulturforschung (ZfL)", "office": "research", "operator": "Geisteswissenschaftliche Zentren Berlin e.V.", "phone": "+493020192155", "research_institution": "yes", "website": "https://www.zfl-berlin.org"}}, {"type": "node", "id": 355918726, "lat": 52.6339582, "lon": 13.2089244, "tags": {"addr:city": "Hennigsdorf", "addr:country": "DE", "addr:housenumber": "20 A", "addr:postcode": "16761", "addr:street": "Neuendorfstraße", "contact:phone": "+49 33022021250", "contact:website": "https://cobios.de", "name": "co:bios Innovation GmbH", "office": "company", "opening_hours": "Mo-Fr 08:30-15:30"}}, {"type": "node", "id": 356925920, "lat": 52.5092654, "lon": 13.3298682, "tags": {"addr:city": "Berlin", "addr:country": "DE", "addr:housenumber": "87", "addr:postcode": "10623", "addr:street": "Fasanenstraße", "addr:suburb": "Charlottenburg", "check_date": "2023-03-29", "name": "Bundesanstalt für Immobilienaufgaben", "office": "government", "operator": "Bundesministerium für Verkehr, Bau und Stadtentwicklung (BMVBS)", "research_institution": "yes", "toilets:wheelchair": "yes", "wheelchair": "yes", "wikidata": "Q1005535", "wikipedia": "de:Bundesanstalt für Immobilienaufgaben"}}, {"type": "node", "id": 358106189, "lat": 52.5121746, "lon": 13.3886082, "tags": {"addr:city": "Berlin", "addr:country": "DE", "addr:housenumber": "58", "addr:postcode": "10117", "addr:street": "Mohrenstraße", "addr:suburb": "Mitte", "check_date": "2023-04-16", "contact:fax": "+49 30 89789200", "contact:phone": "+49 30 897890", "contact:website": "http://www.diw.de/", "member_of": "Leibniz-Gemeinschaft", "name": "Deutsches Institut für Wirtschaftsforschung", "name:de": "Deutsches Institut für Wirtschaftsforschung", "name:en": "German Institute for Economic Research", "office": "research", "research_institution": "yes", "short_name": "DIW", "start_date": "1925", "wikidata": "Q155228", "wikipedia": "de:Deutsches Institut für Wirtschaftsforschung"}}, {"type": "node", "id": 359716262, "lat": 52.5183288, "lon": 13.2997509, "tags": {"addr:city": "Berlin", "addr:country": "DE", "addr:housenumber": "3a", "addr:postcode": "10585", "addr:street": "Kaiser-Friedrich-Straße", "addr:suburb": "Charlottenburg", "contact:website": "http://www.aemuna.de", "name": "Ämuna Pflegedienst", "office": "nursing_service"}}, {"type": "node", "id": 361488016, "lat": 52.5136175, "lon": 13.4136259, "tags": {"addr:city": "Berlin", "addr:country": "DE", "addr:housenumber": "57", "addr:postcode": "10179", "addr:street": "Wallstraße", "addr:suburb": "Mitte", "country": "BR", "diplomatic": "embassy", "embassy": "yes", "name": "Brasilianische Botschaft", "name:en": "Embassy of Brazil", "name:fr": "Ambassade du Brésil", "name:pt": "Embaixada Brasileira", "office": "diplomatic", "official_name": "Botschaft der Föderativen Republik Brasilien", "opening_hours": "Mo-Th 08:30-16:30; Fr 08:30-12:00", "phone": "+49 (0)30-72628", "website": "http://berlim.itamaraty.gov.br/de/", "wheelchair": "no", "wikidata": "Q10272239", "wikipedia": "de:Brasilianische Botschaft in Berlin"}}, {"type": "node", "id": 361488018, "lat": 52.5136105, "lon": 13.4168021, "tags": {"addr:city": "Berlin", "addr:country": "DE", "addr:housenumber": "54", "addr:postcode": "10179", "addr:street": "Märkisches Ufer", "addr:suburb": "Mitte", "contact:website": "http://www.china-botschaft.de/det/", "country": "CN", "diplomatic": "embassy", "embassy": "yes", "name": "Botschaft der Volksrepublik China", "name:en": "Embassy of the Peoples Republic of China", "name:fr": "Ambassade de Chine", "office": "diplomatic", "opening_hours": "Mo-Fr 09:00-12:00", "target": "DE", "wikidata": "Q1073835", "wikipedia": "de:Chinesische Botschaft in Berlin"}}, {"type": "node", "id": 368007978, "lat": 52.509011, "lon": 13.3105844, "tags": {"addr:city": "Berlin", "addr:country": "DE", "addr:housenumber": "28", "addr:postcode": "10625", "addr:street": "Goethestraße", "addr:suburb": "Charlottenburg", "contact:website": "https://akd-ekbo.de/", "denomination": "protestant", "name": "Amt für kirchliche Dienste", "office": "educational_institution", "operator": "Amt für kirchliche Dienste in der Evangelischen Kirche Berlin-Brandenburg-schlesische Oberlausitz", "religion": "christian", "short_name": "AKD", "wheelchair": "yes"}}, {"type": "node", "id": 368025701, "lat": 52.5115891, "lon": 13.31026, "tags": {"addr:city": "Berlin", "addr:country": "DE", "addr:housenumber": "93", "addr:postcode": "10625", "addr:street": "Bismarckstraße", "addr:suburb": "Charlottenburg", "check_date": "2023-07-01", "level": "0", "name": "Gorillas", "office": "logistics"}}, {"type": "node", "id": 369703449, "lat": 52.520505, "lon": 13.3278198, "tags": {"addr:city": "Berlin", "addr:country": "DE", "addr:housenumber": "11", "addr:postcode": "10587", "addr:street": "Franklinstraße", "addr:suburb": "Charlottenburg", "contact:website": "http://www.fiz-chemie.de/", "name": "Fachinformationszentrum Chemie Berlin", "office": "research", "operator": "Leibniz-Gemeinschaft", "research_institution": "yes", "source": "Geoportal Berlin / Hauskoordinaten"}}, {"type": "node", "id": 371520086, "lat": 52.5193495, "lon": 13.1839314, "tags": {"addr:city": "Berlin", "addr:housenumber": "25-30", "addr:postcode": "13593", "addr:street": "Wilhelmstraße", "addr:suburb": "Wilhelmstadt", "amenity": "research_institute", "contact:website": "http://www.bgr.bund.de/", "name": "Bundesanstalt für Geowissenschaften und Rohstoffe (Außenstelle Berlin)", "office": "government", "operator": "Bundesministerium für Wirtschaft und Technologie", "operator:type": "government", "research": "geo_science", "research_institution": "yes", "short_name": "BGR"}}, {"type": "node", "id": 371522567, "lat": 52.5108387, "lon": 13.3896381, "tags": {"addr:city": "Berlin", "addr:country": "DE", "addr:housenumber": "191", "addr:postcode": "10117", "addr:street": "Friedrichstraße", "addr:suburb": "Mitte", "description": "Deutsch-französisches Forschungszentrum für Sozialwissenschaften", "name": "Centre Marc Bloch", "office": "research", "research_institution": "yes", "website": "https://www.cmb.hu-berlin.de/"}}, {"type": "node", "id": 373160030, "lat": 52.5074485, "lon": 13.3888327, "tags": {"addr:city": "Berlin", "addr:housenumber": "13-15", "addr:postcode": "10969", "addr:street": "Zimmerstraße", "email": "difu@difu.de", "name": "Deutsches Institut für Urbanistik (Difu)", "office": "research", "operator": "Gemeinschaftseinrichtung", "phone": "+49 30 39001-0", "research_institution": "yes", "website": "https://difu.de", "wikidata": "Q1205737", "wikipedia": "de:Deutsches Institut für Urbanistik"}}, {"type": "node", "id": 377139721, "lat": 52.4894649, "lon": 13.3213264, "tags": {"contact:fax": "+49 30 86880100", "contact:phone": "+49 30 868800", "contact:website": "https://www.ecologic.eu/", "name": "Ecologic-Institut", "name:de": "Ecologic-Institut", "name:en": "Ecologic Institute", "office": "research", "research": "environment", "research_institution": "yes", "short_name": "Ecologic"}}, {"type": "node", "id": 412766878, "lat": 52.5344684, "lon": 13.3585277, "tags": {"addr:city": "Berlin", "addr:country": "DE", "addr:housenumber": "53", "addr:postcode": "10557", "addr:street": "Lehrter Straße", "addr:suburb": "Moabit", "contact:website": "https://www.in-berlin.de/", "description": "Non-Commercial ISP. For private persons, clubs, NGOs. Also home of Berlin Linux User Group, eLab and other groups.", "leisure": "hackerspace", "level": "0", "name": "Individual Network Berlin", "office": "association", "opening_hours:url": "https://user.in-berlin.de/vrkalender/view-schedule.php", "operator": "Individual Network Berlin e.V.", "short_name": "IN-Berlin", "toilets:wheelchair": "no", "wheelchair": "limited", "wheelchair:description": "Rampe auf Anfrage"}}, {"type": "node", "id": 415308244, "lat": 52.40612, "lon": 13.6665653, "tags": {"name": "Revierförsterei Müggelheim", "office": "forestry"}}, {"type": "node", "id": 416634870, "lat": 52.4894216, "lon": 13.3551941, "tags": {"addr:city": "Berlin", "addr:country": "DE", "addr:housenumber": "79", "addr:postcode": "10823", "addr:street": "Gleditschstraße", "addr:suburb": "Schöneberg", "contact:phone": "+49 30 780 99810", "contact:website": "https://trinitymusic.de/", "name": "Trinity Music", "office": "company", "opening_hours": "Mo-Fr 10:00-18:00"}}, {"type": "node", "id": 417941724, "lat": 52.4815596, "lon": 13.3272371, "tags": {"addr:city": "Berlin", "addr:country": "DE", "addr:housenumber": "28", "addr:postcode": "10715", "addr:street": "Hildegardstraße", "addr:suburb": "Wilmersdorf", "check_date": "2023-06-08", "contact:email": "info@ubs-berlin.de", "contact:phone": "+49 30 8577140", "contact:website": "http://www.ubs-berlin.de", "name": "Unfallbehandlungsstelle Berlin", "office": "physician", "opening_hours": "Mo-Fr 08:00-18:00", "wheelchair": "yes"}}, {"type": "node", "id": 437375010, "lat": 52.5094258, "lon": 13.3722273, "tags": {"addr:city": "Berlin", "addr:country": "DE", "addr:housenumber": "8", "addr:postcode": "10785", "addr:street": "Potsdamer Straße", "addr:suburb": "Tiergarten", "name": "Synthelabo", "office": "company"}}, {"type": "node", "id": 442392120, "lat": 52.4494006, "lon": 13.3848022, "tags": {"addr:city": "Berlin", "addr:country": "DE", "addr:housenumber": "38", "addr:postcode": "12109", "addr:street": "Mariendorfer Damm", "addr:suburb": "Mariendorf", "brand": "Engel & Völkers", "brand:wikidata": "Q1341765", "name": "Engel & Völkers", "office": "estate_agent", "phone": "+49 30 58769160", "website": "https://www.eundv.berlin/standorte", "wheelchair": "yes"}}, {"type": "node", "id": 443455815, "lat": 52.6445581, "lon": 13.5508729, "tags": {"addr:city": "Panketal", "addr:housenumber": "34", "addr:postcode": "16341", "addr:street": "Hochstraße", "name": "Dauer Aufzüge GmbH", "office": "company", "opening_hours": "Mo-Fr 07:00-16:00", "opening_hours:covid19": "restricted", "phone": "+49 30 9447197", "website": "https://dauer-aufzug.de"}}, {"type": "node", "id": 452661143, "lat": 52.3563814, "lon": 13.1051729, "tags": {"addr:city": "Potsdam", "addr:country": "DE", "addr:housenumber": "18", "addr:postcode": "14478", "addr:street": "Am Buchhorst", "name": "Apothekerverband Brandenburg", "office": "company"}}, {"type": "node", "id": 454233920, "lat": 52.568063, "lon": 13.4117702, "tags": {"addr:city": "Berlin", "addr:housenumber": "13", "addr:postcode": "13187", "addr:street": "Berliner Straße", "name": "Platanus", "office": "company"}}, {"type": "node", "id": 459659033, "lat": 52.5401654, "lon": 13.4328014, "tags": {"check_date": "2023-09-03", "office": "coworking"}}, {"type": "node", "id": 459682288, "lat": 52.5825287, "lon": 13.3954174, "tags": {"name": "Diana Welker Steuerberaterin", "office": "tax_advisor", "opening_hours": "\"Termine nach Vereinbarung\"", "wheelchair": "limited"}}, {"type": "node", "id": 459785179, "lat": 52.5594281, "lon": 13.3356967, "tags": {"addr:city": "Berlin", "addr:country": "DE", "addr:housenumber": "97", "addr:postcode": "13349", "addr:street": "Müllerstraße", "addr:suburb": "Wedding", "name": "Muhasebeci", "office": "accountant"}}, {"type": "node", "id": 461625987, "lat": 52.5163905, "lon": 13.4409146, "tags": {"addr:city": "Berlin", "addr:country": "DE", "addr:housenumber": "90a", "addr:postcode": "10243", "addr:street": "Karl-Marx-Allee", "addr:suburb": "Friedrichshain", "contact:email": "germany@isgltd.com", "contact:fax": "+49 30 78954417", "contact:phone": "+49 30 78954415", "name": "ISG", "office": "engineer"}}, {"type": "node", "id": 465318643, "lat": 52.4889076, "lon": 13.4388745, "tags": {"addr:city": "Berlin", "addr:country": "DE", "addr:housenumber": "34", "addr:postcode": "12045", "addr:street": "Weichselstraße", "addr:suburb": "Neukölln", "check_date": "2023-05-02", "contact:email": "kontakt@zentrum-bewegung-kommunikation.de", "contact:phone": "+49 178 5134542", "contact:website": "https://zbk.berlin/", "name": "Zentrum für Bewegung & Kommunikation", "office": "yes", "wheelchair": "limited"}}, {"type": "node", "id": 471132857, "lat": 52.4553115, "lon": 13.3747762, "tags": {"addr:city": "Berlin", "addr:country": "DE", "addr:housenumber": "1", "addr:postcode": "12105", "addr:street": "Attilastraße", "addr:suburb": "Tempelhof", "name": "Berliner Bau- und Wohnungsgenossenschaft von 1892 eG, Verwaltung-Süd", "office": "estate_agent", "opening_hours": "Mo,Th 09:00-11:00; Tu 09:00-11:00,15:00-18:00", "phone": "+493030302300", "website": "https://1892.de/", "wheelchair": "no"}}, {"type": "node", "id": 492223040, "lat": 52.4719274, "lon": 13.3558006, "tags": {"addr:city": "Berlin", "addr:housenumber": "36", "addr:postcode": "12157", "addr:street": "Vorarlberger Damm", "name": "BV Tempelhof-Schöneberg", "note": "Bezirksverband der Kleingärtner Schöneberg-Friedenau e.V.", "office": "association", "operator": "Kleingartenverein", "phone": "+49 30 78097690", "website": "https://bdk-schoeneberg.de"}}, {"type": "node", "id": 493183872, "lat": 52.4605259, "lon": 13.3168252, "tags": {"country": "TH", "diplomatic": "embassy", "email": "general@thaiembassy.de", "embassy": "yes", "fax": "+4930 79481 511", "name": "Königlich Thailändische Botschaft", "name:en": "Royal Thay Embassy", "name:fr": "Ambassade de Thaïlande", "name:th": "สถานเอกอัครราชทูตไทย ณ กรุงเบอร์ลิน", "office": "diplomatic", "official_name": "Botschaft des Königreichs Thailand", "phone": "+4930 79481 0", "target": "DE", "website": "http://www.thaiembassy.de", "wikidata": "Q23786623", "wikipedia": "de:Thailändische Botschaft in Berlin"}}, {"type": "node", "id": 510916276, "lat": 52.4985007, "lon": 13.5025749, "tags": {"name": "Jugendfunkhaus", "office": "association", "opening_hours:signed": "no"}}, {"type": "node", "id": 514864739, "lat": 52.5161051, "lon": 13.3834149, "tags": {"addr:city": "Berlin", "addr:country": "DE", "addr:housename": "Botschaft der Russischen Föderation", "addr:housenumber": "63-65", "addr:postcode": "10117", "addr:street": "Unter den Linden", "addr:suburb": "Mitte", "alt_name": "Russische Botschaft", "check_date": "2023-06-25", "contact:fax": "+49 30 2299397", "contact:mobile": "+49 157 77 80 90 60 \"Телефон консульского отдела для приема экстренных сообщений\"", "contact:phone": "+49 30 2291110", "contact:website": "https://russische-botschaft.ru/", "country": "RU", "description:ru": "Телефон консульского отдела для приема экстренных сообщений +49 157 77 80 90 60 ВНИМАНИЕ! Данный номер мобильного телефона предназначен исключительно для обращений граждан России в экстренных случаях", "diplomatic": "embassy", "email": "info@russische-botschaft.de", "embassy": "yes", "image": "File:Bundesarchiv Bild 183-54710-0001, Berlin, Sowjetische Botschaft.jpg", "name": "Botschaft der Russischen Föderation", "name:af": "Russiese Ambassade in Berlyn", "name:de": "Botschaft der Russischen Föderation", "name:en": "Embassy of the Russian Federation", "name:et": "Venemaa suursaatkond", "name:fi": "Venäjän Federaation Suurlähetystö", "name:fr": "Ambassade de la Fédération de Russie", "name:nl": "Russische Ambassade", "name:pl": "Ambasada Rosji w Berlinie", "name:ru": "Посольство Российской Федерации", "name:sv": "Ryska Federationens ambassad", "name:uk": "Посольство Росії в Німеччині", "office": "diplomatic", "old_name": "Botschaft der Sowjetunion", "opening_hours": "Mo-Fr 08:00-18:00 \"telefonische Auskunft\"; Jan 01-5 off; Jan 07 off; Feb 23 off; Mar 08 off; May 09 off; May 09 off; Jun 12 off; Nov 04 off; Sa,Su off", "operator": "Россия", "source": "ФСБ", "start_date": "1837", "target": "DE", "website:de": "http://www.stadtentwicklung.berlin.de/cgi-bin/hidaweb/getdoc.pl?DOK_TPL=lda_doc.tpl&KEY=obj%2009075006", "website:ru": "http://russische-botschaft.de/ru/", "wheelchair": "no", "wikidata": "Q836838", "wikimedia_commons": "Category:Russian Embassy, Berlin", "wikipedia": "de:Russische Botschaft in Berlin"}}, {"type": "node", "id": 514875101, "lat": 52.5168286, "lon": 13.3810657, "tags": {"addr:city": "Berlin", "addr:housenumber": "76", "addr:postcode": "10117", "addr:street": "Unter den Linden", "country": "HU", "diplomatic": "embassy", "email": "infober@mfa.gov.hu", "embassy": "yes", "fax": "+49 30 20 31 01 05", "name": "Botschaft von Ungarn", "name:de": "Botschaft von Ungarn", "name:en": "Embassy of Hungary", "name:fr": "Ambassade de Hongrie", "name:hu": "Magyarország Nagykövetsége", "name:ru": "Посольство Венгрии", "office": "diplomatic", "opening_hours": "Mo-Fr 09:00-12:00", "phone": "+49 30 20 31 00", "target": "DE", "website": "https://berlin.mfa.gov.hu/", "wheelchair": "no", "wikidata": "Q2493389", "wikipedia": "de:Ungarische Botschaft in Berlin"}}, {"type": "node", "id": 514881066, "lat": 52.5168861, "lon": 13.3804049, "tags": {"addr:city": "Berlin", "addr:country": "DE", "addr:housename": "Europäisches Haus - Europa-Punkt", "addr:housenumber": "78", "addr:postcode": "10117", "addr:street": "Unter den Linden", "addr:suburb": "Mitte", "contact:phone": "+49 30 2280-1900; +49 30 2280-2900", "country": "EU", "diplomatic": "embassy", "embassy": "delegation", "name": "Vertretung der Europäischen Kommission in Deutschland", "office": "diplomatic", "opening_hours": "Mo-Fr 10:00-18:00; Sa-Su 10:00-16:00; Apr-Sep: Mo-Fr 10:00-20:00, Apr-Sep: Sa-Su 10:00-18:00", "website": "https://ec.europa.eu/deutschland/index_de.htm", "wheelchair": "yes"}}, {"type": "node", "id": 515114884, "lat": 52.5128075, "lon": 13.3938141, "tags": {"addr:city": "Berlin", "addr:country": "DE", "addr:housenumber": "35", "addr:postcode": "10117", "addr:street": "Markgrafenstraße", "addr:suburb": "Mitte", "country": "TW", "diplomatic": "liaison", "liaison": "liaison_office", "name": "Taipeh Vertretung", "name:ru": "Представительство Тайваня", "name:zh": "台北大使館", "office": "diplomatic", "target": "DE", "website": "https://www.roc-taiwan.org/de/"}}, {"type": "node", "id": 515116173, "lat": 52.5125252, "lon": 13.3942446, "tags": {"addr:city": "Berlin", "addr:country": "DE", "addr:housenumber": "42", "addr:postcode": "10117", "addr:street": "Mohrenstraße", "addr:suburb": "Mitte", "country": "CL", "diplomatic": "embassy", "email": "echile.alemania@minrel.gob.cl", "embassy": "yes", "fax": "+49 30 726 20 36 03", "name": "Botschaft der Republik Chile", "name:es": "Embajada de la República de Chile", "name:fr": "Ambassade de la République du Chili", "name:ru": "Посольство Республики Чили", "office": "diplomatic", "opening_hours": "Mo-Fr 09:00-17:00", "phone": "+49 30 726 203 5", "target": "DE", "website": "http://www.echile.de/", "wikidata": "Q21041981", "wikipedia": "de:Chilenische Botschaft in Berlin"}}, {"type": "node", "id": 515116996, "lat": 52.5126212, "lon": 13.3944772, "tags": {"addr:city": "Berlin", "addr:country": "DE", "addr:housenumber": "42", "addr:postcode": "10117", "addr:street": "Mohrenstraße", "addr:suburb": "Mitte", "country": "LI", "diplomatic": "embassy", "embassy": "yes", "name": "Botschaft des Fürstentums Liechtenstein", "name:en": "Embassy of the Principality of Liechtenstein", "name:fr": "Ambassade de la Principauté du Liechtenstein", "name:ru": "Посольство Княжества Лихтенштейн", "note": "Opening hours as per consultation (phone).", "note:de": "Öffnungszeiten nach telefonischer Vereinbarung.", "office": "diplomatic", "phone": "+49 30 52 000 630", "short_name": "Liechtensteinische Botschaft", "short_name:fr": "Ambassade du Liechtenstein", "short_name:ru": "Посольство Лихтенштейна", "target": "DE", "website": "https://www.berlin.liechtenstein.li/", "wikidata": "Q1760465", "wikipedia": "de:Liechtensteinische Botschaft in Berlin"}}, {"type": "node", "id": 515130372, "lat": 52.5106285, "lon": 13.3903464, "tags": {"addr:city": "Berlin", "addr:housenumber": "60", "addr:postcode": "10117", "addr:street": "Friedrichstraße", "addr:unit": "Atrium", "alt_name": "Neuseeländische Botschaft", "alt_name:de": "Neuseeländische Botschaft", "contact:website": "https://www.mfat.govt.nz/en/countries-and-regions/europe/germany/berlin/", "country": "NZ", "diplomatic": "embassy", "email": "nzembber@infoem.org", "embassy": "yes", "level": "4", "name": "Botschaft von Neuseeland", "name:de": "Botschaft von Neuseeland", "name:en": "Embassy of New Zealand", "name:es": "Embajada de Nueva Zelanda", "name:fr": "Ambassade de Nouvelle-Zélande", "name:mi": "Te Aka Aorere", "office": "diplomatic", "opening_hours": "Mo-Fr 09:30-13:00,14:00-16:00", "phone": "+49 30 206210", "smoking": "no", "target": "CH;CZ;DE;LI", "toilets:wheelchair": "no", "wheelchair": "limited", "wikidata": "Q67475136"}}, {"type": "node", "id": 515190251, "lat": 52.5152959, "lon": 13.4119633, "tags": {"addr:city": "Berlin", "addr:country": "DE", "addr:housenumber": "50", "addr:postcode": "10179", "addr:street": "Klosterstraße", "addr:suburb": "Mitte", "alt_name:ar": "سفارة هولندا;السفارة الهولندية", "contact:website": "https://www.sieunddieniederlande.nl/", "country": "AW;CW;NL;SX", "diplomatic": "embassy", "email": "bln@minbuza.nl", "embassy": "yes", "fax": "+49 30 209 564 41", "name": "Botschaft des Königreichs der Niederlande", "name:ar": "سفارة مملكة هولندا", "name:de": "Botschaft des Königreichs der Niederlande", "name:en": "Embassy of the Kingdom of the Netherlands", "name:fr": "Ambassade du Royaume des Pays-Bas", "name:nl": "Ambassade van het Koninkrijk der Nederlanden", "office": "diplomatic", "opening_hours": "Mo-Fr 09:00-12:30", "phone": "+49 30 20 95 60", "target": "DE", "website": "https://www.sieunddieniederlande.nl", "wheelchair": "yes", "wikidata": "Q873010", "wikipedia": "de:Niederländische Botschaft Berlin"}}, {"type": "node", "id": 515208759, "lat": 52.5050597, "lon": 13.3905615, "tags": {"addr:city": "Berlin", "addr:country": "DE", "addr:floor": "2", "addr:housenumber": "219", "addr:postcode": "10969", "addr:street": "Friedrichstraße", "addr:suburb": "Kreuzberg", "email": "post@labo.berlin.de", "fax": "+49 30 902691299", "indoor": "yes", "level": "2", "name": "Landesamt für Bürger- und Ordnungsangelegenheiten", "office": "government", "opening_hours": "Mo,Tu,Th 08:00-15:00; Fr 08:00-13:00", "operator": "Land Berlin", "phone": "+49 30 902690", "short_name": "LABO", "website": "https://www.berlin.de/labo", "wheelchair": "no"}}, {"type": "node", "id": 519776733, "lat": 52.4424899, "lon": 13.328367, "tags": {"addr:city": "Berlin", "addr:housenumber": "10", "addr:postcode": "12247", "addr:street": "Wiesenweg", "contact:linkedin": "https://www.linkedin.com/company/555826", "contact:xing": "https://www.xing.com/pages/berlinheartgmbh", "name": "Berlin Heart", "office": "company", "operator": "Berlin Heart GmbH", "phone": "+49 30 81872600", "ref:vatin": "DE813004366", "website": "https://www.berlinheart.de/"}}, {"type": "node", "id": 530715841, "lat": 52.5416168, "lon": 13.3534544, "tags": {"addr:city": "Berlin", "addr:housenumber": "18", "addr:postcode": "13353", "addr:street": "Sprengelstraße", "name": "1A Visum", "name:signed": "no", "office": "yes"}}, {"type": "node", "id": 532203371, "lat": 52.4565294, "lon": 13.5656261, "tags": {"addr:city": "Berlin", "addr:country": "DE", "addr:housenumber": "263", "addr:postcode": "12555", "addr:street": "An der Wuhlheide", "addr:suburb": "Köpenick", "contact:website": "https://www.fc-union-berlin.de/", "description": "Geschäftsstelle", "name": "1. FC Union Berlin", "office": "association", "sport": "soccer", "wikidata": "Q141971", "wikipedia": "en:1. FC Union Berlin"}}, {"type": "node", "id": 537159985, "lat": 52.5039458, "lon": 13.4524893, "tags": {"addr:city": "Berlin", "addr:country": "DE", "addr:housenumber": "11-14", "addr:postcode": "10245", "addr:street": "Ehrenbergstraße", "addr:suburb": "Friedrichshain", "contact:website": "http://www.dekra-hochschule-berlin.de/", "name": "Dekra-Medienakademie", "office": "company", "wheelchair": "yes"}}, {"type": "node", "id": 538606433, "lat": 52.4895396, "lon": 13.3149786, "tags": {"addr:city": "Berlin", "addr:country": "DE", "addr:housenumber": "3", "addr:postcode": "10707", "addr:street": "Fehrbelliner Platz", "addr:suburb": "Wilmersdorf", "name": "Bundesanstalt für den Digitalfunk der Behörden und Organisationen mit Sicherheitsaufgaben", "office": "government", "short_name": "BDBOS", "wheelchair": "yes"}}, {"type": "node", "id": 538606837, "lat": 52.5124151, "lon": 13.3843403, "tags": {"check_date": "2023-04-03", "name": "Bundesministerium für Arbeit und Soziales", "name:de": "Bundesministerium für Arbeit und Soziales", "name:en": "Federal Ministy of Labour and Social Affairs", "name:la": "Administer Foederalis Laboris", "name:no": "Liste over Tysklands arbeids- og sosialministre", "name:pl": "Ministrowie pracy i spraw socjalnych Niemiec", "name:ru": "Федеральное министерство труда и социальных вопросов", "name:zh": "德國聯邦勞工及社會事務部", "office": "government", "website": "https://www.bmas.de/", "wheelchair": "yes", "wikidata": "Q491578", "wikipedia": "de:Bundesministerium für Arbeit und Soziales"}}, {"type": "node", "id": 538718199, "lat": 52.5194908, "lon": 13.3965223, "tags": {"addr:city": "Berlin", "addr:country": "DE", "addr:housenumber": "1", "addr:postcode": "10117", "addr:street": "Dorotheenstraße", "addr:suburb": "Mitte", "check_date": "2023-08-18", "contact:website": "https://www.wiwi.hu-berlin.de/", "name": "Wirtschaftswissenschaftliche Fakultät", "name:en": "School of Business and Economics", "office": "research", "operator": "Humboldt-Universität zu Berlin"}}, {"type": "node", "id": 538808497, "lat": 52.5187762, "lon": 13.3864481, "tags": {"country": "RO", "diplomatic": "embassy", "embassy": "yes", "name": "Botschaft von Rumänien", "name:de": "Botschaft von Rumänien", "name:en": "Embassy of Romania in Berlin", "name:fr": "Ambassade de Roumanie", "name:ro": "Ambasada României Berlin", "name:ru": "Посольство Румынии", "office": "diplomatic", "target": "DE", "website": "http://berlin.mae.ro", "wheelchair": "no", "wikidata": "Q20686236", "wikipedia": "de:Rumänische Botschaft in Berlin"}}, {"type": "node", "id": 538988274, "lat": 52.5277748, "lon": 13.3753307, "tags": {"addr:city": "Berlin", "addr:country": "DE", "addr:housenumber": "21", "addr:postcode": "10117", "addr:street": "Virchowweg", "addr:suburb": "Mitte", "name": "Institut für Experimentelle Endokrinologie", "name:de": "Institut für Experimentelle Endokrinologie", "name:en": "Institute of Experimental Endocrinology", "office": "research", "research_institution": "yes", "website": "https://www.charite.de/expendo/"}}, {"type": "node", "id": 539193551, "lat": 52.5218468, "lon": 13.379565, "tags": {"addr:city": "Berlin", "addr:country": "DE", "addr:housenumber": "18", "addr:postcode": "10117", "addr:street": "Luisenstraße", "addr:suburb": "Mitte", "alt_name": "Landesvertretung Sachsen-Anhalt", "country": "DE-ST", "diplomatic": "liaison", "liaison": "subnational", "name": "Vertretung des Landes Sachsen-Anhalt beim Bund", "name:de": "Vertretung des Landes Sachsen-Anhalt beim Bund", "name:en": "Representative Office of Saxony-Anhalt", "office": "diplomatic", "short_name": "LV Sahsen-Anhalt", "website": "https://lv.sachsen-anhalt.de/nc/landesvertretung/", "wheelchair": "no", "wikidata": "Q1478545"}}, {"type": "node", "id": 539514923, "lat": 52.5103186, "lon": 13.377492, "tags": {"addr:city": "Berlin", "addr:country": "DE", "addr:housenumber": "17", "addr:postcode": "10117", "addr:street": "Leipziger Platz", "addr:suburb": "Mitte", "country": "CA", "diplomatic": "embassy", "embassy": "yes", "loc_name": "Botschaft von Kanada", "name": "Kanadische Botschaft", "name:de": "Kanadische Botschaft", "name:en": "Embassy of Canada", "name:fr": "Ambassade du Canada", "office": "diplomatic", "opening_hours": "Mo-Fr 08:30-17:00", "target": "DE", "wheelchair": "yes", "wikidata": "Q1723504", "wikipedia": "de:Kanadische Botschaft in Berlin"}}, {"type": "node", "id": 539720756, "lat": 52.5168743, "lon": 13.4115964, "tags": {"addr:city": "Berlin", "addr:country": "DE", "addr:housenumber": "47", "addr:postcode": "10179", "addr:street": "Klosterstraße", "addr:suburb": "Mitte", "contact:website": "http://www.berlin.de/sen/inneres/", "government": "ministry", "name": "Senatsverwaltung für Inneres, Digitalisierung und Sport", "name:en": "Senate Department for the Interior and Sport", "office": "government", "short_name": "SenInnDS", "wheelchair": "limited"}}, {"type": "node", "id": 540845375, "lat": 52.4439486, "lon": 13.678799, "tags": {"name": "Revierförsterei Müggelsee", "office": "forestry"}}, {"type": "node", "id": 542439167, "lat": 52.5152501, "lon": 13.3876241, "tags": {"addr:city": "Berlin", "addr:country": "DE", "addr:postcode": "10117", "addr:street": "Behrenstraße", "addr:suburb": "Mitte", "country": "DE-BY", "diplomatic": "liaison", "liaison": "subnational", "loc_name": "Bayerische Vertretung", "name": "Landesvertretung Bayern", "office": "diplomatic", "official_name": "Vertretung des Freistaates Bayern beim Bund", "short_name": "LV Bayern", "wheelchair": "yes", "wikidata": "Q2519117", "wikipedia": "de:Vertretung des Freistaates Bayern beim Bund"}}, {"type": "node", "id": 542514749, "lat": 52.5125506, "lon": 13.3781133, "tags": {"addr:city": "Berlin", "addr:country": "DE", "addr:housenumber": "8", "addr:postcode": "10117", "addr:street": "In den Ministergärten", "addr:suburb": "Mitte", "alt_name": "Landesvertretung Schleswig-Holstein", "country": "DE-SH", "diplomatic": "liaison", "liaison": "subnational", "name": "Vertretung des Landes Schleswig-Holstein beim Bund", "name:de": "Vertretung des Landes Schleswig-Holstein beim Bund", "name:en": "Representative Office of Schleswig-Holstein", "name:fr": "Représentation du Schleswig-Holstein", "office": "diplomatic", "short_name": "LV Schleswig-Holstein", "target": "DE", "toilets:wheelchair": "yes", "website": "https://www.schleswig-holstein.de/LVB/DE/LVB_node.html", "wheelchair": "yes", "wikidata": "Q1718901", "wikipedia": "de:Vertretung des Landes Schleswig-Holstein beim Bund"}}, {"type": "node", "id": 542522840, "lat": 52.5125245, "lon": 13.3777099, "tags": {"addr:city": "Berlin", "addr:country": "DE", "addr:housenumber": "10", "addr:postcode": "10117", "addr:street": "In den Ministergärten", "addr:suburb": "Mitte", "country": "DE-NI", "diplomatic": "liaison", "email": "LV@mb.niedersachsen.de", "liaison": "subnational", "name": "Vertretung des Landes Niedersachsen beim Bund", "name:de": "Vertretung des Landes Niedersachsen beim Bund", "name:en": "Representative Office of Lower Saxony", "office": "diplomatic", "official_name": "Vertretung des Landes Niedersachsen beim Bund", "short_name": "LV Niedersachsen", "toilets:wheelchair": "yes", "website": "https://www.mb.niedersachsen.de/startseite/landesvertretung_beim_bund_in_berlin/", "wheelchair": "yes", "wikidata": "Q2519136", "wikipedia": "de:Vertretung des Landes Niedersachsen beim Bund"}}, {"type": "node", "id": 542538366, "lat": 52.5119395, "lon": 13.3784738, "tags": {"addr:city": "Berlin", "addr:country": "DE", "addr:housenumber": "5", "addr:postcode": "10117", "addr:street": "In den Ministergärten", "addr:suburb": "Mitte", "country": "DE-HE", "diplomatic": "liaison", "liaison": "subnational", "name": "Vertretung des Landes Hessen beim Bund", "name:de": "Hessische Landesvertretung", "name:en": "Hessian Representative Office", "name:fr": "Représentation de la Hesse", "office": "diplomatic", "short_name": "LV Hessen;Landesvertretung Hessen", "target": "DE", "toilets:wheelchair": "yes", "website": "https://staatskanzlei.hessen.de/berlin-europa-und-die-welt/hessen-in-berlin", "wheelchair": "yes", "wikidata": "Q1615895", "wikipedia": "de:Hessische Landesvertretung beim Bund"}}, {"type": "node", "id": 542544152, "lat": 52.5120436, "lon": 13.379124, "tags": {"addr:city": "Berlin", "addr:country": "DE", "addr:housenumber": "3", "addr:postcode": "10117", "addr:street": "In den Ministergärten", "addr:suburb": "Mitte", "country": "DE-BB", "diplomatic": "liaison", "liaison": "subnational", "name": "Vertretung des Landes Brandenburg beim Bund", "name:de": "Vertretung des Landes Brandenburg beim Bund", "name:en": "Representative Office of Brandenburg", "name:fr": "Représentation de Brandebourg", "office": "diplomatic", "short_name": "LV Brandenburg;Landesvertretung Brendenburg", "target": "DE", "toilets:wheelchair": "yes", "website": "https://stk.brandenburg.de/sixcms/detail.php/lbm1.c.377321.de", "wheelchair": "yes", "wikidata": "Q2519128", "wikipedia": "de:Vertretung des Landes Brandenburg beim Bund"}}, {"type": "node", "id": 542545627, "lat": 52.5119929, "lon": 13.3792725, "tags": {"addr:city": "Berlin", "addr:country": "DE", "addr:housenumber": "1", "addr:postcode": "10117", "addr:street": "In den Ministergärten", "addr:suburb": "Mitte", "alt_name": "Landesvertretung Mecklenburg-Vorpommern", "country": "DE-MV", "diplomatic": "liaison", "liaison": "subnational", "name": "Vertretung des Landes Mecklenburg-Vorpommern beim Bund", "name:de": "Vertretung des Landes Mecklenburg-Vorpommern beim Bund", "name:en": "Representative Office of Mecklenburg-Vorpommern", "name:fr": "Représentation de Poméranie", "office": "diplomatic", "short_name": "LV Mecklenburg-Vorpommern", "target": "DE", "website": "https://www.regierung-mv.de/Landesregierung/stk/Landesvertretung", "wheelchair": "limited", "wikidata": "Q2519132", "wikipedia": "de:Vertretung des Landes Mecklenburg-Vorpommern beim Bund"}}, {"type": "node", "id": 545098737, "lat": 52.5115328, "lon": 13.3907245, "tags": {"country": "BN", "diplomatic": "embassy", "embassy": "yes", "name": "Botschaft von Brunei Darussalam", "office": "diplomatic", "target": "AT;CH;DE;IS;FI;NO;PL", "website": "https://www.mfa.gov.bn/germany-berlin/SitePages/Home.aspx", "wheelchair": "limited", "wikidata": "Q56339722"}}, {"type": "node", "id": 545099269, "lat": 52.5116006, "lon": 13.3856616, "tags": {"addr:city": "Berlin", "addr:country": "DE", "addr:housenumber": "7", "addr:postcode": "10117", "addr:street": "Glinkastraße", "addr:suburb": "Mitte", "country": "KP", "diplomatic": "embassy", "email": "info@dprkorea-emb.de", "embassy": "yes", "name": "Botschaft der Demokratischen Volksrepublik Korea", "name:de": "Botschaft der Demokratischen Volksrepublik Korea", "name:en": "Embassy of the Democratic Peoples Republic of Korea", "name:fr": "Ambassade de Corée du Nord", "office": "diplomatic", "opening_hours": "Mo-Fr 09:00-12:00,14:00-17:00", "phone": "+49-30-22651929", "target": "DE", "wheelchair": "no", "wikidata": "Q1229712", "wikipedia": "de:Nordkoreanische Botschaft in Berlin"}}, {"type": "node", "id": 548130446, "lat": 52.5097633, "lon": 13.4007724, "tags": {"alt_name:ar": "سفارة زيمبابوي;السفارة الزيمبابوية", "country": "ZW", "diplomatic": "embassy", "embassy": "yes", "name": "Botschaft der Republik Simbabwe", "name:ar": "سفارة جمهورية زيمبابوي", "name:en": "Embassy of the Republic of Zimbabwe", "name:fr": "Ambassade du Zimbabwe", "name:ru": "Посольство Зимбабве", "office": "diplomatic", "target": "DE", "website": "https://www.zimembassyberlin.com/de/", "wikidata": "Q1591611", "wikipedia": "de:Simbabwische Botschaft in Berlin"}}, {"type": "node", "id": 548134083, "lat": 52.510129, "lon": 13.4012874, "tags": {"alt_name:ar": "سفارة زامبيا;السفارة الزامبية", "country": "ZM", "diplomatic": "embassy", "embassy": "yes", "name": "Botschaft der Republik Sambia", "name:ar": "سفارة جمهورية زامبيا", "name:en": "Embassy of the Republic of Zambia", "name:fr": "Ambassade de Zambie", "name:ru": "Посольство Замбии", "office": "diplomatic", "target": "AT;CZ;DE;HU;PL;SI;SK", "website": "https://www.zambiaembassy.de/", "wikidata": "Q16919108"}}, {"type": "node", "id": 548134344, "lat": 52.5099723, "lon": 13.4014505, "tags": {"alt_name:ar": "سفارة أوغندا;السفارة الأوغندية", "country": "UG", "diplomatic": "embassy", "embassy": "yes", "name": "Botschaft der Republik Uganda", "name:ar": "سفارة جمهورية أوغندا", "name:en": "Embassy of the Republic of Uganda", "name:fr": "Ambassade dOuganda", "name:ru": "Посольство Уганды", "office": "diplomatic", "target": "AT;BG;CZ;DE;HU;PL;RO;SK;VA", "website": "https://berlin.mofa.go.ug/", "wikidata": "Q60862264"}}, {"type": "node", "id": 548141332, "lat": 52.4875262, "lon": 13.2841085, "tags": {"country": "AZ", "diplomatic": "embassy", "embassy": "yes", "name": "Botschaft der Republik Aserbaidschan", "office": "diplomatic", "target": "DE", "website": "https://berlin.mfa.gov.az/", "wikidata": "Q724015", "wikipedia": "de:Aserbaidschanische Botschaft in Berlin"}}, {"type": "node", "id": 549366121, "lat": 52.5139588, "lon": 13.3942876, "tags": {"name": "Berlin-Brandenburgische Akademie der Wissenschaften", "office": "research", "research_institution": "yes"}}, {"type": "node", "id": 552149363, "lat": 52.5417987, "lon": 13.3557722, "tags": {"addr:city": "Berlin", "addr:country": "DE", "addr:housenumber": "38", "addr:postcode": "13353", "addr:street": "Sprengelstraße", "addr:suburb": "Wedding", "contact:phone": "+4917621879746", "disused:website": "http://www.daeumelinchen-berlin.de/daeumelinchen/daeumelinchen_start.html", "name": "Kindertheater Däumelinchen", "note": "Das ist nur eine Kontaktadresse für eine Theatergruppe -> Erstmal als office getaggt, die Webseite funktioniert nicht mehr, wahrscheinlich nicht mehr existent", "office": "theatre"}}, {"type": "node", "id": 559486134, "lat": 52.5373041, "lon": 13.6033766, "tags": {"name": "Bezirksamt Marzahn-Hellersdorf", "office": "government", "toilets:wheelchair": "no", "wheelchair": "yes"}}, {"type": "node", "id": 559839190, "lat": 52.5021183, "lon": 13.3444183, "tags": {"addr:city": "Berlin", "addr:country": "DE", "addr:housenumber": "37", "addr:postcode": "10787", "addr:street": "Bayreuther Straße", "addr:suburb": "Schöneberg", "email": "gema@gema.de", "fax": "+49 30 21245-950", "name": "Gesellschaft für musikalische Aufführungs- und mechanische Vervielfältigungsrechte, Generaldirektion Berlin", "office": "association", "phone": "+49 30 21245-00", "short_name": "GEMA", "website": "https://www.gema.de/"}}, {"type": "node", "id": 571403964, "lat": 52.486818, "lon": 13.3924091, "tags": {"addr:city": "Berlin", "addr:country": "DE", "addr:housenumber": "29a", "addr:postcode": "10965", "addr:street": "Fidicinstraße", "addr:suburb": "Kreuzberg", "contact:phone": "+49 30 6936051", "name": "Hannsjörg Huss", "office": "company", "wheelchair": "no"}}, {"type": "node", "id": 573381072, "lat": 52.5102876, "lon": 13.4682173, "tags": {"addr:city": "Berlin", "addr:country": "DE", "addr:housenumber": "24a", "addr:postcode": "10247", "addr:street": "Weichselstraße", "addr:suburb": "Friedrichshain", "contact:website": "https://www.fortschritte-berlin.de/", "name": "Fortschritte", "office": "association", "opening_hours": "Mo-Th 10:00-14:00", "operator": "Fortschritte e.V.", "wheelchair": "limited"}}, {"type": "node", "id": 580705407, "lat": 52.5012414, "lon": 13.5580735, "tags": {"addr:city": "Berlin", "addr:country": "DE", "addr:housenumber": "2", "addr:postcode": "12683", "addr:street": "Paulinenauer Straße", "addr:suburb": "Biesdorf", "fax": "+49 30 5145587", "name": "EKS-Ingenieurbüro Roman Isler", "office": "company", "operator": "Roman Isler", "phone": "+49 30 5144123"}}, {"type": "node", "id": 588117449, "lat": 52.3865284, "lon": 13.4021972, "tags": {"addr:city": "Berlin", "addr:country": "DE", "addr:postcode": "12305", "addr:street": "Bahnhofstraße", "addr:suburb": "Lichtenrade", "name": "Tyronadt Immobilien", "office": "estate_agent", "opening_hours:signed": "no", "wheelchair": "limited"}}, {"type": "node", "id": 609711392, "lat": 52.5134459, "lon": 13.3855955, "tags": {"addr:city": "Berlin", "addr:country": "DE", "addr:housenumber": "3", "addr:postcode": "10117", "addr:street": "Jägerstraße", "addr:suburb": "Mitte", "country": "DE-HH", "diplomatic": "liaison", "liaison": "subnational", "name": "Landesvertretung Stadt Hamburg", "name:fr": "Représentation de l’État de Hambourg", "office": "diplomatic", "opening_hours": "\"nur bei Tag der offenen Tür frei zugänglich\"", "target": "DE", "toilets:wheelchair": "no", "website": "https://www.hamburg.de/landesvertretung", "wheelchair": "no", "wikidata": "Q2519111", "wikipedia": "de:Vertretung der Freien und Hansestadt Hamburg beim Bund"}}, {"type": "node", "id": 616223457, "lat": 52.4936998, "lon": 13.3856707, "tags": {"name": "Bürgeramt 1", "office": "government", "opening_hours": "Mo 08:00-15:00; Tu,Th 08:00-12:00,13:00-18:00; We,Fr 08:00-13:00", "wheelchair": "yes"}}, {"type": "node", "id": 616679764, "lat": 52.5213738, "lon": 13.3248604, "tags": {"addr:city": "Berlin", "addr:country": "DE", "addr:housenumber": "9", "addr:postcode": "10587", "addr:street": "Helmholtzstraße", "addr:suburb": "Charlottenburg", "contact:fax": "+49 30 397475-40", "contact:phone": "+49 30 397475-30", "contact:website": "https://www.enaikoon.com/", "name": "Enaikoon", "office": "company", "operator": "ENAiKOON GmbH", "wheelchair": "yes"}}, {"type": "node", "id": 622018905, "lat": 52.5050775, "lon": 13.4718489, "tags": {"brand": "DAK", "brand:wikidata": "Q1151671", "brand:wikipedia": "de:DAK-Gesundheit", "check_date:opening_hours": "2022-10-07", "insurance": "health", "name": "DAK", "office": "insurance", "opening_hours": "Mo,Tu 08:00-16:00; Th 08:00-17:00; Fr 08:00-13:00", "wheelchair": "yes"}}, {"type": "node", "id": 634447677, "lat": 52.5246269, "lon": 13.4650879, "tags": {"addr:city": "Berlin", "addr:country": "DE", "addr:housenumber": "207", "addr:postcode": "10369", "addr:street": "Storkower Straße", "addr:suburb": "Fennpfuhl", "check_date": "2023-06-13", "contact:website": "http://www.e-vendo.de/", "name": "e-vendo AG", "office": "company", "wheelchair": "limited"}}, {"type": "node", "id": 635781883, "lat": 52.5342078, "lon": 13.3985958, "tags": {"addr:city": "Berlin", "addr:country": "DE", "addr:housenumber": "27", "addr:postcode": "10119", "addr:street": "Brunnenstraße", "addr:suburb": "Mitte", "check_date": "2023-06-03", "name": "Uber", "office": "company"}}, {"type": "node", "id": 638521439, "lat": 52.4560636, "lon": 13.3121663, "tags": {"alt_name:ar": "سفارة تشاد;السفارة التشادية", "country": "TD", "diplomatic": "embassy", "embassy": "yes", "name": "Botschaft der Republik Tschad", "name:ar": "سفارة جمهوريّة تشاد", "name:en": "Embassy of the Republic of Chad", "name:fr": "Ambassade de la République du Tchad", "office": "diplomatic", "opening_hours": "Mo-Th 09:00-13:00; Fr 09:00-14:00", "target": "DE", "website": "https://www.ambatchadberlin.de/"}}, {"type": "node", "id": 638521475, "lat": 52.4586847, "lon": 13.3115312, "tags": {"country": "YE", "diplomatic": "embassy", "embassy": "yes", "name": "Botschaft der Republik Jemen", "name:ar": "سفارة الجمهورية اليمنية", "name:de": "Botschaft der Republik Jemen", "office": "diplomatic", "target": "DE", "website": "http://yemenembassy.de/", "wikidata": "Q73169729"}}, {"type": "node", "id": 638913211, "lat": 52.4846335, "lon": 13.3903546, "tags": {"government": "customs", "name": "Zollfahndungsamt", "office": "government", "wheelchair": "yes"}}, {"type": "node", "id": 642952586, "lat": 52.4848532, "lon": 13.369451, "tags": {"name": "Deutsches Institut für Bautechnik", "office": "government", "website": "https://www.dibt.de/", "wikidata": "Q672622"}}, {"type": "node", "id": 644744389, "lat": 52.510946, "lon": 13.5353472, "tags": {"addr:city": "Berlin", "addr:country": "DE", "addr:housenumber": "83", "addr:postcode": "10315", "addr:street": "Gensinger Straße", "addr:suburb": "Friedrichsfelde", "contact:website": "https://www.berlinovo.de/", "name": "berlinovo", "office": "property_management"}}, {"type": "node", "id": 648465851, "lat": 52.631398, "lon": 13.7335782, "tags": {"addr:housenumber": "5", "addr:postcode": "16356", "addr:street": "Am Markt", "government": "register_office", "name": "Standesamt Werneuchen", "office": "government", "phone": "+4933398 81616"}}, {"type": "node", "id": 653911568, "lat": 52.5242539, "lon": 13.3438939, "tags": {"addr:city": "Berlin", "addr:country": "DE", "addr:housenumber": "90a", "addr:postcode": "10559", "addr:street": "Alt-Moabit", "addr:suburb": "Moabit", "check_date:opening_hours": "2022-10-08", "name": "AVM GmbH", "office": "it", "opening_hours:signed": "no", "wheelchair": "yes"}}, {"type": "node", "id": 658401603, "lat": 52.5754773, "lon": 13.2999945, "tags": {"addr:city": "Berlin", "addr:country": "DE", "addr:housenumber": "33", "addr:postcode": "13507", "addr:street": "Flohrstraße", "name": "AMK Tornado Antriebstechnik GmbH", "office": "company", "opening_hours": "Mo-Fr 08:00-15:00", "phone": "+49 30 435901 0", "website": "https://www.tornado-drives.com/"}}, {"type": "node", "id": 660129319, "lat": 52.4966514, "lon": 13.3039075, "tags": {"name": "von Dornberg Immobilien GmbH", "office": "estate_agent", "opening_hours": "Mo-Fr 10:00-18:00"}}, {"type": "node", "id": 661093148, "lat": 52.5208797, "lon": 13.3480873, "tags": {"check_date:opening_hours": "2023-07-04", "name": "Max Müller Immobilien", "office": "estate_agent", "opening_hours:signed": "no", "wheelchair": "no"}}, {"type": "node", "id": 663040606, "lat": 52.477806, "lon": 13.2802231, "tags": {"addr:city": "Berlin", "addr:housenumber": "56", "addr:postcode": "14193", "addr:street": "Hagenstraße", "country": "QA", "diplomatic": "embassy", "email": "berlin@mofa.gov.qa", "embassy": "yes", "fax": "+49 30 862 061 50", "name": "Botschaft des Staates Katar", "name:ar": "سفارة دولة قطر", "name:en": "Embassy of the State of Qatar", "office": "diplomatic", "opening_hours": "Mo-Fr 10:00-16:00", "phone": "+49 30 862 060", "target": "DE", "website": "http://berlin.embassy.qa/", "wikidata": "Q1604972", "wikipedia": "de:Katarische Botschaft in Berlin"}}, {"type": "node", "id": 665619979, "lat": 52.50836, "lon": 13.393978, "tags": {"addr:city": "Berlin", "addr:country": "DE", "addr:housenumber": "57", "addr:postcode": "10117", "addr:street": "Markgrafenstraße", "addr:suburb": "Mitte", "name": "Vision Deutschland GmbH", "office": "company", "phone": "+49 30 206072295", "website": "http://www.VIPgroup.net"}}, {"type": "node", "id": 667211339, "lat": 52.5143887, "lon": 13.2647254, "tags": {"country": "NA", "diplomatic": "embassy", "embassy": "yes", "name": "Botschaft der Republik Namibia", "office": "diplomatic", "opening_hours": "Mo-Fr 09:00-13:00,14:00-17:00", "target": "DE;PL;TR;VA", "website": "http://www.namibia-botschaft.de/", "wheelchair": "yes", "wikidata": "Q1964306", "wikipedia": "de:Namibische Botschaft in Berlin"}}, {"type": "node", "id": 667712670, "lat": 52.5155582, "lon": 13.4615218, "tags": {"addr:city": "Berlin", "addr:country": "DE", "addr:housename": "Bürgeramt 3", "addr:housenumber": "35/37", "addr:postcode": "10247", "addr:street": "Frankfurter Allee", "addr:suburb": "Friedrichshain", "amenity": "townhall", "contact:email": "buergeramt@ba-fk.berlin.de", "contact:fax": "+49 30 902984690", "contact:phone": "+49 30 902980", "contact:website": "http://www.berlin.de/ba-friedrichshain-kreuzberg/politik-und-verwaltung/aemter/amt-fuer-buergerdienste/buergeramt/artikel.156551.php", "government": "administrative", "name": "Bürgeramt 3", "note": "Büro des Bezirksbürgermeisters", "office": "government", "official_name": "Bezirksamt Friedrichshain-Kreuzberg von Berlin - Bürgeramt 3", "old_name": "Rathaus Friedrichshain", "wheelchair": "yes"}}, {"type": "node", "id": 679512052, "lat": 52.5508881, "lon": 13.3596743, "tags": {"addr:housenumber": "31", "addr:street": "Utrechter Straße", "check_date": "2023-08-17", "email": "contact@isssresearch.com", "name": "ISSS RESEARCH ARCHITECTURE URBANISM", "office": "architect", "operator": "Sabatier Schwarz Architekten PartGmbB", "phone": "+49 30 41727624", "website": "https://www.isssresearch.com/"}}, {"type": "node", "id": 679513822, "lat": 52.5497202, "lon": 13.3616413, "tags": {"brand": "Arbeiterwohlfahrt", "brand:wikidata": "Q627256", "name": "Arbeiterwohlfahrt", "office": "association"}}, {"type": "node", "id": 691484476, "lat": 52.4492809, "lon": 13.3026511, "tags": {"addr:city": "Berlin", "addr:country": "DE", "addr:housenumber": "43", "addr:postcode": "12203", "addr:street": "Unter den Eichen", "addr:suburb": "Lichterfelde", "check_date": "2023-04-09", "name": "zulassungs-express.de", "office": "company", "opening_hours": "Mo-Fr 10:00-18:00; Sa-Su,PH off", "payment:cards": "no", "payment:credit_cards": "no", "payment:debit_cards": "no", "website": "https://www.zulassungs-express.de", "wheelchair": "yes"}}, {"type": "node", "id": 695422806, "lat": 52.511528, "lon": 13.3241468, "tags": {"addr:city": "Berlin", "addr:country": "DE", "addr:housenumber": "40a", "addr:postcode": "10623", "addr:street": "Hardenbergstraße", "addr:suburb": "Charlottenburg", "contact:website": "http://www.isr.tu-berlin.de", "name": "Institut für Stadt- und Regionalplanung", "office": "company", "wheelchair": "limited"}}, {"type": "node", "id": 700080648, "lat": 52.5049018, "lon": 13.3408976, "tags": {"addr:city": "Berlin", "addr:country": "DE", "addr:housenumber": "37", "addr:postcode": "10787", "addr:street": "Budapester Straße", "country": "YE", "diplomatic": "embassy", "email": "info@botschaft-jemen.de", "embassy": "yes", "fax": "+49 30 89 73 05 62", "name": "Botschaft der Republik Jemen", "name:ar": "سفارة الجمهورية اليمنية", "name:en": "Embassy of the Republic of Yemen", "office": "diplomatic", "opening_hours": "Mo-Fr 09:00-15:00", "phone": "+49 30 8973050", "short_name": "Botschaft Jemen", "short_name:fr": "Ambassade du Yemen", "target": "DE", "website": "http://yemenembassy.de"}}, {"type": "node", "id": 700080651, "lat": 52.5049862, "lon": 13.3406663, "tags": {"addr:city": "Berlin", "addr:country": "DE", "addr:housenumber": "39", "addr:postcode": "10787", "addr:street": "Budapester Straße", "contact:phone": "+49 30 2639016", "country": "UY", "diplomatic": "embassy", "email": "urualemania@mrree.gub.uy", "embassy": "yes", "fax": "+49 30 26 39 01 70", "name": "Botschaft der Republik Östlich des Uruguay", "name:en": "Embassy of the Oriental Republic of Uruguay", "name:es": "Embajada de la República Oriental del Uruguay", "office": "diplomatic", "opening_hours": "Mo-Th 09:30-13:00; Fr 09:00-14:00", "phone": "+49 30 263 90 16", "short_name": "Botschaft von Uruguay", "target": "DE", "website": "https://www.embajada-uruguay.de", "wheelchair": "no", "wikidata": "Q72620962"}}, {"type": "node", "id": 707452489, "lat": 52.547655, "lon": 13.3695154, "tags": {"addr:city": "Berlin", "addr:country": "DE", "addr:housenumber": "33", "addr:postcode": "13347", "addr:street": "Reinickendorfer Straße", "addr:suburb": "Gesundbrunnen", "name": "Die Schleppies", "office": "moving_company"}}, {"type": "node", "id": 712371915, "lat": 52.5314212, "lon": 13.3502185, "tags": {"addr:city": "Berlin", "addr:country": "DE", "addr:housenumber": "34", "addr:postcode": "10559", "addr:street": "Wilsnacker Straße", "addr:suburb": "Moabit", "name": "Quartiersmanagement Moabit-Ost", "office": "yes", "website": "https://www.moabit-ost.de"}}, {"type": "node", "id": 715911655, "lat": 52.5036804, "lon": 13.2925364, "tags": {"name": "Berliner Business Wohnzimmer", "office": "company"}}, {"type": "node", "id": 726676177, "lat": 52.5314797, "lon": 13.4201221, "tags": {"addr:city": "Berlin", "addr:country": "DE", "addr:housenumber": "21", "addr:postcode": "10405", "addr:street": "Prenzlauer Allee", "addr:suburb": "Prenzlauer Berg", "brand": "HDI", "brand:wikidata": "Q17322068", "brand:wikipedia": "de:HDI Global", "fax": "+4930 2290221", "name": "HDI", "office": "insurance", "opening_hours": "Mo-Th 09:00-18:00; Fr 09:00-15:30", "operator": "HDI", "phone": "+4930 226289 0", "website": "https://berater.hdi.de/filiale-berlin-mitte/"}}, {"type": "node", "id": 727852014, "lat": 52.4854993, "lon": 13.3516513, "tags": {"addr:city": "Berlin", "addr:country": "DE", "addr:housenumber": "57", "addr:postcode": "10823", "addr:street": "Eisenacher Straße", "addr:suburb": "Schöneberg", "name": "Tamschick", "office": "media", "website": "https://www.tamschick.com/", "wheelchair": "no"}}, {"type": "node", "id": 730119967, "lat": 52.48468, "lon": 13.430672, "tags": {"addr:city": "Berlin", "addr:country": "DE", "addr:housenumber": "7", "addr:postcode": "12043", "addr:street": "Donaustraße", "addr:suburb": "Neukölln", "check_date": "2023-08-11", "contact:website": "https://donaustrasse-nord.de/", "name": "Quartiersbüro Donaukiez", "office": "government", "opening_hours": "Mo-Th 10:00-13:00,14:00-18:00; Fr 10:00-14:00 \"Bürozeiten\" || Tu 16:00-18:00; Th 10:00-12:00 \"Sprechzeiten\"", "operator": "Quartiersmanagement Donaustrasse-Nord"}}, {"type": "node", "id": 735944536, "lat": 52.4450079, "lon": 13.5662065, "tags": {"addr:city": "Berlin", "addr:country": "DE", "addr:housenumber": "172", "addr:postcode": "12557", "addr:street": "Oberspreestraße", "addr:suburb": "Köpenick", "company": "construction", "contact:phone": "+49 30 55 22 52 58", "contact:website": "https://niwohaus.de/", "name": "NiWoHaus", "office": "company"}}, {"type": "node", "id": 737216268, "lat": 52.5463863, "lon": 13.4265995, "tags": {"name": "Uniconf Deutschland Gmbh", "office": "association", "wheelchair": "limited"}}, {"type": "node", "id": 738834471, "lat": 52.4894079, "lon": 13.3158629, "tags": {"addr:city": "Berlin", "addr:country": "DE", "addr:housenumber": "12", "addr:postcode": "10713", "addr:street": "Brandenburgische Straße", "addr:suburb": "Wilmersdorf", "brand": "Debeka", "brand:wikidata": "Q1181452", "brand:wikipedia": "de:Debeka", "name": "Debeka Servicebüro Wilmersdorf", "office": "insurance", "website": "https://www.debeka.de", "wheelchair": "limited"}}, {"type": "node", "id": 747457651, "lat": 52.5814112, "lon": 13.4047109, "tags": {"addr:city": "Berlin", "addr:country": "DE", "addr:housenumber": "4", "addr:postcode": "13156", "addr:street": "Blankenburger Straße", "addr:suburb": "Niederschönhausen", "brand": "Ergo", "brand:wikidata": "Q541909", "brand:wikipedia": "de:Ergo Group", "check_date:opening_hours": "2023-07-11", "contact:website": "https://brigitte-himmelsbach.ergo.de/", "name": "Ergo", "office": "insurance", "opening_hours": "Tu,Th 10:00-12:30,13:30-18:00; We 10:00-15:00", "operator": "Brigitte Himmelsbach", "wheelchair": "no"}}, {"type": "node", "id": 759358040, "lat": 52.5583809, "lon": 13.41407, "tags": {"addr:city": "Berlin", "addr:country": "DE", "addr:housenumber": "90", "addr:postcode": "13189", "addr:street": "Berliner Straße", "addr:suburb": "Pankow", "check_date:opening_hours": "2023-12-31", "contact:website": "http://www.dig-it.de", "name": "dig it!", "office": "it", "opening_hours:signed": "no", "operator": "dig it! GmbH"}}, {"type": "node", "id": 761371651, "lat": 52.4449396, "lon": 13.5666894, "tags": {"amenity": "doctors", "fax": "+49 30 36445801", "health_facility:type": "office", "health_specialty:family_medicine": "main", "health_specialty:internal_medicine": "main", "healthcare": "doctor", "healthcare:speciality": "general", "medical_system:western": "yes", "name": "Karin-Ilona Richter", "office": "physician", "opening_hours": "Mo-Th 08:00-12:00 open \"Bitte Termin vereinbaren!\", 12:00-13:00 open \"Privatsprechstunde und nach Vereinbarung\", Mo,We 16:00-18:00 open \"Bitte Termin vereinbaren!\", Fr \"nach Vereinbarung\"|| \"nach Vereinbarung\"; PH off", "operator": "Karin-Ilona Richter", "phone": "+49 30 6516951", "wheelchair": "limited"}}, {"type": "node", "id": 768398851, "lat": 52.5412861, "lon": 13.3517398, "tags": {"addr:city": "Berlin", "addr:country": "DE", "addr:housenumber": "25", "addr:postcode": "13353", "addr:street": "Sprengelstraße", "addr:suburb": "Wedding", "check_date": "2023-05-03", "name": "stilbrand", "office": "company", "website": "https://www.stilbrand.de/"}}, {"type": "node", "id": 775875357, "lat": 52.5015136, "lon": 13.4302172, "tags": {"addr:city": "Berlin", "addr:country": "DE", "addr:housenumber": "31", "addr:postcode": "10997", "addr:street": "Pücklerstraße", "addr:suburb": "Kreuzberg", "name": "Kolchose für Baukunst", "office": "architect"}}, {"type": "node", "id": 775974504, "lat": 52.5131264, "lon": 13.3948638, "tags": {"country": "CO", "diplomatic": "embassy", "email": "info@embajada-colombia.de", "embassy": "yes", "fax": "+49 30 263 96125", "name": "Kolumbianische Botschaft", "name:de": "Kolumbianische Botschaft", "name:en": "Embassy of Colombia", "name:es": "Embajada de Colombia", "name:fr": "Ambassade de Colombie", "name:ru": "Посольство Словении", "office": "diplomatic", "official_name": "Botschaft der Republik Kolumbien", "phone": "+49 30 263 9610", "target": "DE", "website": "http://www.embajada-colombia.de/", "wikidata": "Q5369613"}}, {"type": "node", "id": 799250033, "lat": 52.5124813, "lon": 13.4679883, "tags": {"addr:city": "Berlin", "addr:country": "DE", "addr:housenumber": "49", "addr:postcode": "10247", "addr:street": "Scharnweberstraße", "addr:suburb": "Friedrichshain", "check_date": "2023-04-22", "name": "Kinderevents Berlin", "office": "company", "phone": "+49 30 81704003", "website": "https://www.kinderevents-berlin.de/"}}, {"type": "node", "id": 802944055, "lat": 52.4949489, "lon": 13.307368, "tags": {"addr:city": "Berlin", "addr:country": "DE", "addr:housenumber": "16a", "addr:postcode": "10709", "addr:street": "Ballenstedter Straße", "addr:suburb": "Wilmersdorf", "contact:website": "http://www.stein-partners.com", "name": "Stein & Partners LLP", "office": "tax_advisor", "opening_hours:signed": "no", "wheelchair": "no"}}, {"type": "node", "id": 811195889, "lat": 52.5419027, "lon": 13.3896987, "tags": {"addr:city": "Berlin", "addr:country": "DE", "addr:housenumber": "5", "addr:postcode": "13355", "addr:street": "Voltastraße", "addr:suburb": "Gesundbrunnen", "contact:email": "info@imc-tm.de", "contact:fax": "+49 30 4631576", "contact:phone": "+49 30 4670900", "contact:website": "https://www.imc-tm.de/", "name": "imc Test & Measurement GmbH", "office": "company"}}, {"type": "node", "id": 821745842, "lat": 52.4581865, "lon": 13.3176125, "tags": {"addr:city": "Berlin", "addr:country": "DE", "addr:housenumber": "6a", "addr:postcode": "12165", "addr:street": "Grunewaldstraße", "addr:suburb": "Steglitz", "name": "W. Zibis Dentalhandel", "office": "company"}}, {"type": "node", "id": 823510190, "lat": 52.4864508, "lon": 13.297267, "tags": {"addr:city": "Berlin", "addr:country": "DE", "addr:housenumber": "57", "addr:postcode": "14199", "addr:street": "Hohenzollerndamm", "addr:suburb": "Schmargendorf", "name": "AHE Logistics", "office": "logistics", "wheelchair": "yes"}}, {"type": "node", "id": 826809355, "lat": 52.4532303, "lon": 13.2864626, "tags": {"addr:city": "Berlin", "addr:country": "DE", "addr:housenumber": "34", "addr:postcode": "14195", "addr:street": "Thielallee", "addr:suburb": "Dahlem", "name": "Cladouras & Kadri", "office": "architect", "website": "https://www.cladouras-kadri.com/kontakt", "wheelchair": "limited"}}, {"type": "node", "id": 828741343, "lat": 52.5481582, "lon": 13.4087036, "tags": {"health_facility:type": "laboratory", "health_specialty:clinical_pathology": "yes", "medical_system:western": "yes", "name": "Medizinisch Diagnostische Institute-MVZ", "office": "company"}}, {"type": "node", "id": 831742350, "lat": 52.5643848, "lon": 13.0930158, "tags": {"name": "Kleintierzüchterverein", "office": "association"}}, {"type": "node", "id": 835443084, "lat": 52.4977127, "lon": 13.2905348, "tags": {"name": "Rechtsanwalt Liese", "office": "lawyer"}}, {"type": "node", "id": 858318989, "lat": 52.5231928, "lon": 13.3905086, "tags": {"addr:city": "Berlin", "addr:country": "DE", "addr:housenumber": "10", "addr:postcode": "10117", "addr:street": "Ziegelstraße", "addr:suburb": "Mitte", "contact:phone": "+493020935307", "name": "Berufliche Weiterbildung (HU)", "office": "university", "operator": "Humboldt-Universität zu Berlin", "operator:type": "university"}}, {"type": "node", "id": 860120858, "lat": 52.4852972, "lon": 13.2952102, "tags": {"brand": "DEVK", "brand:wikidata": "Q1153049", "name": "DEVK", "office": "insurance"}}, {"type": "node", "id": 863228062, "lat": 52.530145, "lon": 13.3824608, "tags": {"name": "Studienabteilung (HU)", "office": "university"}}, {"type": "node", "id": 863228072, "lat": 52.5299036, "lon": 13.3819224, "tags": {"name": "Hochschulsport (HU)", "office": "university"}}, {"type": "node", "id": 863962727, "lat": 52.5051194, "lon": 13.4695904, "tags": {"health_facility:type": "office", "health_specialty:physiotherapy": "yes", "healthcare": "physiotherapist", "medical_system:western": "yes", "name": "Physiotherapie Regina Schulz", "office": "therapist", "opening_hours": "Mo-Th 07:30-19:00; Fr 07:30-15:00", "wheelchair": "yes"}}, {"type": "node", "id": 866058233, "lat": 52.501573, "lon": 13.4178171, "tags": {"addr:city": "Berlin", "addr:country": "DE", "addr:housenumber": "170", "addr:postcode": "10999", "addr:street": "Oranienstraße", "addr:suburb": "Kreuzberg", "contact:website": "http://www.luekobecker.de/", "name": "Lüko Becker", "office": "lawyer", "wheelchair": "no"}}, {"type": "node", "id": 867271475, "lat": 52.5010875, "lon": 13.418963, "tags": {"addr:city": "Berlin", "addr:country": "DE", "addr:housenumber": "91", "addr:postcode": "10999", "addr:street": "Adalbertstraße", "addr:suburb": "Kreuzberg", "amenity": "cafe", "check_date": "2023-02-12", "level": "0", "name": "Café Três", "office": "travel_agent", "opening_hours": "Mo-Fr 08:00-19:30; Sa 09:00-19:30", "wheelchair": "no"}}, {"type": "node", "id": 867874219, "lat": 52.5032236, "lon": 13.4127481, "tags": {"addr:city": "Berlin", "addr:country": "DE", "addr:postcode": "10969", "addr:suburb": "Kreuzberg", "contact:email": "office@dko-berlin.de", "contact:fax": "+49 30 3260 8610", "contact:phone": "+49 30 3260 8612", "contact:website": "http://next.dko-berlin.de/", "is_in": "Kreuzberg,Friedrichshain-Kreuzberg,Berlin,Bundesrepublik Deutschland,Europe", "name": "Deutsches Kammerorchester Berlin", "office": "yes"}}, {"type": "node", "id": 869819035, "lat": 52.5030306, "lon": 13.4149815, "tags": {"addr:city": "Berlin", "addr:country": "DE", "addr:housenumber": "5", "addr:postcode": "10999", "addr:street": "Oranienplatz", "addr:suburb": "Kreuzberg", "contact:website": "https://www.cymage-media.com/", "name": "Cymage Media", "office": "company"}}, {"type": "node", "id": 869819036, "lat": 52.5030706, "lon": 13.414819, "tags": {"addr:city": "Berlin", "addr:country": "DE", "addr:housenumber": "5", "addr:postcode": "10999", "addr:street": "Oranienplatz", "addr:suburb": "Kreuzberg", "contact:website": "http://pfe-berlin.de/kontakt.htm", "name": "PFE", "office": "engineering"}}, {"type": "node", "id": 871561380, "lat": 52.5007393, "lon": 13.4191067, "tags": {"addr:city": "Berlin", "addr:country": "DE", "addr:housenumber": "9", "addr:postcode": "10999", "addr:street": "Adalbertstraße", "addr:suburb": "Kreuzberg", "contact:website": "http://www.halteverbot123.de/index.html", "name": "Halteverbot24", "office": "company"}}, {"type": "node", "id": 871572118, "lat": 52.5003759, "lon": 13.4176316, "tags": {"addr:city": "Berlin", "addr:country": "DE", "addr:housenumber": "9", "addr:postcode": "10999", "addr:street": "Dresdener Straße", "addr:suburb": "Kreuzberg", "contact:email": "kontakt@nubar.info", "contact:facebook": "https://www.facebook.com/nubarpage/", "contact:website": "http://lerne-kurdisch.de", "contact:youtube": "https://www.youtube.com/watch?v=at_u1ZI5nUg", "name": "Nûbar - Kurdische Studierende in Berlin & Brandenburg", "note": "Die Webseite ist nicht erreichbar. Die Domain ist bei Dargonparking.com", "office": "yes"}}, {"type": "node", "id": 871633752, "lat": 52.503002, "lon": 13.4139777, "tags": {"addr:city": "Berlin", "addr:country": "DE", "addr:suburb": "Kreuzberg", "is_in": "Kreuzberg,Friedrichshain-Kreuzberg,Berlin,Bundesrepublik Deutschland,Europe", "name": "PDS Partei des Demokratischen Sozialismus Friedrichshain-Kreuzberg Stützpunkt Kreuzberg", "office": "political_party"}}, {"type": "node", "id": 871633754, "lat": 52.5029137, "lon": 13.4139348, "tags": {"name": "synergion", "office": "yes", "website": "http://synergion.info/"}}, {"type": "node", "id": 871636128, "lat": 52.5004506, "lon": 13.4217061, "tags": {"contact:email": "wir@bar-pacifico.de", "contact:phone": "+49 30 60986908", "contact:website": "https://www.bar-pacifico.de/", "name": "Bar Pacifico", "office": "graphic_design", "old_name": "Pacifico Grafik", "wheelchair": "no"}}, {"type": "node", "id": 871637298, "lat": 52.5003929, "lon": 13.4216581, "tags": {"name": "Keule Druck", "office": "company", "website": "http://keuledruck.de"}}, {"type": "node", "id": 872634230, "lat": 52.5030309, "lon": 13.4203314, "tags": {"amenity": "realtor", "name": "Yesi GmbH", "office": "company"}}, {"type": "node", "id": 872660264, "lat": 52.5040123, "lon": 13.4206631, "tags": {"name": "Compusense Bigga Rodeck e.K", "office": "company", "website": "https://compusense.de/"}}, {"type": "node", "id": 873462920, "lat": 52.5014968, "lon": 13.414193, "tags": {"name": "prenses event center", "office": "company", "website": "https://www.prensesevent.com/"}}, {"type": "node", "id": 874357622, "lat": 52.502759, "lon": 13.4134802, "tags": {"name:signed": "no", "office": "lawyer", "wheelchair": "no"}}, {"type": "node", "id": 874455982, "lat": 52.5018559, "lon": 13.4135382, "tags": {"addr:city": "Berlin", "addr:country": "DE", "addr:housenumber": "26", "addr:postcode": "10969", "addr:street": "Prinzessinnenstraße", "addr:suburb": "Kreuzberg", "name": "Motiv Offset Druckerei", "office": "company"}}, {"type": "node", "id": 874455984, "lat": 52.5019401, "lon": 13.4133951, "tags": {"addr:city": "Berlin", "addr:country": "DE", "addr:housenumber": "26", "addr:postcode": "10969", "addr:street": "Prinzessinnenstraße", "addr:suburb": "Kreuzberg", "name": "x-media", "office": "company"}}, {"type": "node", "id": 874455986, "lat": 52.5019047, "lon": 13.4134968, "tags": {"addr:city": "Berlin", "addr:country": "DE", "addr:housenumber": "26", "addr:postcode": "10969", "addr:street": "Prinzessinnenstraße", "addr:suburb": "Kreuzberg", "name": "contour design", "office": "company"}}, {"type": "node", "id": 874455988, "lat": 52.5018144, "lon": 13.413584, "tags": {"addr:city": "Berlin", "addr:country": "DE", "addr:housenumber": "26", "addr:postcode": "10969", "addr:street": "Prinzessinnenstraße", "addr:suburb": "Kreuzberg", "contact:website": "http://www.druckerei-bloch-berlin.de", "name": "Bloch & Co", "office": "company"}}, {"type": "node", "id": 874457092, "lat": 52.501687, "lon": 13.4138399, "tags": {"addr:city": "Berlin", "addr:country": "DE", "addr:housenumber": "29", "addr:postcode": "10969", "addr:street": "Prinzessinnenstraße", "addr:suburb": "Kreuzberg", "contact:website": "http://www.preinfalken.de/", "name": "die Preinfalken GmbH", "office": "company"}}, {"type": "node", "id": 874459676, "lat": 52.5017419, "lon": 13.4137643, "tags": {"addr:city": "Berlin", "addr:country": "DE", "addr:housenumber": "29", "addr:postcode": "10969", "addr:street": "Prinzessinnenstraße", "addr:suburb": "Kreuzberg", "name": "Avanti", "office": "company"}}, {"type": "node", "id": 874461199, "lat": 52.5014269, "lon": 13.4142556, "tags": {"addr:city": "Berlin", "addr:country": "DE", "addr:housenumber": "30", "addr:postcode": "10969", "addr:street": "Prinzessinnenstraße", "addr:suburb": "Kreuzberg", "name": "FRC Fundraising", "office": "company"}}, {"type": "node", "id": 874462033, "lat": 52.5013844, "lon": 13.4142875, "tags": {"addr:city": "Berlin", "addr:country": "DE", "addr:housenumber": "30", "addr:postcode": "10969", "addr:street": "Prinzessinnenstraße", "addr:suburb": "Kreuzberg", "name": "Echnaton", "office": "company"}}, {"type": "node", "id": 895766177, "lat": 52.517422, "lon": 13.407926, "tags": {"addr:city": "Berlin", "addr:country": "DE", "addr:housenumber": "1", "addr:postcode": "10178", "addr:street": "Propststraße", "addr:suburb": "Mitte", "contact:website": "http://www.most-bruecke.de/", "name": "most brücke e.V.", "office": "ngo", "wheelchair": "limited"}}, {"type": "node", "id": 904958864, "lat": 52.5314721, "lon": 13.4252189, "tags": {"addr:city": "Berlin", "addr:country": "DE", "addr:housenumber": "14", "addr:postcode": "10405", "addr:street": "Immanuelkirchstraße", "addr:suburb": "Prenzlauer Berg", "contact:website": "https://www.cimdata.de/berlin/prenzlauer-berg/", "name": "cimdata", "office": "educational_institution", "phone": "+49 30 8507263-31"}}, {"type": "node", "id": 928088216, "lat": 52.4309878, "lon": 13.534391, "tags": {"addr:city": "Berlin", "addr:country": "DE", "addr:housenumber": "17", "addr:postcode": "12489", "addr:street": "Rudower Chaussee", "addr:suburb": "Adlershof", "contact:website": "https://www.adlershof.de/", "name": "Wista-Management", "office": "company"}}, {"type": "node", "id": 930198258, "lat": 52.472429, "lon": 13.4385082, "tags": {"addr:city": "Berlin", "addr:country": "DE", "addr:housenumber": "9", "addr:postcode": "12053", "addr:street": "Rübelandstraße", "addr:suburb": "Neukölln", "name": "Kirchliches Verwaltungsamt Neukölln", "office": "religion", "wheelchair": "yes"}}, {"type": "node", "id": 941475632, "lat": 52.5409609, "lon": 13.348044, "tags": {"addr:city": "Berlin", "addr:country": "DE", "addr:housenumber": "7", "addr:postcode": "13353", "addr:street": "Föhrer Straße", "addr:suburb": "Wedding", "amenity": "doctors", "contact:phone": "+49304539051", "description": "inner_medicine, GP", "health_facility:type": "office", "health_specialty:family_medicine": "yes", "health_specialty:internal_medicine": "yes", "healthcare": "doctor", "medical_system:western": "yes", "name": "Dr. med. Erich Freisleben", "office": "physician", "opening_hours": "Mo,Tu 08:00-14:00; We 14:00-19:00; Th,Fr 08:00-12:00, Th 14:00-18:00", "wheelchair": "limited"}}, {"type": "node", "id": 941475633, "lat": 52.5409285, "lon": 13.3479893, "tags": {"amenity": "doctors", "description": "GP, naturopathic treatment, chirotherapist", "health_facility:type": "office", "health_specialty:alternative_medicine": "partial", "health_specialty:chiropractic": "yes", "health_specialty:family_medicine": "yes", "health_specialty:manual_therapy": "yes", "health_specialty:naturopathy": "yes", "healthcare": "doctor", "medical_system:western": "yes", "name": "Michèle Klara Lux", "office": "physician", "wheelchair": "limited"}}, {"type": "node", "id": 941475641, "lat": 52.5409645, "lon": 13.3487926, "tags": {"check_date": "2023-09-07", "name": "Ingenieurbüro U. Gronowski", "office": "engineering", "phone": "+49 30 39838088", "website": "http://www.gronowski.com"}}, {"type": "node", "id": 941475642, "lat": 52.540881, "lon": 13.3488963, "tags": {"description": "Patientenbetreuung", "name": "Accord Berlin - Patientenbetreuung", "office": "healthcare"}}, {"type": "node", "id": 945419939, "lat": 52.5008627, "lon": 13.3883921, "tags": {"addr:city": "Berlin", "addr:country": "DE", "addr:housenumber": "138-139", "addr:postcode": "10963", "addr:street": "Wilhelmstraße", "name": "Deutsche Rentenversicherung Knappschaft-Bahn-See", "office": "insurance"}}, {"type": "node", "id": 950241781, "lat": 52.5520378, "lon": 13.4031601, "tags": {"name": "Seifarith", "office": "architect"}}, {"type": "node", "id": 950241904, "lat": 52.551977, "lon": 13.4032487, "tags": {"name": "Teut", "office": "engineer"}}, {"type": "node", "id": 950241992, "lat": 52.5514867, "lon": 13.402474, "tags": {"name": "Sven Lewalten", "office": "lawyer", "wheelchair": "no"}}, {"type": "node", "id": 950374700, "lat": 52.5571422, "lon": 13.3925351, "tags": {"addr:city": "Berlin", "addr:country": "DE", "addr:housenumber": "5", "addr:postcode": "13359", "addr:street": "Soldiner Straße", "addr:suburb": "Gesundbrunnen", "office": "company"}}, {"type": "node", "id": 951760616, "lat": 52.5051264, "lon": 13.3254424, "tags": {"contact:email": "secretariat@ambassade-haiti.de", "country": "HT", "diplomatic": "embassy", "embassy": "yes", "name": "Botschaft der Republik Haiti", "office": "diplomatic", "target": "DE", "wheelchair": "yes"}}, {"type": "node", "id": 959169507, "lat": 52.5116426, "lon": 13.391434, "tags": {"addr:city": "Berlin", "addr:country": "DE", "addr:housenumber": "62", "addr:postcode": "10117", "addr:street": "Charlottenstraße", "addr:suburb": "Mitte", "name": "Kintyre", "office": "estate_agent"}}, {"type": "node", "id": 967206087, "lat": 52.498238, "lon": 13.2905956, "tags": {"addr:city": "Berlin", "addr:country": "DE", "addr:housenumber": "4", "addr:postcode": "10711", "addr:street": "Georg-Wilhelm-Straße", "addr:suburb": "Halensee", "office": "yes"}}, {"type": "node", "id": 967206126, "lat": 52.4997064, "lon": 13.2924853, "tags": {"addr:city": "Berlin", "addr:country": "DE", "addr:housenumber": "19", "addr:postcode": "10711", "addr:street": "Katharinenstraße", "name": "KAS Bildung", "office": "employment_agency", "website": "https://kas-bildung.de/"}}, {"type": "node", "id": 972412931, "lat": 52.5005233, "lon": 13.2929609, "tags": {"addr:city": "Berlin", "addr:country": "DE", "addr:housenumber": "12", "addr:postcode": "10711", "addr:street": "Katharinenstraße", "addr:suburb": "Halensee", "name": "OPTIMAL SYSTEMS Vertriebsgesellschaft mbH Berlin", "office": "it", "opening_hours": "Mo-Fr 08:00-17:00; PH off", "phone": "+49 308957080", "website": "https://www.optimal-systems.de"}}, {"type": "node", "id": 987770651, "lat": 52.3629924, "lon": 13.1080993, "tags": {"addr:city": "Potsdam", "addr:country": "DE", "addr:housenumber": "2-4", "addr:postcode": "14478", "addr:street": "Am Bürohochhaus", "brand": "Bonnfinanz", "contact:email": "detlef.toepfer@bonnfinanz.de", "contact:mobile": "+49 177 606 0088", "contact:phone": "+49 331 867 21939", "contact:website": "https://www.bonnfinanz.de/detlef-toepfer", "name": "Finanzberater Detlef Töpfer", "office": "insurance", "operator": "Detlef Töpfer", "operator:type": "private"}}, {"type": "node", "id": 987770759, "lat": 52.3848696, "lon": 13.1048654, "tags": {"addr:city": "Potsdam", "addr:country": "DE", "addr:housenumber": "14", "addr:postcode": "14482", "addr:street": "Fritz-Zubeil-Straße", "addr:suburb": "Babelsberg", "contact:email": "fabian.heyle@heyle-law.de", "contact:phone": "+49 331 870 97897", "contact:website": "https://www.heyle-law.de/", "description": "Projektbegleitende Rechtsberatung, Mediation und Schlichtung im Eisenbahnsektor.", "name": "Fabian Heyle", "office": "lawyer", "operator": "Dr. jur. Fabian Heyle", "operator:type": "private"}}, {"type": "node", "id": 987804390, "lat": 52.5077645, "lon": 13.4656964, "tags": {"addr:housenumber": "10-11", "addr:street": "Holteistraße", "description": "Agentur für Werbeproduktion", "name": "SkyRanch", "office": "advertising_agency", "opening_hours": "Mo-Fr 09:00-18:30", "phone": "+493029047048", "website": "http://www.skyranch-berlin.de"}}, {"type": "node", "id": 990400041, "lat": 52.5123884, "lon": 13.4715499, "tags": {"check_date:opening_hours": "2022-12-03", "name": "Immowert", "office": "estate_agent", "opening_hours:signed": "no"}}, {"type": "node", "id": 1022709662, "lat": 52.5153349, "lon": 13.2923358, "tags": {"office": "insurance"}}, {"type": "node", "id": 1033451905, "lat": 52.3960159, "lon": 13.0943594, "tags": {"name": "Mando Immobilien", "office": "estate_agent", "shop": "estate_agent"}}, {"type": "node", "id": 1036863599, "lat": 52.4312742, "lon": 13.3331892, "tags": {"name": "Fürst zu Donnersmark Stiftung Hausverwaltung mbH", "office": "estate_agent", "website": "https://www.fds-hausverwaltung.de/", "wheelchair": "yes"}}, {"type": "node", "id": 1045533310, "lat": 52.4814585, "lon": 13.3501125, "tags": {"addr:city": "Berlin", "addr:country": "DE", "addr:housenumber": "39", "addr:postcode": "10827", "addr:street": "Feurigstraße", "addr:suburb": "Schöneberg", "description": "Kfz-Gutachten; Kfz-Zulassungsdienst", "name": "Zentralgutachter", "office": "surveyor", "website": "https://www.zentralgutachter.de/;http://www.zentralzulasser.de"}}, {"type": "node", "id": 1063616672, "lat": 52.5439491, "lon": 13.1836218, "tags": {"addr:city": "Berlin", "addr:country": "DE", "addr:housenumber": "37", "addr:postcode": "13583", "addr:street": "Zeppelinstraße", "addr:suburb": "Falkenhagener Feld", "fixme": "position / addr:housenumber", "name": "Zeppelin Rechtsanwälte", "office": "lawyer", "opening_hours": "\"Termine nach Vereinbarung\""}}, {"type": "node", "id": 1067857449, "lat": 52.3964918, "lon": 13.0939284, "tags": {"name": "Stark Werbemittel", "office": "advertising_agency"}}, {"type": "node", "id": 1067857566, "lat": 52.3946658, "lon": 13.0927665, "tags": {"name": "HEV Potsdam", "office": "property_management", "website": "https://www.hev-potsdam.de/"}}, {"type": "node", "id": 1082679891, "lat": 52.4330712, "lon": 13.258921, "tags": {"addr:city": "Berlin", "addr:country": "DE", "addr:housenumber": "1/3", "addr:postcode": "14163", "addr:street": "Kirchstraße", "addr:suburb": "Zehlendorf", "air_conditioning": "no", "baby_feeding": "no", "email": "buergeramt@ba-sz.berlin.de", "fax": "+49 30 90299-6336", "government": "yes", "level": "0", "name": "Bürgeramt Zehlendorf", "office": "government", "opening_hours": "Mo 08:00-15:00; Tu 10:00-14:00, 15:00-18:00; We 08:00-14:00; Th 10:00-14:00, 15:00-18:00; Fr 08:00-13:00; PH,Sa,Su off", "operator": "Bezirksamt Steglitz-Zehlendorf von Berlin", "phone": "+49 30 115", "smoking": "no", "website": "https://service.berlin.de/standort/122267/", "wheelchair": "yes"}}, {"type": "node", "id": 1108733228, "lat": 52.4611965, "lon": 13.5170685, "tags": {"addr:city": "Berlin", "addr:country": "DE", "addr:housenumber": "83-85", "addr:postcode": "12459", "addr:street": "Wilhelminenhofstraße", "addr:suburb": "Oberschöneweide", "office": "company", "operator": "RGKP Videoproduktion"}}, {"type": "node", "id": 1111389554, "lat": 52.4643862, "lon": 13.3168875, "tags": {"addr:city": "Berlin", "addr:country": "DE", "addr:housenumber": "23", "addr:postcode": "12163", "addr:street": "Schildhornstraße", "addr:suburb": "Steglitz", "brand": "Allianz", "brand:wikidata": "Q487292", "check_date": "2023-07-01", "name": "Allianz", "office": "insurance", "operator": "Jan Andres", "website": "https://vertretung.allianz.de/jan.andres/"}}, {"type": "node", "id": 1112359776, "lat": 52.5135012, "lon": 13.4182013, "tags": {"addr:city": "Berlin", "addr:country": "DE", "addr:housenumber": "6", "addr:postcode": "10179", "addr:street": "Brückenstraße", "addr:suburb": "Mitte", "contact:website": "https://www.berlin.de/sen/uvk/", "government": "ministry", "name": "Senatsverwaltung für Mobilität, Verkehr, Klimaschutz und Umwelt", "office": "government", "wheelchair": "limited"}}, {"type": "node", "id": 1118821817, "lat": 52.3498905, "lon": 13.1036935, "tags": {"addr:city": "Nuthetal", "addr:country": "DE", "addr:housenumber": "2", "addr:postcode": "14558", "addr:street": "Zum Springbruch", "addr:suburb": "Bergholz-Rehbrücke", "contact:email": "info@pmreisebuero.de", "contact:phone": "+49 33200 401 81", "contact:website": "https://pmreisebuero.de/", "name": "PM Reisebüro Travel & Services", "office": "travel_agent", "opening_hours": "Mo-Fr 10:00-13:30,14:00-18:00; Sa 10:00-13:00; PH,Su off", "operator": "PM Reisebüro Travel & Services GmbH", "operator:type": "business", "shop": "travel_agency", "wheelchair": "yes"}}, {"type": "node", "id": 1118821851, "lat": 52.3495642, "lon": 13.1017773, "tags": {"addr:city": "Nuthetal", "addr:country": "DE", "addr:housenumber": "12", "addr:postcode": "14558", "addr:street": "Zum Springbruch", "addr:suburb": "Bergholz-Rehbrücke", "brand": "Vereinigte Lohnsteuerhilfe", "brand:wikidata": "Q15852617", "brand:wikipedia": "de:Vereinigte Lohnsteuerhilfe", "contact:email": "petra.fritzsche@vlh.de", "contact:phone": "+49 33200 826 46", "contact:website": "https://www.vlh.de/bst/1035/", "name": "Vereinigte Lohnsteuerhilfe", "office": "tax_advisor", "opening_hours": "Mo 14:00-19:00; Tu,Th 10:00-12:00,14:00-18:00; We 10:00-12:00,13:00-16:00; Fr \"nach Vereinbarung\"; PH,Sa,Su off", "operator": "Lohnsteuerhilfeverein Vereinigte Lohnsteuerhilfe e.V.", "operator:short": "VLH", "operator:type": "association", "operator:wikidata": "Q15852617", "operator:wikipedia": "de:Vereinigte Lohnsteuerhilfe"}}, {"type": "node", "id": 1122147103, "lat": 52.5139003, "lon": 13.3875861, "tags": {"addr:city": "Berlin", "addr:country": "DE", "addr:housenumber": "65", "addr:postcode": "10117", "addr:street": "Jägerstraße", "addr:suburb": "Mitte", "name": "relevantive AG – user experience research", "office": "company", "website": "https://relevantive.de/", "wheelchair": "limited"}}, {"type": "node", "id": 1131121459, "lat": 52.5093117, "lon": 13.3239273, "tags": {"addr:city": "Berlin", "addr:country": "DE", "addr:housenumber": "2-3", "addr:postcode": "10623", "addr:street": "Goethestraße", "addr:suburb": "Charlottenburg", "contact:email": "info@loom.de", "contact:phone": "+4930200090100", "contact:website": "https://loom.de", "indoor": "yes", "level": "3", "name": "LOOM", "name:eo": "LOOM", "office": "company", "opening_hours": "Mo-Fr 09:00-18:00", "operator": "LOOM GmbH", "smoking": "no", "toilets:wheelchair": "no", "wheelchair": "yes", "wikidata": "Q77327490"}}, {"type": "node", "id": 1135617239, "lat": 52.5144587, "lon": 13.4597961, "tags": {"addr:city": "Berlin", "addr:country": "DE", "addr:housenumber": "25", "addr:postcode": "10247", "addr:street": "Niederbarnimstraße", "addr:suburb": "Friedrichshain", "brand": "Adiuro Rechtsanwälte", "contact:phone": "+49-30-97005601", "contact:website": "http://judiz.de/", "name": "Rechtsanwalt Michael Below", "office": "lawyer", "website": "https://www.judiz.de/", "wheelchair": "no"}}, {"type": "node", "id": 1135819844, "lat": 52.546674, "lon": 13.2071758, "tags": {"contact:phone": "+49 30 39937352", "contact:website": "http://www.sjb-netzwerk.de/", "name": "Senioren-, Jugend- und Bildungsnetzwerk e.V.", "office": "association", "toilets:wheelchair": "no", "wheelchair": "no"}}, {"type": "node", "id": 1139846439, "lat": 52.5729931, "lon": 13.3918228, "tags": {"addr:city": "Berlin", "addr:country": "DE", "addr:housenumber": "15", "addr:postcode": "13156", "addr:street": "Heinrich-Mann-Platz", "addr:suburb": "Niederschönhausen", "contact:facebook": "https://www.facebook.com/tompurdesign/", "contact:phone": "+49 30 486286-110", "name": "tompurdesign", "office": "architect", "opening_hours": "Mo-Fr 09:00-20:00", "operator": "Thomas Purschke", "website": "https://architekt-thomas-purschke.business.site/", "wheelchair": "yes"}}, {"type": "node", "id": 1145579395, "lat": 52.511133, "lon": 13.2865181, "tags": {"addr:city": "Berlin", "addr:country": "DE", "addr:housenumber": "2", "addr:postcode": "14059", "addr:street": "Saldernstraße", "addr:suburb": "Charlottenburg", "name": "CompiDoc-Berlin", "office": "it", "operator": "G. Lagemann", "phone": "+49 175 1625201", "website": "http://www.CompiDoc-Berlin.de"}}, {"type": "node", "id": 1149142741, "lat": 52.5029242, "lon": 13.2855368, "tags": {"addr:city": "Berlin", "addr:country": "DE", "addr:housenumber": "27a", "addr:postcode": "14057", "addr:street": "Dernburgstraße", "addr:suburb": "Charlottenburg", "contact:phone": "+49 30 96515624", "contact:website": "http://www.nicma-design.de/", "name": "nicma design", "office": "company"}}, {"type": "node", "id": 1159055481, "lat": 52.5283139, "lon": 13.4250785, "tags": {"addr:city": "Berlin", "addr:country": "DE", "addr:housenumber": "34", "addr:postcode": "10407", "addr:street": "Am Friedrichshain", "addr:suburb": "Prenzlauer Berg", "contact:website": "https://www.openpetition.eu/", "description": "Werkstatt Digitale Demokratie", "name": "openPetition", "office": "association", "operator": "openPetition gGmbH", "wheelchair": "yes"}}, {"type": "node", "id": 1168663306, "lat": 52.5170639, "lon": 13.2758172, "tags": {"contact:email": "armgermanyembassy@mfa.am", "contact:fax": "+49 30 40509125", "contact:phone": "+49 30 4050910", "country": "AM", "diplomatic": "embassy", "embassy": "yes", "name": "Botschaft der Republik Armenien", "name:en": "Embassy of the Republic of Armenia", "name:fr": "Ambassade dArménie", "name:hy": "ԳԴՀ-ում Հայաստանի Հանրապետության դեսպանություն", "office": "diplomatic", "opening_hours": "Mo,We,Th 09:30-13:30; Tu 09:30-17:30", "website": "https://germany.mfa.am/de", "wheelchair": "no", "wikidata": "Q22344384", "wikipedia": "de:Armenische Botschaft in Berlin"}}, {"type": "node", "id": 1168804116, "lat": 52.5141973, "lon": 13.273071, "tags": {"addr:city": "Berlin", "addr:country": "DE", "addr:housenumber": "16", "addr:postcode": "14050", "addr:street": "Lindenallee", "addr:suburb": "Westend", "contact:phone": "+49 30 30 82 06 73", "country": "TN", "diplomatic": "embassy", "embassy": "yes", "name": "Botschaft der Tunesischen Republik", "office": "diplomatic", "opening_hours": "Tu-Sa 09:00-13:00", "website": "http://tunesien.tn/", "wikidata": "Q72014824"}}, {"type": "node", "id": 1168843315, "lat": 52.5172812, "lon": 13.2681145, "tags": {"addr:city": "Berlin", "addr:country": "DE", "addr:housenumber": "11", "addr:postcode": "14050", "addr:street": "Eschenallee", "addr:suburb": "Westend", "alt_name:ar": "السفارة التنزانية", "contact:fax": "+49 30 30308020", "contact:phone": "+49 30 3030800", "country": "TZ", "diplomatic": "embassy", "embassy": "yes", "name": "Botschaft von Tansania", "name:ar": "سفارة تنزانيا", "office": "diplomatic", "official_name": "Botschaft der Vereinigten Republik Tansania", "official_name:ar": "سفارة جمهورية تنزانيا المتحدة", "opening_hours": "Mo-Fr 09:00-16:30", "target": "AT;BG;CH;CZ;DE;HU;SK;RO;PL;VA", "website": "https://de.tzembassy.go.tz/", "wikidata": "Q55341078", "wikipedia": "de:Botschaft der Vereinigten Republik Tansania in Berlin"}}, {"type": "node", "id": 1172034535, "lat": 52.6073771, "lon": 13.4206817, "tags": {"name": "Traum-Reisen", "office": "travel_agent"}}, {"type": "node", "id": 1180321440, "lat": 52.540339, "lon": 13.4278169, "tags": {"government": "register_office", "name": "Standesamt", "office": "government", "wheelchair": "limited"}}, {"type": "node", "id": 1187060116, "lat": 52.5277629, "lon": 13.3811144, "tags": {"check_date:opening_hours": "2022-10-19", "name": "emtec e.V.", "office": "association", "opening_hours:signed": "no", "wheelchair": "yes"}}, {"type": "node", "id": 1194597950, "lat": 52.5163631, "lon": 13.3063975, "tags": {"check_date": "2023-08-21", "level": "0", "name": "Rewald GmbH", "office": "company", "wheelchair": "yes"}}, {"type": "node", "id": 1198449223, "lat": 52.4849124, "lon": 13.296969, "tags": {"addr:city": "Berlin", "addr:country": "DE", "addr:housenumber": "150", "addr:postcode": "14199", "addr:street": "Hohenzollerndamm", "addr:suburb": "Schmargendorf", "name": "FFS Film- & Fernseh-Synchron", "office": "company"}}, {"type": "node", "id": 1199061275, "lat": 52.4850977, "lon": 13.2974916, "tags": {"addr:city": "Berlin", "addr:country": "DE", "addr:housenumber": "150", "addr:postcode": "14199", "addr:street": "Hohenzollerndamm", "addr:suburb": "Schmargendorf", "name": "Arena Film Synchron", "office": "company"}}, {"type": "node", "id": 1199061285, "lat": 52.485079, "lon": 13.2969931, "tags": {"addr:city": "Berlin", "addr:country": "DE", "addr:housenumber": "150", "addr:postcode": "14199", "addr:street": "Hohenzollerndamm", "addr:suburb": "Schmargendorf", "name": "ARRI Film & TV Services", "office": "company"}}, {"type": "node", "id": 1199061298, "lat": 52.484718, "lon": 13.2969368, "tags": {"addr:city": "Berlin", "addr:country": "DE", "addr:housenumber": "150", "addr:postcode": "14199", "addr:street": "Hohenzollerndamm", "addr:suburb": "Schmargendorf", "name": "RC Production", "office": "company"}}, {"type": "node", "id": 1208626276, "lat": 52.4247301, "lon": 13.4741526, "tags": {"addr:city": "Berlin", "addr:country": "DE", "addr:housenumber": "51", "addr:postcode": "12353", "addr:street": "Wutzkyallee", "addr:suburb": "Gropiusstadt", "entrance": "yes", "name": "Couporando", "office": "company", "website": "https://www.couporando.de/"}}, {"type": "node", "id": 1209659372, "lat": 52.4912437, "lon": 13.3856147, "tags": {"name": "Steffan Fiebig", "office": "insurance"}}, {"type": "node", "id": 1211913324, "lat": 52.5337752, "lon": 13.1865537, "tags": {"addr:city": "Berlin", "addr:country": "DE", "addr:housenumber": "75-77", "addr:postcode": "13581", "addr:street": "Brunsbütteler Damm", "addr:suburb": "Spandau", "name": "Arbeitsagentur Spandau", "office": "employment_agency", "toilets:wheelchair": "yes", "wheelchair": "yes"}},