{"type": "FeatureCollection", "features": [{"type": "Feature", "geometry": {"type": "Point", "coordinates": [13.3536389, 52.5336632]}, "properties": {"id": "29695282", "name": "Polizei Abschnitt 27", "street": "Perleberger Straße 61A", "zip-code": 10559.0, "city": "Berlin", "planning-area-id": 1200623}}, {"type": "Feature", "geometry": {"type": "Point", "coordinates": [13.3905699, 52.5049589]}, "properties": {"id": "84644753", "name": "Abschnitt 53 Kreuzberg-Nord", "street": "Friedrichstraße 219", "zip-code": 10969.0, "city": "Berlin", "planning-area-id": 2100102}}, {"type": "Feature", "geometry": {"type": "Point", "coordinates": [13.3475906, 52.4276915]}, "properties": {"id": "206102770", "name": "Polizei Abschnitt 46", "street": "", "zip-code": "", "city": "", "planning-area-id": 6200315}}, {"type": "Feature", "geometry": {"type": "Point", "coordinates": [13.2269115, 52.5280167]}, "properties": {"id": "242769298", "name": "Polizei Abschnitt 22", "street": "", "zip-code": "", "city": "", "planning-area-id": 5100317}}, {"type": "Feature", "geometry": {"type": "Point", "coordinates": [13.4347588, 52.479156]}, "properties": {"id": "244118624", "name": "Polizeiabschnitt 55", "street": "Rollbergstraße 9", "zip-code": 12053.0, "city": "Berlin", "planning-area-id": 8100206}}, {"type": "Feature", "geometry": {"type": "Point", "coordinates": [13.4562264, 52.4922153]}, "properties": {"id": "261965140", "name": "Gemeinsames Terrorismusabwehrzentrum", "street": "Am Treptower Park 5-8", "zip-code": 12435.0, "city": "Berlin", "planning-area-id": 9100101}}, {"type": "Feature", "geometry": {"type": "Point", "coordinates": [13.4968683, 52.5093215]}, "properties": {"id": "509897018", "name": "Bundespolizei", "street": "", "zip-code": "", "city": "", "planning-area-id": 11300826}}, {"type": "Feature", "geometry": {"type": "Point", "coordinates": [13.3336775, 52.5085216]}, "properties": {"id": "530786748", "name": "Bundespolizei", "street": "", "zip-code": "", "city": "", "planning-area-id": 4501042}}, {"type": "Feature", "geometry": {"type": "Point", "coordinates": [13.238435, 52.513314]}, "properties": {"id": "573418582", "name": "Stadionwache", "street": "", "zip-code": "", "city": "", "planning-area-id": 4200203}}, {"type": "Feature", "geometry": {"type": "Point", "coordinates": [13.4156959, 52.524282]}, "properties": {"id": "614482788", "name": "Polizei Berlin – Abschnitt 57", "street": "Keibelstraße 35", "zip-code": 10178.0, "city": "Berlin", "planning-area-id": 1100310}}, {"type": "Feature", "geometry": {"type": "Point", "coordinates": [13.4523417, 52.5379765]}, "properties": {"id": "659031944", "name": "Polizei Berlin Abschnitt 16", "street": "Storkower Straße 101", "zip-code": 10407.0, "city": "Berlin", "planning-area-id": 3601450}}, {"type": "Feature", "geometry": {"type": "Point", "coordinates": [13.3659377, 52.5220276]}, "properties": {"id": "988558167", "name": "Polizei Abschnitt 28", "street": "Alt-Moabit 145", "zip-code": 10557.0, "city": "Berlin", "planning-area-id": 1200628}}, {"type": "Feature", "geometry": {"type": "Point", "coordinates": [13.2446746, 52.6171547]}, "properties": {"id": "1235571254", "name": "2. Bereitschaftspolizeiabteilung", "street": "", "zip-code": "", "city": "", "planning-area-id": 12400618}}, {"type": "Feature", "geometry": {"type": "Point", "coordinates": [13.4353317, 52.5094753]}, "properties": {"id": "1288824514", "name": "Bundespolizei", "street": "", "zip-code": 10243.0, "city": "Berlin", "planning-area-id": 2400623}}, {"type": "Feature", "geometry": {"type": "Point", "coordinates": [13.289049, 52.5824041]}, "properties": {"id": "2891400692", "name": "Polizei Berlin – Abschnitt 11", "street": "Berliner Straße 35", "zip-code": 13507.0, "city": "Berlin", "planning-area-id": 12200515}}, {"type": "Feature", "geometry": {"type": "Point", "coordinates": [13.444588, 52.5122072]}, "properties": {"id": "3230826578", "name": "Polizei Berlin Abschnitt 51", "street": "Wedekindstraße 10", "zip-code": 10243.0, "city": "Berlin", "planning-area-id": 2400624}}, {"type": "Feature", "geometry": {"type": "Point", "coordinates": [13.4183773, 52.5001222]}, "properties": {"id": "10671508605", "name": "Polizeistation", "street": "", "zip-code": "", "city": "", "planning-area-id": 2300314}}, {"type": "Feature", "geometry": {"type": "Point", "coordinates": [13.3977448, 52.4854342]}, "properties": {"id": "11252767968", "name": "Polizeidirektion 5", "street": "", "zip-code": "", "city": "", "planning-area-id": 2200211}}]}