{"type": "FeatureCollection", "features": [{"type": "Feature", "geometry": {"type": "Point", "coordinates": [13.4063986, 52.5320308]}, "properties": {"id": "1844110877", "name": "Mini Markt", "street": "Fehrbelliner Straße 85", "zip-code": 10119.0, "city": "Berlin", "planning-area-id": 3701554}}, {"type": "Feature", "geometry": {"type": "Point", "coordinates": [13.2959163, 52.4726139]}, "properties": {"id": "3033742785", "name": "Samil Sangsa", "street": "Breite Straße 46", "zip-code": 14199.0, "city": "Berlin", "planning-area-id": 4400832}}, {"type": "Feature", "geometry": {"type": "Point", "coordinates": [13.3853015, 52.4464733]}, "properties": {"id": "10656573201", "name": "Anadolu Market", "street": "Mariendorfer Damm 70", "zip-code": 12109.0, "city": "Berlin", "planning-area-id": 7501030}}, {"type": "Feature", "geometry": {"type": "Point", "coordinates": [13.36228, 52.5506465]}, "properties": {"id": "10910672205", "name": "Al mona", "street": "", "zip-code": "", "city": "", "planning-area-id": 1401048}}, {"type": "Feature", "geometry": {"type": "Point", "coordinates": [13.3893296, 52.5254236]}, "properties": {"id": "11075677105", "name": "REWE", "street": "", "zip-code": "", "city": "", "planning-area-id": 1100309}}, {"type": "Feature", "geometry": {"type": "Point", "coordinates": [13.4196503, 52.5012954]}, "properties": {"id": "11329857357", "name": "La Tiendita", "street": "Oranienstraße 29", "zip-code": 10999.0, "city": "Berlin", "planning-area-id": 2300314}}, {"type": "Feature", "geometry": {"type": "Point", "coordinates": [13.4919357, 52.4901283]}, "properties": {"id": "11401111570", "name": "", "street": "", "zip-code": "", "city": "", "planning-area-id": 11501238}}]}