id,lat,lon,name,street,zip_code,city,planning_area_id
167048488,52.5015358,13.4333992,Nestwärme Kita,,,,2300315
268915153,52.55563,13.4305,Klax Grundschule Brauhausstraße,,,,3500934
268915158,52.4767411,13.3258251,Kita Fehlerstraße 2,Fehlerstraße 2,12161.0,Berlin,7300515
268915167,52.4685223,13.3325044,Ganztagsbetreuung der Fläming-Grundschule,Rheinstraße 54,12161.0,Berlin,7300618
268915173,52.5398837,13.3496243,kidsweb.de Kindertagesbetreuung,,,,1401046
268915174,52.4978346,13.3019467,ABC-Kindergarten - Sabine Erdmann,,,,4500938
268915177,52.5006833,13.3587022,EKG - An der Apostelkirche 1,Kurfürstenstraße 139,10785.0,,7100103
268915180,52.5916324,13.3258382,EKG - Alt-Wittenau 64,Alt-Wittenau 64,13437.0,Berlin,12500927
268915183,52.5504682,13.2698094,EKG - An der Mäckeritzbrücke 4,,,,12200414
268915185,52.617587,13.3155199,EKG - Berliner Straße 120,,,,12400723
268915194,52.4473892,13.3571434,EKG - Ellwanger Straße 9-11,,,,6100205
268915196,52.4791322,13.3211029,EKG - Detmolder Straße 17,,,,4501151
268915198,52.4389996,13.3866799,EKG - Friedenstraße 20,,,,7501133
268915205,52.3853393,13.4057689,Ev. Teilzeit-Kita Goltzstraße,Goltzstraße 33,12307.0,Berlin,7601547
268915206,52.5602005,13.3607718,EKG - Gemeindezentrum Schillerhöhe,,,,1400940
268915210,52.504493,13.2870406,Kita der Evangelischen Kirchengemeinde Am Lietzensee,Herbartstraße 4,14057.0,Berlin,4300415
268915211,52.4823986,13.2910551,EKG - Hohenzollerndamm,,,,4400830
268915214,52.447636,13.3274376,Lemmis Kreativ-Kita,Gravelottestraße 10,12167.0,Berlin,6100206
268915217,52.4600379,13.3784317,EKG - Kaiserin-Augusta-Straße 23,Kaiserin-Augusta-Straße 23,12103.0,Berlin,7400824
268915220,52.453963,13.144791,Miniclub,Kladower Damm 369,14089.0,Berlin,5400944
268915222,52.5118671,13.1858413,Eltern-Kind-Gruppe,Jaczostraße 54,13595.0,Berlin,5200634
268915227,52.4226447,13.4505383,EKG - Martin-Luther-King-Weg 6,,,,8200833
268915231,52.5082915,13.3139551,Kindergarten Trinitatis,Leibnizstraße 79,10625.0,Berlin,4300623
268915236,52.4594287,13.286726,Teilzeit-KiTa Martin-Niemöller-Haus,Pacelliallee 61,14195.0,Berlin,6400844
268915238,52.4376136,13.2192643,EKG - Matterhornstraße 37,,,,6400838
268915239,52.4939543,13.3268807,EKG - Nassauische Straße 66,,,,4501149
268915241,52.55894,13.1822088,EKG - Schwanter Weg 3,,,,5100105
268915244,52.5414858,13.267403,EKG - Schuckertdamm 336-338,,,,5300839
268915246,52.4561079,13.3186112,Eltern-Kind-Gruppe Matthäus,Schloßstraße 44C,12165.0,Berlin,6100101
268915247,52.4053643,13.4022689,EKG - Rackebüller Weg 64,Rackebüller Weg 64,,,7601442
268915250,52.4653362,13.1275935,Kita der Evangelischen Kirchengemeinde Am Groß-Glienicker See,Waldallee 3,14089.0,Berlin,5400943
268915251,52.6087149,13.3359912,EKG - Titiseestraße 7,,,,12601032
268915258,52.4947329,13.3392604,EKT - Abrakadabra e.V.,Motzstraße 63,10777.0,Berlin,7100101
268915266,52.5299838,13.3315829,Kinderladen Ali Baba,Waldstraße 15,10551.0,Berlin,1200519
268915269,52.4663348,13.4363771,"Ali Baba und seine Räuber ""Löwenzahn""",Kranoldstraße 1,12051.0,Berlin,8100209
268915271,52.4603819,13.3204746,EKT - Ahörnchen e.V.,,,,6100102
268915272,52.4878741,13.3526806,Kinderladen Affentheater,Merseburger Straße 5,10823.0,Berlin,7200409
268915276,52.529794,13.3156844,Arche Moabit,Huttenstraße 31,10553.0,Berlin,1200517
268915281,52.4726664,13.3246757,Kinderladen Atze + Co.,Wilhelmshöher Straße 9,12161.0,Berlin,7300515
268915285,52.4713145,13.4318601,Altenbraker Kinderladen,,,,8100208
268915288,52.4883013,13.3508734,EKT Apo-Paule 35 e.V.,Apostel-Paulus-Straße 35,10823.0,Berlin,7200409
268915289,52.4770404,13.419956,Feldmäuse an der Hasenheide,Lichtenrader Straße 11,12049.0,Berlin,8100102
268915290,52.4459867,13.3079431,Kinderladen Blumenladen,Moltkestraße 47,12203.0,Berlin,6300633
268915292,52.5141335,13.2895477,Kita Bollerwagen,Sophie-Charlotten-Straße 83b,14059.0,Berlin,4300413
268915293,52.4939862,13.4015118,EKT - Brausepulver e.V.,Urbanstraße 6,10961.0,Berlin,2200210
268915297,52.4942784,13.4172573,EKT - Bunte Mischung e.V.,Böckhstraße 47-48,10967.0,Berlin,2200213
268915298,52.4693894,13.4316805,"Kinderladen ""Lieblingsmenschen""",Nogatstraße 24,12051.0,Berlin,8100208
268915300,52.48884,13.40019,EKT - Bergmannstraße e.V.,,,,2200211
268915302,52.4758505,13.3258095,Kinderladen Berliner Malbüro,Mainauer Straße 6,12161.0,Berlin,7300515
268915307,52.5466679,13.4152842,Kita Billabong,Greifenhagener Straße 14,10437.0,Berlin,3601346
268915311,52.575228,13.3545645,EKT - Das EI,,,,12100205
268915313,52.4874788,13.3936034,EKT - Combo e.V.,,10965.0,Berlin,2200211
268915314,52.4941875,13.4189042,EKT - Der kleine Horrorladen e.V.,,,,2200213
268915317,52.4883261,13.5243187,EKT - Das tapfere Schneiderlein,,,,11501339
268915322,52.5027488,13.3614793,Cocorico et Co,Kluckstraße 29,10785.0,Berlin,1100103
268915324,52.5238536,13.302174,CIP Kita Theo Tintenklecks,Mierendorffstraße 21,10589.0,Berlin,4300517
268915325,52.5167272,13.2932159,Sonnenblume,Christstraße 42,14059.0,Berlin,4300413
268915327,52.5557638,13.204318,EKT - Die Knöpfe,,,,5100105
268915328,52.4796947,13.4230255,Die Kinkies,Weisestraße 4,12049.0,Berlin,8100102
268915330,52.4876781,13.3742344,Kinderladen Monumentenbande,Monumentenstraße 16,10965.0,Berlin,2200209
268915331,52.4173,13.3225,EKT - Die Maulwürfe,,,,6200423
268915332,52.4856076,13.3636921,Kita Tulpen,,,,7200414
268915333,52.4801079,13.3214015,Kinderladen Die Lauser,Koblenzer Straße 7,10715.0,Berlin,4501151
268915335,52.5620245,13.3606221,EKT - Die Entdecker e.V.,,,,12100204
268915337,52.5527052,13.3846057,Kita SilberStern,Stettiner Straße 56,13357.0,Berlin,1300733
268915339,52.6106394,13.2474774,Die Igelkinder,Am Bärensprung 36,13503.0,Berlin,12400619
268915340,52.4172709,13.4016881,Kinderladen Igelkinder,Sandsteinweg 25A,12349.0,Berlin,8200831
268915341,52.4625536,13.5883783,EKT - Die Grünspechte e.V.,,,,9502042
268915343,52.5423844,13.4158361,Domino,Lychener Straße 21,10437.0,Berlin,3601347
268915346,52.4803423,13.348152,Kita Wilde 13,Fritz-Reuter-Straße 8,10827.0,Berlin,7200308
268915347,52.5261266,13.1805079,EKT - Die Seeburg e.V.,,,,5200420
268915349,52.4882528,13.3502754,Sternenkita,Apostel-Paulus-Straße 33,10823.0,Berlin,7200409
268915351,52.4901945,13.3518626,Schülerladen Minipfiff,,,,7100204
268915353,52.4839742,13.3537357,Kita Rosen,Albertstraße 14-18,10827.0,Berlin,7200410
268915354,52.5650507,13.3898943,EKT - Die Ministerne e.V.,Sternstraße 9,13359.0,Berlin,1300731
268915356,52.490697,13.3917197,EKT - Die Panzerknacker e.V.,,,,2200211
268915357,52.587628,13.402719,EKT - Die Pankis e.V.,Heinrich-Böll-Straße 1,13156.0,Berlin,3200207
268915361,52.5357939,13.4099167,EKT - Erdnuckel e.V.,Choriner Straße 30,10435.0,Berlin,3701554
268915364,52.5422722,13.3594086,EKT - Eisbär,Sparrstraße 20,13353.0,Berlin,1401047
268915365,52.5336213,13.433538,Elfenland,Pasteurstraße 15,10407.0,Berlin,3701660
268915366,52.4932675,13.3908493,EKT - Elterninitiative Deutsch-Türkischer Kinderklub e.V.,Nostitzstraße 6,10961.0,Berlin,2200210
268915367,52.5037708,13.5007695,Kita „Sonnenhof“,Archenholdstraße 72,10315.0,Berlin,11400929
268915368,52.5045355,13.5076773,Kita „Erlenhof“,Kraetkestraße 18,10315.0,Berlin,11400930
268915369,52.5032947,13.2637921,Kinderladen Eichhörnchen,Harbigstraße 14,14055.0,Berlin,4200207
268915370,52.4957971,13.2661489,Kinderladen Eichkatzweg,Eichkatzweg 11,14055.0,Berlin,4200207
268915371,52.5477809,13.208227,EKT - Dreiecke und Kreise e.V.,,,,5100314
268915372,52.5010503,13.3022633,EKT - Droysen-Mäuse e.V.,,,,4500936
268915373,52.5275438,13.3429994,Integrationskinderladen Drunter & Drüber,Stromstraße 58,10551.0,Berlin,1200520
268915374,52.5176797,13.2942317,Drunter und Drüber,Neufertstraße 12,14059.0,Berlin,4300413
268915376,52.5216126,13.3356677,Kila Frecher Spatz,Elberfelder Straße 18,10555.0,Berlin,1200522
268915379,52.5164659,13.1952586,EKT - Förderverein christlicher Kindererziehung e.V.,,,,5200630
268915382,52.5049186,13.2948594,Kinderladen Flitzpiepen,Holtzendorffstraße 14,14057.0,Berlin,4300416
268915384,52.5234054,13.3338166,Katz&Kedi Kinderladen,Jagowstraße 28,10555.0,Berlin,1200522
268915385,52.505181,13.2993874,EKT - Firlefanz e.V.,,,,4300416
268915388,52.4929437,13.3518427,Kindertagesstätte Fidibus,,,,7100204
268915391,52.496684,13.2957982,EKT - Georg-Wilhelm-Kindergruppe e.V.,Joachim-Friedrich-Straße 48,10711.0,Berlin,4500938
268915400,52.5687747,13.3978691,Kinderladen Garuda,Kreuzstraße 5,13187.0,Berlin,3400721
268915402,52.5190368,13.3158255,Kinderladen Charlottenburg,Galvanistraße 14,10587.0,Berlin,4300619
268915403,52.4527716,13.6266929,Der Friedrichshagener Kinderladen,Drachholzstraße 2,12587.0,Berlin,9501737
268915410,52.4775212,13.4215214,EKT - Hasenreiter e.V.,Herrfurthplatz 4,12049.0,Berlin,8100102
268915411,52.5036346,13.2922663,Kita Canicas,Friedbergstraße 41,14057.0,Berlin,4300416
268915413,52.489024,13.4105247,EKT Herzlichtgarten e.V.,Hasenheide 51,10967.0,Berlin,2200212
268915415,52.5838052,13.3035453,Schubarts Lieblingskinder,Schubartstraße 44,13509.0,Berlin,12500825
268915419,52.4560187,13.2746532,EKT - Hort der Rudolf-Steiner-Schule e.V.,,,,6400844
268915420,52.5187405,13.315822,EKT - Hoppel-Poppel,Galvanistraße 15,10587.0,Berlin,4300619
268915421,52.4932341,13.4389039,EKT - Hollerbusch e.V.,Reichenberger Straße 99,10999.0,Berlin,2300418
268915422,52.5860307,13.2803308,EKT - Hokus Pokus e.V.,,,,12200515
268915424,52.5462692,13.4103826,EKT - Grashüpfer e.V.,,,,3601142
268915427,52.4643766,13.34284,Kinderladen Großstadtpflänzchen,Cranachstraße 39/40,12157.0,Berlin,7300619
268915431,52.493261,13.3958986,Kinderladen Guten Tag Kinder,Fürbringerstraße 27,10961.0,Berlin,2200210
268915432,52.4633618,13.3158886,Kindergarten Happy Kids,Gritznerstraße 33,12163.0,Berlin,6100102
268915433,52.5134717,13.2803332,EKT - Grünes Nashorn e.V.,,,,4200311
268915441,52.4939637,13.4016768,EKT - Känguruh e.V.,Urbanstraße 6,10961.0,Berlin,2200210
268915442,52.4869227,13.3914611,Kinderladen Kalle Kirschkern,Fidicinstraße 32,10965.0,Berlin,2200211
268915443,52.4703256,13.2926302,EKT - Kantis Kinder-Klub e.V.,,,,4400832
268915445,52.5177009,13.3025462,Kita Karamell,Gierkezeile 42,10585.0,Berlin,4300621
268915447,52.5134536,13.2929372,EKT - Kartoffelladen e.V.,,,Berlin,4300413
268915449,52.4870863,13.3760192,Katzbachpiraten,Katzbachstraße 19,10965.0,Berlin,2200209
268915455,52.6001576,13.3649076,EKT - Hort im Märkischen Viertel e.V.,,,,12601133
268915458,52.5336834,13.4281648,EKT - Im Känguru e.V.,Marienburger Straße 30A,10405.0,Berlin,3701658
268915461,52.5115831,13.465717,NIDO e.V. - Integrative Kinderbetreuung,Jungstraße 15-17,10247.0,Berlin,2500831
268915466,52.5550696,13.37608,EKT - Jo Jo e.V.,Schwedenstraße 3a,13357.0,Berlin,1401045
268915467,52.5253589,13.2988279,Kita Cheburashka,Mindener Straße 11,10589.0,Berlin,4300517
268915471,52.4792962,13.3502442,Kita Ebersstraße,Ebersstraße 68,10827.0,Berlin,7200308
268915474,52.4744996,13.3355502,Kita Lauterstraße 30,Lauterstraße 30,12159.0,Berlin,7300517
268915487,52.4583781,13.3315085,Kinderladen Kasymir,Menckenstraße 1,12169.0,Berlin,6100208
268915492,52.413267,13.2609157,EKT - Kinderhaus Schönow e.V.,,,,6300528
268915494,52.5476783,13.2049266,EKT - Kinderhaus Gruberzeile e.V.,,,,5100314
268915497,52.536391,13.406703,Kita Kindersorpresa,Schwedter Straße 29,10435.0,Berlin,3701554
268915498,52.5138401,13.2945968,KiBest Die Kita,Nehringstraße 16A,14059.0,Berlin,4300413
268915500,52.5004737,13.4294707,Kinder aus Kreuzberg,,,Berlin,2300315
268915502,52.510792,13.3136549,EKT - Kinderladen Purzelbaum e.V.,,,Berlin,4300623
268915504,52.4877529,13.3207707,Kindergarten für musische und sprachliche Erziehung,Gasteiner Straße 14,10717.0,Berlin,4501147
268915506,52.4872433,13.2710587,Kindergruppe Hasensprung,Koenigsallee 35,14193.0,Berlin,4400728
268915508,52.4800607,13.3228931,Kinderladen Mainzelmännchen,Mainzer Straße 25,10715.0,Berlin,4501151
268915509,52.5204769,13.3018566,EKT - Kindergarten am Schloß Charlottenburg,Eosanderstraße 13,10587.0,Berlin,4300619
268915511,52.512995,13.4624363,EKT - Kinderbüro e.V.,,,,2500831
268915514,52.485661,13.3242685,Kinderland,Wilhelmsaue 18,10715.0,Berlin,4501150
268915515,52.4581963,13.3698397,Kinderspielkreis Alboinplatz,Alboinstraße 113,12105.0,Berlin,7400823
268915519,52.4458057,13.3680752,"Kinderladen ""Villa Kunterbunt""",Kurfürstenstraße 114,12105.0,Berlin,7501029
268915520,52.4615738,13.3443659,Kinderladen Zweitausendfüssler,Thorwaldsenstraße 29,12157.0,Berlin,6100210
268915524,52.4081911,13.3555633,EKT - Kinderwelt e.V.,,,,7601341
268915529,52.527324,13.3513713,Kinderladen Badehaus,Wilsnacker Straße 62,10559.0,Berlin,1200625
268915530,52.4996751,13.4246836,EKT - Kinderladen Bande e.V.,Oranienstraße 202,10999.0,Berlin,2300315
268915531,52.4933014,13.3527944,Kinderladen Feuerkäfer,Frankenstraße 15,10781.0,Berlin,7100204
268915536,52.5045821,13.297567,EKT - Kinderladen - was sonst e.V.,Friedbergstraße 5,14057.0,Berlin,4300416
268915537,52.4924853,13.3862655,Kinderladen Luftabong,Yorckstraße 88H,10965.0,Berlin,2200209
268915538,52.5004598,13.4337605,EKT – Kinderladen Muko e.V.,,,,2300315
268915539,52.4660128,13.4334278,Kinderladen Pimpinella,Kranoldstraße 9,12051.0,Berlin,8100209
268915540,52.5082762,13.4570377,Kinderladen Sol,Dirschauer Straße 13,10245.0,Berlin,2500834
268915542,52.509069,13.3187152,Kinderladen Goethestraße,Goethestraße 13,10623.0,Berlin,4300624
268915544,52.5351799,13.2706888,EKT - Kinderladen Immerfrech e.V.,,,,5300841
268915546,52.4990742,13.2623584,EKT - Knuddelmonster e.V./Helene-Keller-Schule,,,,4200207
268915548,52.4741033,13.4247486,Kleiner Fratz,Weisestraße 28,12049.0,Berlin,8100103
268915550,52.4931256,13.3549256,EKT - Konfetti e.V.,Gleditschstraße 40,10781.0,Berlin,7100204
268915552,52.488962,13.4193256,Kinderladen Knulp,Jahnstraße 4,10967.0,Berlin,2200212
268915554,52.4821056,13.3187851,Kleine Panther,Aachener Straße 43,10713.0,Berlin,4501148
268915556,52.553932,13.3485096,Kleine Himmelswolke,Türkenstraße 5,13349.0,Berlin,1400939
268915557,52.6123106,13.4301146,EKT - Kleiner Fratz e.V.,Triftstraße 27B,13127.0,Berlin,3200310
268915560,52.4888867,13.357571,Kleine Ungeheuer,Vorbergstraße 2,10823.0,Berlin,7200409
268915566,52.5236836,13.3494722,Kleckerburg,Kirchstraße 22,10557.0,Berlin,1200626
268915567,52.4900288,13.3899857,Kinderladen Klara Kirschkern,Nostitzstraße 25,10961.0,Berlin,2200211
268915568,52.5594199,13.3842856,Kinderladen Klapperkiste,Soldiner Straße 33,13359.0,Berlin,1300731
268915571,52.4457306,13.3082137,Kinderladen Kleine Drachen,Moltkestraße 46a,12203.0,Berlin,6300633
268915574,52.3943929,13.4191773,EKT - Kita-Verein Lichtenrade Ost e.V.,,,,7601545
268915575,52.4749504,13.4231777,EKT - Kita Karlsgartenstraße e.V.,Schillerpromenade 29,12049.0,Berlin,8100103
268915576,52.4834596,13.4693681,EKT - Kita am Karpfenteich /Clara Petudio e.V.,,,,9100202
268915579,52.4491,13.3818,EKT - Kitaverein Mücke e.V.,,,,7501030
268915582,52.4086097,13.4028819,Lichtenrader Dreckspatzen,Lintruper Straße 57,12305.0,Berlin,7601442
268915583,52.4828936,13.3604237,EKT - Lilo Leopard e.V.,Gotenstraße 71,10829.0,Berlin,7200413
268915584,52.4883983,13.4381518,EKT - Lima e.V.,Weichselstraße 38,12045.0,Berlin,8100312
268915585,52.4959343,13.4343173,EKT – Lindenblüte e.V.,Forster Straße 56,10999.0,Berlin,2300418
268915586,52.4861289,13.4386908,Loupiot e.V.,Fuldastraße 37,12045.0,Berlin,8100312
268915587,52.4973665,13.4445658,Kita Löwenhöhle,,,,2300419
268915588,52.5463279,13.3183448,EKT - Luftikus,,,,4100101
268915590,52.4600164,13.3325365,EKT - Kuschelburg e.V.,Kniephofstraße 7,12157.0,Berlin,6100209
268915591,52.4988898,13.3406294,LAngolino,Ansbacher Straße 41,10777.0,Berlin,7100101
268915595,52.43606,13.34994,EKT - Lankwitzer Spielkiste e.V.,,,,6200313
268915596,52.5020274,13.4295554,Leierkasten,Muskauer Straße 43,10997.0,Berlin,2300315
268915598,52.4901945,13.3795205,EKT - Krümelmonster e.V.,,,,2200209
268915626,52.4594611,13.342167,Kinderladen Kulleberga,Altmarkstraße 26,12169.0,Berlin,6100210
268915649,52.4872582,13.3940627,EKT - Kulturschlüssel e.V.,,10965.0,Berlin,2200211
268915663,52.4699402,13.4379177,EKT - Kurdistan Kultur- und Hilfeverein e.V.,,,,8100208
268915680,52.5310544,13.4130557,Secret Garden,Saarbrücker Straße 15,10405.0,Berlin,3701556
268915691,52.5715051,13.4102114,EKT - Krikelkrakel e.V.,,,,3400724
268915711,52.50161,13.43453,EKT - Kröwalda e.V.,,,,2300316
268915723,52.487574,13.396599,EKT - Krötenpfuhl e.V.,Heimstraße 7,10965.0,Berlin,2200211
268915731,52.54657,13.34794,EKT - Krümelbande e.V.,,,,1400942
268915740,52.5256222,13.1980422,Kinderladen Krowelstraße,Krowelstraße 33,13581.0,Berlin,5200631
268915771,52.541435,13.3601669,"Montessori Kinderhaus ""Kolibris""",Sparrstraße 26,13353.0,Berlin,1401047
268915792,52.5221385,13.3356886,EKT - Momo e.V.,,10555.0,Berlin,1200522
268915805,52.4596277,13.2755161,Montessori Gemeinschaftshaus e.V.,Clayallee 92,14195.0,Berlin,6400844
268915809,52.5324336,13.4098838,EKT - Mittenmang e.V.,Christinenstraße 30,10119.0,Berlin,3701554
268915810,52.4790537,13.3338963,Kinderladen Felix,Wexstraße 20,10715.0,Berlin,4501153
268915811,52.4741524,13.4512378,EKT - Minihausen e.V.,Mareschstraße 18,12055.0,Berlin,8100417
268915813,52.4865731,13.392661,Schülerladen Milli Vanilli,Fidicinstraße 19,10965.0,Berlin,2200211
268915814,52.4906386,13.4134444,EKT - Minife e.V.,,,,2200212
268915829,52.427498,13.4668977,Kinderhort Gropiusstadt,Lipschitzallee 38,12353.0,Berlin,8300934
268915830,52.6339047,13.2862307,EKT - Maxizwerge e.V.,,,,12400720
268915833,52.4606002,13.3855887,Schülerladen Maulwurf e.V.,Albrechtstraße 123,12099.0,Berlin,7400927
268915835,52.4070145,13.3492203,EKT - Marienfelde e.V.,,,,7601339
268915836,52.4579685,13.374465,Kita Märchenwald,,,,7400823
268915837,52.5058571,13.283573,EKT - Mappagei e.V.,Dernburgstraße 57,14057.0,Berlin,4300415
268915838,52.5343031,13.3497287,Kinderladen Maluch,Stephanstraße 17,10559.0,Berlin,1200623
268915840,52.5155757,13.3184127,Kindertagesstätte Maikäfer,Fraunhoferstraße 26,10587.0,Berlin,4300622
268915841,52.4749536,13.4259728,Mafalda e.V.,,,,8100103
268915844,52.4888476,13.3747626,EKT - Macht nix e.V.,,,,2200209
268915846,52.5277135,13.3516737,Kinderladen Perle,Wilsnacker Straße 14,10559.0,Berlin,1200625
268915848,52.5192756,13.3054172,Pezzettino Kinderladen,Brauhofstraße 2A,10587.0,Berlin,4300619
268915849,52.3928109,13.4102691,Kinderladen Pillepoppen,Alt-Lichtenrade 100,12309.0,Berlin,7601545
268915850,52.5030644,13.3040456,EKT - Paretz e.V.,,,,4500936
268915851,52.4800565,13.3222391,Paul und Klärchen,Mainzer Straße 26a,10715.0,Berlin,4501151
268915852,52.5511523,13.3400271,Kinderladen Berliner Stadtmäuse,,,,1400937
268915854,52.5042624,13.3682563,Kita Pädagogisches Zentrum Bissingzeile,Bissingzeile 5,10785.0,Berlin,1100104
268915855,52.48681,13.39179,EKT - Palletti e.V.,,,,2200211
268915856,52.5285785,13.3455369,"Kinderladen Panther, Tiger & Co.",Lübecker Straße 13,10559.0,Berlin,1200625
268915858,52.4945776,13.4142671,Kinderladen „Die Optimisten“,Grimmstraße 1A,10967.0,Berlin,2200213
268915859,52.4804885,13.4464583,EKT - Orgelpfeifen e.V.,,,,8100418
268915863,52.5362904,13.4259284,Obst und Gemüse,Christburger Straße 41,10405.0,Berlin,3701658
268915864,52.4786997,13.3474589,Kinderladen Onnimanni,Kärntener Straße 11,10827.0,Berlin,7200308
268915866,52.492978,13.3280397,Aventura Nikolsburg,Nikolsburger Straße 6-7,10717.0,Berlin,4501149
268915867,52.4787428,13.4228579,EKT - Neuzeitlich-christliche Initiative e.V.,,,,8100102
268915868,52.4877162,13.3527017,EKT Nusskasper,Merseburger Straße 4,10823.0,Berlin,7200409
268915869,52.4920921,13.3542154,EKT - Nina e.V.,,,,7100204
268915871,52.5003041,13.3860819,Kinderladen Nasreddin,Großbeerenstraße 94,10963.0,Berlin,2100101
268915873,52.488934,13.3764346,EKT - Nervensägen e.V.,Katzbachstraße 11,10965.0,Berlin,2200209
268915875,52.5032019,13.4259374,EKT Muskauer Straße 30,,,,2300315
268915877,52.489874,13.3261811,EKT - Narrenfreiheit e.V.,,,,4501149
268915880,52.5042306,13.2981796,EKT - Roter Boller e.V.,Rönnestraße 3,14057.0,Berlin,4300416
268915881,52.4615377,13.3437482,Kinderladen Rotkappe,Horst-Kohl-Straße 12,12157.0,Berlin,6100210
268915882,52.5246744,13.3376384,Kinderladen Rosa Kirschkern,Bochumer Straße 2,10555.0,Berlin,1200522
268915885,52.4544559,13.3767537,Wolkenkinder,Konradinstraße 15/17,12105.0,Berlin,7400825
268915886,52.5348268,13.3487059,Kinderladen Sagaland,Quitzowstraße 125,10559.0,Berlin,1200623
268915887,52.5004607,13.4336002,EKT – Schippe und Eimer e.V.,,,,2300315
268915888,52.5479449,13.2627895,EKT - Saatwinkler Küken e.V.,,,,5300839
268915889,52.5711889,13.3758193,EKT - Saftladen e.V.,,,,12100102
268915890,52.4834682,13.3544751,Kinderladen Rübezahl,Feurigstraße 53,10827.0,Berlin,7200410
268915891,52.5690797,13.3785028,Kinderladen - Rummel-Bummel e.V.,,,,12100102
268915893,52.49708,13.44091,EKT - Rübezahl e.V.,,,,2300419
268915894,52.4578285,13.3858837,Schmunzelmonster,Friedrich-Wilhelm-Straße 87,12099.0,Berlin,7400927
268915895,52.48764,13.3613528,Schülerladen Schmuddelkinder,,,,7200411
268915896,52.6002708,13.3328659,Kinderladen Schlumpfoase,Lübarser Straße 13,13435.0,Berlin,12601031
268915900,52.4773576,13.3084895,EKT - Schlange 99 e.V.,,,,4400834
268915901,52.4288001,13.2160615,EKT Schlachtensee,Wasgenstraße 75,14129.0,Berlin,6400737
268915904,52.466434,13.3345537,Kita Holsteinische Straße,Holsteinische Straße 30,12161.0,Berlin,7300618
268915906,52.4766114,13.3291425,Kinderladen Mäusebande,Sieglindestraße 4,12159.0,Berlin,7300517
268915908,52.5012573,13.4229041,Kinderladen Schokokids,Naunynstraße 72,10997.0,Berlin,2300314
268915911,52.4933135,13.4198187,EKT - Pittiplatsch e.V.,,,,2200213
268915912,52.4952945,13.4449023,EKT Plutonia,,,,2300419
268915913,52.4904836,13.333279,EKT - Prinz Güntzel e.V.,,,,4501152
268915914,52.4729071,13.4505217,Kinderladen Puzzle,Niemetzstraße 11,12055.0,Berlin,8100417
268915918,52.5475549,13.3513751,EKT - Pinocchio e.V.,,,,1400942
268915919,52.5249606,13.3964096,Kinderladen Pippi Langstrumpf,Krausnickstraße 3A,10115.0,Berlin,1100309
268915920,52.4696362,13.4247795,Kita Pumuckel,Warthestraße 56,12051.0,Berlin,8100104
268915921,52.5182902,13.3076454,Kinderladen Pünktchen,Alt-Lietzow 7,10587.0,Berlin,4300619
268915922,52.4870953,13.2983802,EKT - Pünktchen und Anton e.V.,,,,4400727
268915931,52.4951598,13.4170741,Räuberhöhle,Planufer 92,10967.0,Berlin,2200213
268915933,52.450114,13.3338764,Kinderladen Pusteblume,Sedanstraße 7,12167.0,Berlin,6100206
268915934,52.5087759,13.3163335,EKT - Randale e.V.,,,Berlin,4300624
268915935,52.5387193,13.408538,EKT - Quasselstrippe e.V.,Oderberger Straße 50,10435.0,Berlin,3701554
268915937,52.4580628,13.3129269,Ringelbande e.V.,Schmidt-Ott-Straße 4,12165.0,Berlin,6100101
268915938,52.5032734,13.2935252,Kinderladen Rönne 18,Rönnestraße 18,14057.0,Berlin,4300416
268915939,52.4784781,13.4404565,Kita Rixdorfer Rüpel,Berthelsdorfer Straße 11,12043.0,Berlin,8100415
268915940,52.5216508,13.3511712,Kinderladen Regenbogen,Calvinstraße 13,10557.0,Berlin,1200626
268915944,52.4656969,13.3205045,EKT - Steglitzer Eierpamper e.V.,,,,6100103
268915951,52.5251743,13.195696,EKT - Sternenkinder e.V.,,,,5200630
268915955,52.5351107,13.351584,Kinderladen Stoppelhopser,,,,1200623
268915956,52.4945181,13.4295606,EKT - Tentakel e.V.,,,,2300418
268915959,52.5513548,13.3573022,Eikita Tausendfüßler,Amsterdamer Straße 12,13347.0,Berlin,1401048
268915960,52.4502938,13.3682165,EKT - Tigerente/Förderkr.f.Musik-u.Bewegungserz.v.Kindern e.V.,,,,7400826
268915961,52.4891644,13.3906351,Kinderladen Tigerente,Bergmannstraße 12,10961.0,Berlin,2200211
268915963,52.5310433,13.4343263,EKT - Theaterspiel-Kita Capriola e.V.,,,,3701660
268915966,52.5816079,13.3979488,EKT - Timpetu e.V.,Treskowstraße 5,13156.0,Berlin,3200206
268915968,52.4940721,13.3281265,Kinderladen Trolle,Nikolsburger Straße 8,10717.0,Berlin,4501149
268915969,52.5247296,13.1935637,EKT - Traumzauberbaum e.V.,,,,5200630
268915972,52.4715548,13.338723,Kinderladen Trotzköpfchen,Hedwigstraße 12,12159.0,Berlin,7300618
268915978,52.4469164,13.3988428,EKT - Schülerladen Pimpanella e.V.,Didostraße 1,12109.0,,7501031
268915980,52.5029443,13.433427,Schülerladen Trau Dich,Eisenbahnstraße 13,,Berlin,2300316
268915984,52.4765521,13.3296215,Kinderladen mima,Sieglindestraße 8,12159.0,Berlin,7300517
268915986,52.5397916,13.3503882,Kinderladen Sonnenblume,Fehmarner Straße 14,,,1401046
268915987,52.4577258,13.3864949,Sonnengarten,Friedrich-Wilhelm-Straße 89,12099.0,Berlin,7400927
268915990,52.517864,13.3028494,EKT Sonnenkinder e.V.,Gierkezeile 42,10585.0,Berlin,4300621
268915992,52.545118,13.1440526,EKT - Spandauer Schwalbennest e.V.,,,,5200419
268915994,52.4136709,13.3609857,EKT - Spatzennest e.V.,,,,7601236
268915995,52.542142,13.3595249,EKT - Sparrbande e.V.,Sparrstraße 21,13353.0,Berlin,1401047
268916001,52.5183067,13.2981724,EKT - Spielschloß e.V.,,,Berlin,4300414
268916002,52.4921833,13.4175738,EKT - Spreepiraten e.V.,,,,2200213
268916003,52.5453329,13.202496,EKT - Spreebande e.V.,,,,5100315
268916004,52.4923275,13.3971887,Springteufel Kinder- und Schülerladen,Mittenwalder Straße 47,10961.0,Berlin,2200210
268916006,52.5517268,13.386433,Stadtkinder,Grüntaler Straße 8,13357.0,Berlin,1300733
268916007,52.5522378,13.3871336,EKT - Stadtkinder e.V.,,,,1300733
268916008,52.4819669,13.3241107,Wilde Hilde,Hildegardstraße 13,10715.0,Berlin,4501151
268916010,52.4864882,13.393706,Wild Poppies,Fidicinstraße 23,10965.0,Berlin,2200211
268916014,52.4873181,13.3970648,Wildblume I,Heimstraße 16,10965.0,Berlin,2200211
268916015,52.5038047,13.3152735,EKT - Wielandstraße 13 e.V.,,10629.0,Berlin,4501041
268916017,52.4954374,13.4444225,EKT Whistcastle of Eternia,,,,2300419
268916023,52.4695262,13.4327669,Waldorfkindergarten Lindenbaum,,,,8100208
268916027,52.4830846,13.3558198,Kinderladen Zappzarapp,Ebersstraße 12,10827.0,Berlin,7200410
268916029,52.4695044,13.4343566,Kita Die Schlümpfe,Nogatstraße 40,12051.0,Berlin,8100208
268916032,52.4471023,13.3747906,EKT - Wolkenhopper e.V.,,,Berlin,7501029
268916034,52.5044627,13.3954053,Kita Wohnhof,Markgrafenstraße 8,10969.0,Berlin,2100102
268916035,52.5419954,13.3596536,Kita Wolke 7,Sparrstraße 22,13353.0,Berlin,1401047
268916037,52.4980486,13.2888939,Wir um vier,Ringbahnstraße 13,10711.0,Berlin,4500937
268916040,52.4860252,13.3263414,Wilde Hummeln,Mehlitzstraße 8,10715.0,Berlin,4501150
268916041,52.4987298,13.4365057,Kinder einer Erde,Lübbener Straße 26,10997.0,Berlin,2300419
268916042,52.4692555,13.4360542,Kita Arielle,Emser Straße 20,12051.0,Berlin,8100208
268916045,52.5424316,13.3592665,EKT - Verein z. Förderung integrativer Erziehung e.V.,Sparrstraße 19,,,1401047
268916046,52.468925,13.3235549,Friedenauer Kinder,Hertelstraße 1,12161.0,Berlin,7300516
268916047,52.3979214,13.1456997,Kita Bruja,Dorotheenstraße 3,14109.0,Berlin,6400735
268916048,52.4878332,13.3173146,Kinderladen Maikäfer,Brandenburgische Straße 75,10713.0,Berlin,4501146
268916050,52.5504,13.38029,EKT - Unsere Zukunft,,,,1300836
268916052,52.4880442,13.396037,Veda Lila Kindergarten e.V.,Arndtstraße 42,10965.0,Berlin,2200211
268916056,52.5492705,13.3471038,Kinderladen Tüte Mücken,Togostraße 78,13351.0,Berlin,1400938
268916059,52.5476735,13.3937293,Waldorfkindergarten Wedding,Swinemünder Straße 65,13355.0,Berlin,1300834
268916063,52.4585345,13.3819152,Kita Gulliver,Friedrich-Wilhelm-Straße 21,12103.0,Berlin,7400825
268916067,52.4866374,13.3625416,Kindergarten am Haselstrauch,,,,7200414
268916069,52.5439646,13.4223983,Villa Kunterbunt,Dunckerstraße 21,10437.0,Berlin,3601348
268916074,52.5101285,13.3977595,Umka,Leipziger Straße 47,10117.0,Berlin,1100207
268916075,52.5466252,13.4070836,Pustekuchen,Sonnenburger Straße 57,10437.0,Berlin,3601142
268916076,52.4957073,13.2988172,Kita Beerenkinder,Johann-Georg-Straße 26,10709.0,Berlin,4500938
268916077,52.5393057,13.2872104,Sport-Club Charlottenburg Hort Halemweg,Halemweg 34,13627.0,Berlin,4100101
268916078,52.504091,13.2975945,Kinder- und Schülerladen Halensee e.V.,Rönnestraße 5,14057.0,Berlin,4300416
268916079,52.5032456,13.3853385,Kath.Kita bei St.Clemens/Kita d.Kath.Kirchengem.St.Bonifatius,,,,2100101
268916086,52.5004345,13.4139054,Hort der Freien Waldorfschule Kreuzberg e.V.,,10969.0,Berlin,2100104
268916088,52.5228886,13.4062279,Hort der Evangelische Schule Berlin-Mitte,,,,1100310
268916089,52.5175883,13.2488688,Kita Rominter Allee,Rominter Allee 2,14052.0,Berlin,4200203
268916091,52.4821774,13.4303005,Kinderladen Lach und Krach,,,,8100206
268916094,52.4815643,13.3538066,Kinderladen Stadtmäuse,Ebersstraße 18,10827.0,Berlin,7200410
268916096,52.5401574,13.4061227,Tütata - Kinderladen Prenzlauer Berg e.V.,,,,3701554
268916101,52.5305594,13.3310802,Kinder- und Schülerladen Olle Burg,Waldstraße 42,10551.0,Berlin,1200519
268916102,52.4698408,13.3369397,Kita Volltreffer,Fregestraße 13-14,12159.0,Berlin,7300618
268916108,52.4286331,13.2235354,EKT - Zwölf Knirpse e.V.,,,,6400736
268916109,52.4610583,13.3138415,Kinderladen Zwergstatt,Gritznerstraße 67,12163.0,Berlin,6100101
268916111,52.4829171,13.5149,EKT- Die Kappe,,,,11501341
268916114,52.4719031,13.4441474,Kleine Fische Kinderladen,Schöneweider Straße 20,12055.0,Berlin,8100416
268916115,52.4912569,13.3851365,EKT - Zinnober e.V.,Hagelberger Straße 52,10965.0,Berlin,2200209
268916116,52.492355,13.4148301,EKT - Zehnfach und Simpel e.V.,,,,2200213
268916117,52.4856392,13.4331938,EKT - Zottelbär e.V.,,,,8100312
268916118,52.4871497,13.3969007,EKT - Zippel und Zappel e.V.,Heimstraße 15,10965.0,Berlin,2200211
268916119,52.499646,13.426477,EKT – Zur Sorgenpause e.V.,Manteuffelstraße 42,10997.0,Berlin,2300315
268916121,52.4547959,13.3835388,Zwergenland e.V.,Viktoriastraße 1,12105.0,Berlin,7400825
268916122,52.4553307,13.3811134,Zwergenland e.V.,Werderstraße 17,12105.0,Berlin,7400825
268916130,52.4704816,13.3400705,Traumfänger Kleinkinder Tagespflege,,,,7300618
268916132,52.4891235,13.4093495,EKT -Yildiz Kirschkern e.V.,,,,2200212
268916133,52.4770016,13.3298436,Waldorfkindergarten Friedenau,Sieglindestraße 1,12159.0,Berlin,7300517
268916134,52.4737734,13.335543,Waldorfkindergarten Elfenreigen,Lauterstraße 26,12159.0,Berlin,7300517
268916140,52.5276101,13.4249849,Kita der Ev. Kirchengem. Bartholomäus,,,,2400520
268916142,52.4445766,13.3793872,Kita der Ev. Kirchengem. Berlin-Mariendorf,Rathausstraße 28,12105.0,Berlin,7501029
268916143,52.4892431,13.3509335,Kita der Ev. Kirchengem. Apostel-Paulus,Klixstraße 2,10823.0,Berlin,7200409
268916147,52.4579772,13.2863541,Kita der Ev. Kirchengem. Dahlem,,,,6400844
268916154,52.5396321,13.3000007,Kita der Ev. Kirchengem. Charlottenburg-Nord,,,,4100102
268916155,52.5702102,13.4087324,Kita der Ev. Kirchengem. Alt-Pankow,Breite Straße 38,13187.0,Berlin,3400723
268916158,52.4828001,13.3480297,Kita der Ev. Kirchengem. Alt-Schöneberg,Dominicusstraße 21a,10823.0,Berlin,7200409
268916163,52.5802312,13.3360667,Kita der Ev. Kirchengem. Alt-Wittenau,,,,12500930
268916167,52.5876399,13.2775147,Kita der Ev. Kirchengem. Alt-Tegel,,,,12200515
268916170,52.59146,13.325795,Kita der Ev. Kirchengem. Alt-Wittenau,,,,12500927
268916176,52.4812037,13.5204451,Kita d.Ev. Kirchengem. Paul-Gerhardt Lichtenberg,,,,11501341
268916177,52.5827273,13.5288082,Evangelische Kita Wartenberg,,,,11100101
268916180,52.5259841,13.3359898,Kita der Ev. Heilands-Kirchengem.,,10555.0,Berlin,1200521
268916183,52.6086653,13.3358531,Kita der Ev. Felsen-Kirchengem.,Titiseestraße 7,13469.0,Berlin,12601032
268916185,52.607725,13.2139684,Dorfkindergarten,Alt-Heiligensee 47,13503.0,Berlin,12400617
268916192,52.4541866,13.5723295,Kita / St. Josefsstift,,,,9501939
268916198,52.5308661,13.3460918,Kita Birkelinchen,Birkenstraße 60,10559.0,Berlin,1200625
268916201,52.5527462,13.4138512,Evang. Kindertagesstätte Arche,Schönhauser Allee 104,10439.0,Berlin,3601141
268916203,52.47,13.428608,Kita Berliner Spatzen,,,,8100104
268916204,52.4861326,13.3276676,Asilo Italiano,Badensche Straße 29,10715.0,Berlin,4501150
268916216,52.4474121,13.3120231,Kita der Ev. Kirchengem. Paulus,,,,6300633
268916218,52.4389195,13.3155344,Kita der Paulus-Gemeinde,Hindenburgdamm 101,12203.0,Berlin,6300633
268916219,52.474448,13.3366551,Kita Philippus,Stierstraße 18,12159.0,Berlin,7300517
268916220,52.5108488,13.4059492,Kita der Ev. Kirchengem. Petri-Luisenstadt,Neue Grünstraße 22,10179.0,Berlin,1100207
268916221,52.5312608,13.3300667,Reformations-Kita,Wiclefstraße 31,10551.0,Berlin,1200519
268916223,52.6156746,13.3426839,Kita der Ev. Kirchengem. Lübars,,,,12500929
268916224,52.5167157,13.3030578,Luisenkindergarten,Gierkeplatz 2,10585.0,Berlin,4300621
268916231,52.449074,13.3411421,Kita der Ev. Kirchengem. Markus,,,,6100205
268916234,52.5167035,13.1941832,Kita der Ev. Kirchengem. Melanchthon,,,,5200630
268916235,52.4947663,13.413643,Kita der Ev. Kirchengem. Melanchthon,,,,2200213
268916236,52.4666472,13.3450557,Evangelische Kindertagesstätte Nathanael,Grazer Platz 4,12157.0,Berlin,7300619
268916238,52.4182628,13.4158833,Evangelische Halbtagskita Neu-Buckow,Marienfelder Chaussee 66-72,12349.0,Berlin,8200831
268916240,52.4961573,13.3039084,Hochmeister-Kindertagesstätte,Paulsborner Straße 86,10709.0,Berlin,4500939
268916245,52.496514,13.3808491,Kita der Ev. Kirchengem. Jesus-Christus,Wartenburgstraße 7,10963.0,Berlin,2200208
268916246,52.5327456,13.4218885,Kita Immanuel,Immanuelkirchstraße 1a,10405.0,Berlin,3701659
268916247,52.5392285,13.1820843,Kita der Ev. Kirchengem. Klosterfelde,Seegefelder Straße 116,13583.0,Berlin,5100211
268916249,52.5487528,13.3496377,Kinderhaus - Evangelische Kindertagesstätte der Kapernaum-Gemeinde,,,,1400942
268916250,52.4995774,13.3337526,Kita der Ev. Kirchengem. Kaiser-Wilhelm-Gedächtnis,,,,4501045
268916252,52.5592909,13.3437803,Kita der Evangelischen Kirchengemeinde Kornelius,,,,1400941
268916254,52.5709893,13.2315355,Kita der Ev. Kirchengem. Konradshöhe-Tegelort,,,,12400616
268916255,52.5406536,13.4203257,Evangelischer Kindergarten,,,,3601348
268916256,52.4949312,13.426954,Kita der Ev. Kirchengem. Emmaus-Ölberg,,,,2300417
268916258,52.4354558,13.3455205,Kita der Ev. Kirchengem. Dreifaltigkeit,,,,6200313
268916260,52.5698344,13.3759001,Evangeliums-Kita,Hausotterplatz 3,13409.0,Berlin,12100102
268916261,52.5132519,13.2841015,Kita der Evangelischen Kirchengemeinde Epiphanien,Knobelsdorffstraße 74,14059.0,Berlin,4200311
268916262,52.52208,13.3303639,Kita der Evangelischen Erlöserkirchengemeinde,Wikingerufer 9,10555.0,Berlin,1200522
268916263,52.5178557,13.4563291,Evangelische Kita Galiläa,,,,2500727
268916264,52.544424,13.4148618,Evangelischer Kindergarten,,,,3601346
268916267,52.5667849,13.4414362,Kita der Ev. Kirchengem. Heinersdorf,Romain-Rolland-Straße 50,13089.0,Berlin,3300516
268916279,52.4968433,13.2979963,Kita der Kath. Kirchengem. St. Albertus-Magnus,Johann-Georg-Straße 8,10709.0,Berlin,4500938
268916280,52.5304628,13.4100667,Kita Herz Jesu,Schönhauser Allee 182,10119.0,Berlin,3701554
268916283,52.4449611,13.384456,Kita der Kath. Kirchengem. Maria Frieden,Kaiserstraße 29,12105.0,,7501030
268916286,52.5516422,13.4204208,Kita der Kath. Kirchengem. Heilige Familie,,,,3601243
268916289,52.5279034,13.4487198,Kita der Kath. Kirchengem. Corpus Christi,,,,3601452
268916290,52.4586989,13.3244139,Rosenkranz-Kita,Kieler Straße 10,12163.0,Berlin,6100102
268916292,52.531266,13.3755182,Kita der Humboldt-Universität zu Berlin,,,,1100308
268916296,52.5919246,13.3019057,Schatzinsel,Gorkistraße 127,13509.0,Berlin,12500824
268916297,52.535455,13.4049587,Kita der Ev.Kirchengem. Zion,Griebenowstraße 16,10435.0,Berlin,1100416
268916304,52.5151576,13.4915948,Evangelische Kindertagesstätte,,,,11300724
268916305,52.5646506,13.3961549,Kita der Ev. Kirchengem.Martin-Luther,Pradelstraße 11,13187.0,Berlin,3400721
268916311,52.5876743,13.3677153,Kita der Ev. Kirchengem. Wilhelmsruh,,,,3400619
268916313,52.5524356,13.4496617,Kita der Evangelischen Kirchengemeinde Weißensee,,,,3500935
268916318,52.5473577,13.2369402,Kita der Ev. Kirchengem. Weihnacht-Haselhorst,Haselhorster Damm 54,13599.0,Berlin,5300737
268916321,52.4969022,13.4437214,Kita der Evangelischen Kirchengemeinde Tabor,,,,2300419
268916324,52.553648,13.5036266,Evangelische Kita Arche Noah,Malchower Weg 44,13053.0,Berlin,11200410
268916325,52.4310655,13.2753279,Stephanus-Kita,Mühlenstraße 47,14167.0,Berlin,6300528
268916329,52.5003229,13.4071278,Kita der Ev. Kirchengem. St. Simeon,,,,2100105
268916330,52.5308962,13.2050903,Kita und Hort Petrus,Grunewaldstraße 7,13597.0,Berlin,5100317
268916332,52.5252764,13.3492859,Kita der Ev. Kirchengem. St. Johannis,,,,1200626
268916337,52.4132052,13.2599522,Kita der Ev. Kirchengem. Schönow-Buschgraben,,,,6300525
268916338,52.3752343,13.6490326,Kita der Ev. Kirchengem. Schmöckwitz,Alt-Schmöckwitz 1,12527.0,Berlin,9301228
268916340,52.5186128,13.4659715,Kita der Ev. Kirchengemeinde Samariter,Samariterstraße 27,10247.0,Berlin,2500728
268916345,52.4744247,13.4194953,Kita des Ev. Kirchenkreises Neukölln,,,,8100103
268916346,52.42269,13.45053,Kita des Ev. Kirchenkreises Neukölln,,,,8200833
268916354,52.5138796,13.3951899,Kita des Auswärtigen Amtes,,,,1100206
268916438,52.5016062,13.3548795,Kita der Lukas-Gemeinde e.V.,Kurfürstenstraße 133,10785.0,,7100103
268916474,52.4876371,13.3292399,Svenska Victoriaförsamlingens förskola,,,,4501149
268916511,52.5383463,13.1958678,Kita Vogelnest,Galenstraße 27,13597.0,Berlin,5100316
268916564,52.5700096,13.3148693,Katholische Kindertagesstätte St. Rita,General-Woyna-Straße 54,13403.0,Berlin,12200309
268916569,52.4342476,13.3626812,Kita der Kath. Kirchengem.V.d. Auferstehung Christi,,,,6200316
268916572,52.4928293,13.3333228,Kita der Landesbank Berlin,,,,4501152
268916576,52.495705,13.3538116,Kita der Kath. Kirchengem. St. Matthias,Goltzstraße 29,10781.0,Berlin,7100102
268916578,52.4732491,13.4513911,Kita der Kath. Kirchengem. St. Richard,Schudomastraße 15,12055.0,Berlin,8100417
268916579,52.5910948,13.3302082,Kita der Kath. Kirchengem. St. Nikolaus,,,,12500926
268916580,52.4826405,13.3472233,Kita der Kath. Kirchengem. St. Norbert,Dominicusstraße 19 a,10823.0,,7200409
268916581,52.46855,13.34324,Katholische Kindertagesstätte St. Konrad,,,,7300619
268916582,52.5271759,13.3497156,Kita St. Laurentius,Bandelstraße 41,10559.0,Berlin,1200625
268916583,52.5176755,13.2911362,Kindertagesstätte Sankt Kamillus,Klausenerplatz 13,14059.0,Berlin,4300413
268916586,52.5492675,13.164417,Kindertagesstätte St. Markus,,,,5100208
268916587,52.4969908,13.3215536,Kita St. Ludwig,Ludwigkirchplatz 10,10719.0,Berlin,4501044
268916588,52.5744341,13.3603713,Kita St. Marien,Klemkestraße 5,13409.0,Berlin,12100103
268916592,52.4853255,13.3655809,Katholische Kindertagesstätte St. Elisabeth,Kolonnenstraße 40,10829.0,,7200414
268916595,52.5509194,13.4469553,Kita der Kath. Kirchengem. St. Josef,,,,3500935
268916596,52.599454,13.295068,Kita der Kath. Kirchengem. St. Josef,,,,12500824
268916597,52.5758692,13.2842073,Kita der Katholischen Kirchengemeinde Sankt Bernhard,,,,12200413
268916598,52.4402934,13.3412804,Kita der Kath. Kirchengem. St. Benedikt,,,,6200312
268916599,52.5507495,13.4066885,Kita Sankt Augustinus,Dänenstraße 17/18,10439.0,Berlin,3601141
268916601,52.4243875,13.4613151,Kita St. Dominicus,Lipschitzallee 74,12353.0,Berlin,8300935
268916602,52.4773724,13.4359823,Kita der Kath. Kirchengem. St. Clara,Kienitzer Straße 18,12053.0,Berlin,8100207
268916611,52.528367,13.3348938,Hort Arche Noah,Waldenserstraße 27,10551.0,Berlin,1200519
268916616,52.5268144,13.3322242,Kita Schmetterling,Turmstraße 71,10551.0,Berlin,1200521
268916618,52.5801306,13.4271914,Kita Regenbogenhaus,,,,3400724
268916625,52.5831037,13.2363109,Kita Waldmäuse e.V.. Waldabschnitt Konradshöhe/Reiherberg,Rabenstraße 41,13505.0,Berlin,12400616
268916626,52.5468837,13.4125449,Kita Vogelnest,,,,3601142
268916627,52.5358794,13.3990849,Casa Fantasia,,,,1100416
268916628,52.50011,13.4222214,Kita Wassertropfen,Oranienstraße 192,10999.0,Berlin,2300314
268916630,52.4172204,13.5803479,Kita Traumhaus,Regattastraße 130,12527.0,Berlin,9301126
268916632,52.4382483,13.3308424,Kita Kobolde,Beethovenstraße 34,12247.0,Berlin,6200312
268916638,52.4561832,13.3147551,Kindergarten der Baptistengemeinde Steglitz,Rothenburgstraße 13,12165.0,Berlin,6100101
268916641,52.537004,13.5879831,Kita/BOOT e.V.,,,,10200420
268916648,52.5659011,13.5194538,Kita/BIK e.V.,,,,11100204
268916651,52.5478302,13.3650666,Kita/Akila e.V.,,,,1401043
268916653,52.5353042,13.427941,Kita Bunte Burg,Christburger Straße 13,10405.0,Berlin,3701658
268916658,52.4866199,13.4310092,Kita Pannierstraße,Pannierstraße 6,12047.0,Berlin,8100312
268916659,52.5322969,13.3347441,Kita Moa,,,,1200519
268916660,52.4864544,13.4339539,Kita Forum Soziale Dienste e.V.,Weserstraße 26/27,12045.0,Berlin,8100312
268916663,52.595595,13.3415557,Kita Mäusekiste,,,,12601236
268916664,52.6083527,13.4340028,Kita/Ev. Kirchenkreis Pankow,,,,3200309
268916673,52.5431291,13.3597345,Kita Gipfelstürmer,Triftstraße 67,13353.0,Berlin,1401047
268916675,52.4902118,13.3938187,Kita Die Arche,Zossener Straße 22a,10961.0,Berlin,2200211
268916678,52.5179968,13.2981777,Kita des Pestalozzi-Fröbel-Hauses,,,Berlin,4300414
268916682,52.4880306,13.3553558,Kita des Pestalozzi-Fröbel-Hauses,Belziger Straße 14,10823.0,Berlin,7200409
268916685,52.552623,13.4094616,Freche Früchtchen,Paul-Robeson-Straße 12,10439.0,Berlin,3601141
268916691,52.4750341,13.4245253,Kita Hand in Hand - El Ele / AWO,,,,8100103
268916693,52.4379236,13.3310448,Kita Drei-Käse-Hoch,Beethovenstraße 34,12247.0,Berlin,6200312
268916695,52.4908244,13.3043425,Kita el caracol/gestaltpäd. Kindergarten e.V.,,,,4500939
268916701,52.4881596,13.3649778,Kita Kick/Verein Stadtteil VHS e.V.,Monumentenstraße 3,10829.0,Berlin,7200414
268916702,52.5240603,13.1947021,Kita Kinder-Treff,Földerichstraße 67,13595.0,Berlin,5200630
268916704,52.4954569,13.4322006,Kita Kastanie/AWO,,,,2300418
268916709,52.5201881,13.4615939,Kita Ptits Loups,Eldenaer Straße 44,10247.0,Berlin,3601453
268916714,52.4367939,13.2134727,Kita Kaiserstuhl,Kaiserstuhlstraße 25,14129.0,Berlin,6400737
268916723,52.5565884,13.385136,Kita Putte,Prinzenallee 24,13359.0,Berlin,1300732
268916724,52.5469066,13.3515249,Kita Sachensucher,Antwerpener Straße 40-42,13353.0,Berlin,1400942
268916734,52.571208,13.5038638,Kita/urban-consult gGmbH,,,,11100307
268916735,52.499723,13.4254319,Kita/VAK-Verein z.Betreuung ausländ.u.deutscher Kinder e.V.,,,,2300315
268916738,52.4164048,13.3725083,,Prechtlstraße 21-23,12277.0,Berlin,7601237
268916755,52.4952999,13.3593122,Kita/Verein Stadtteil VHS e.V.,,,,7100103
268916765,52.4936182,13.3640013,Kita/Verein StadtteilVHS e.V.,Goebenstraße 8,10783.0,Berlin,7100206
268916766,52.4971143,13.3827998,Kita/Verein zur Förderg eines freien Erziehungs- u.Bildungswesens e.V.,,,,2200208
268916767,52.4525783,13.5343206,Kindergarten der Freien Waldorfschule Berlin-Südost,,,,9200613
268916769,52.479746,13.3476724,Kindergarten Max und Moritz,Kärntener Straße 27,10827.0,Berlin,7200308
268916770,52.616542,13.3146358,MINI-KIDS mit GRIPS Kita e.V.,,,,12400723
268916771,52.5549151,13.3494033,Elterninitiativ-Kindertagesstätte am Schillerpark,Türkenstraße 15,13349.0,Berlin,1400939
268916776,52.5466703,13.3917748,Kita Rosa Marzipan,Putbusser Straße 30,13355.0,Berlin,1300834
268916780,52.4303592,13.3409732,Hort (EFöB),,,,6200314
268916781,52.4560109,13.3783613,Schülerladen Drachenhöhle/IKT Stadtindianer e.V.,,,,7400825
268916783,52.4787339,13.3463766,Kinderladen Amsel,Ebersstraße 40,10827.0,Berlin,7200308
268916784,52.5413107,13.4492886,Schülerladen - Freies Lernen Berlin e.V.,,,,3601449
268916785,52.4661098,13.5110869,SchülerInnenladen Oberschöneweide e.V.,,,,9200510
268916786,52.5323176,13.2021686,Kinderladen Spandau e.V.,Plantage 8,13597.0,Berlin,5100317
268916787,52.5467746,13.2077394,Schüler- und Kinderladen Spandau e.V.,,,,5100314
268916790,52.4542334,13.3292073,Kinderhaus Steglitz,Plantagenstraße 1,,Berlin,6100208
268916792,52.4984125,13.3224773,Schülerladen Phönix,Pfalzburger Straße 9,10719.0,Berlin,4501044
268916793,52.4596076,13.3786879,Kita Tiponi,Friedrich-Franz-Straße 12,12103.0,Berlin,7400825
268916795,52.4650062,13.3771119,Kita Mojak Mini,Podewilsstraße 2,12103.0,Berlin,7400823
268916798,52.4041922,13.4004877,Hort der Bruno-H.-Bürgel-Grundschule,Rackebüller Weg 70,12305.0,,7601442
268916802,52.445743,13.2472386,Schülerladen Zehlendorfer Feuerkäfer,Wilskistraße 78,14163.0,Berlin,6400839
268916822,52.4757679,13.3380896,Kita Berliner Spatzen,Hähnelstraße 15a,12159.0,Berlin,7300517
268916832,52.467184,13.5067504,Kita Pusteblume!,Otto-Krüger-Zeile 6,12459.0,Berlin,9200510
268916834,52.4673186,13.5071803,Kita Zwergenvilla,Otto-Krüger-Zeile 4,12459.0,Berlin,9200510
268916836,52.3992861,13.416928,Kindergarten Muna,Homburgstraße 17,12309.0,Berlin,7601443
268916875,52.4864321,13.2761502,Kita/Johannischen Sozialwerk e.V.,Bismarckallee 22,14193.0,Berlin,4400728
268916884,52.5018558,13.4191383,,Adalbertstraße 87,10997.0,Berlin,2300314
268916885,52.49436,13.43237,Kita/Komsu e.V.,,,,2300418
268916892,52.4706705,13.4380693,Kita Nachbi,,,,8100208
268916893,52.4941763,13.3432045,OGB Scharmutzelsee-Grundschule (Nachbarschaftsheim Schöneberg e.V.),Hohenstaufenstraße 49,10779.0,Berlin,7200307
268916900,52.4957408,13.4155668,Neue Kindergruppe Kreuzberg e.V.,,,,2100106
268916912,52.4151992,13.149496,Städtische Kita Chausseestraße 23 (Königstraße 42),,,,6400735
268916915,52.5511488,13.4516548,Städt. Kita Charlottenburger Straße 6-8,,,,3500935
268916920,52.5333,13.60185,Städt. Kita Bunte Stifte,,,,10200526
268916929,52.5591664,13.35002,Schillerpark-Kita,,,,1400940
268916933,52.56923,13.40483,Städt. Kita Breite Straße 44,,,,3400723
268916942,52.5933899,13.3284909,Städt. Kita,Eichborndamm 272-274,13437.0,Berlin,12500926
268916959,52.57533,13.5121,Städt. Kita Dorfstraße 4A (Wartenberg),,,,11100206
268916961,52.5832875,13.4027604,Städt. Kita Dietzgenstraße 33-35,Dietzgenstraße 33-35,13156.0,Berlin,3200206
268916962,52.5396024,13.6018709,Städt. Kita Disney-Land/Teil B,Kastanienallee 30,12627.0,Berlin,10200419
268916966,52.5283896,13.4259789,Städt. Kita Die Kita mit bunten Steinen,Am Friedrichshain 29-32,10407.0,Berlin,3701660
268916969,52.496634,13.4426895,Städt. Kita Cuvrystraße 26,,,,2300419
268916971,52.4549715,13.1424213,Städt. Kita Dechtower Steig 3A und 10,,,,5400943
268916974,52.5012584,13.3386133,Städt. Kita Augsburger Straße 12,,,,7100101
268916981,52.5571534,13.2206243,Städt. Kita An der Havelspitze 19,An der Havelspitze 19,13587.0,Berlin,5100104
268916983,52.5704221,13.3732172,Kita Amendestraße,Amendestraße 41,13409.0,Berlin,12100102
268917005,52.5039894,13.4563048,Kita Am Rudolfplatz,Rudolfstraße 15a,10245.0,Berlin,2500835
268917008,52.484836,13.1825919,Städt. Kita Alt-Gatow 54,,,,5400942
268917019,52.5554342,13.3937532,Städt. Kita Bornholmer Straße 41-44,Bornholmer Straße 44,13359.0,Berlin,1300732
268917052,52.4928225,13.5546302,Städt. Kita Grabensprung 208,,,,10300734
268917062,52.5602692,13.1531563,Städt. Kita Griesingerstraße 11,,,,5100206
268917067,52.5499228,13.4051777,Kindergarten Gerne Gross,Dänenstraße 22,10439.0,Berlin,3601140
268917068,52.5498906,13.1867884,Städt. Kita Germersheimer Weg 93,,,,5100210
268917069,52.5436626,13.184949,Kita Kinderarche,,,,5100210
268917075,52.5447811,13.2291271,Hort Goldmühle,Goldbeckweg 21,13599.0,Berlin,5300736
268917079,52.5306838,13.6108719,Städtische Kita Haus Rasselbusch,,,,10200525
268917095,52.5657212,13.2018676,Städt. Kita Hakenfelder Straße 34,,,,5100101
268917098,52.5378579,13.2870483,Kita Halemweg,,,,4100101
268917099,52.5555595,13.3928567,Städt. Kita Grüntalerstraße 34,Grüntaler Straße 34,13359.0,Berlin,1300732
268917107,52.5191993,13.3366097,Städt. Kita Hansa-Ufer 2,,,Berlin,1200522
268917113,52.5532334,13.3899652,Kita Kiezeulen,Eulerstraße 19a,13357.0,Berlin,1300733
268917145,52.4911963,13.3567894,Kita Am Keistpark,Elßholzstraße 29,10781.0,Berlin,7100204
268917146,52.55117,13.4192366,Städt. Kita Erich-Weinert-Straße 33,,,,3601243
268917155,52.4291159,13.4651656,Städt. Kita Fritz-Erler-Allee 94,,,,8300934
268917163,52.4312734,13.7189641,Städt. Kita,Fürstenwalder Allee 344,,Berlin,9501838
268917168,52.497316,13.3442086,Städt. Kita Geisbergstraße 3-5,Geisbergstraße 3-5,10777.0,Berlin,7100101
268917174,52.5145246,13.3882196,Kita Französische Straße,,,,1100206
268917175,52.4935829,13.3503378,INA Kita Frankenstraße 8-9,Frankenstraße 8/9,10781.0,Berlin,7100204
268917184,52.4515669,13.5794264,Kita Moppi,Friedrichshagener Straße 5L,12555.0,Berlin,9501941
268917185,52.5251699,13.387063,Kindertagesstätte Pelikan,Friedrichstraße 129 f/g,10117.0,Berlin,1100308
268917189,52.5431244,13.4200147,Kita Helmistrolche,Lettestraße 4-5,10437.0,Berlin,3601347
268917204,52.4287217,13.2234239,Städt. Kita Lissabonallee 6,,,,6400736
268917205,52.4582929,13.3631451,Kita Lindenhof,Reglinstraße 29,12105.0,Berlin,7400822
268917230,52.5281235,13.399209,Städt. Kita Kleine Auguststraße 10/11,,,,1100309
268917236,52.587048,13.404482,Kita Kreuzgraben,Kreuzgraben 13,13156.0,Berlin,3200207
268917240,52.5013114,13.3562252,Kindergarten Goldenes Schlüsselchen,Kurfürstenstraße 135,10785.0,Berlin,7100103
268917244,52.5355695,13.4176652,Städt. Kita Kolleknirpse,Kollwitzstraße 60,10435.0,Berlin,3701556
268917252,52.6128202,13.4733519,Städt. Kita Karower Knirpse,,,,3300412
268917256,52.5138389,13.4675833,Städt. Kita Jungstraße 41,,,,2500831
268917257,52.4713791,13.4473807,Urmel Kinderladen,Kanner Straße 5,12055.0,Berlin,8100417
268917258,52.4349561,13.4584233,Städt. Kita Juchaczweg 11,,,,8401139
268917283,52.53505,13.40608,Städt. Kita Kastanienallee 63A,,,,1100416
268917292,52.5992353,13.325581,Städt. Kita Hermsdorfer Str.18-25,,,,12500927
268917299,52.4631308,13.4336342,Städt. Kita Hermannstraße 135A,Hermannstraße 135 A,12051.0,Berlin,8100105
268917301,52.5016783,13.3141561,Kita Walter-Benjamin-Platz,Walter-Benjamin-Platz 7,10629.0,Berlin,4501041
268917315,52.4246292,13.4560162,,,,,8300935
268917397,52.60528,13.32127,Städt. Kita Nimrodstraße 4-14 (Horthaus),,,,12500928
268917403,52.524483,13.3048633,Kita Nordhauser Str.,Nordhauser Straße 22,10589.0,Berlin,4300518
268917413,52.4977101,13.4385285,Städtische Kita Oppelner Straße 21,,,,2300419
268917432,52.5628636,13.5080963,Städt. Kita Matenzeile2/4,,,,11100309
268917438,52.5234955,13.3029682,Städtische Kita Mierendorffstraße 20,,,Berlin,4300518
268917466,52.5099322,13.4690047,Kita Die kleinen Entdecker,Müggelstraße 19,10247.0,Berlin,2500832
268917469,52.4759162,13.4338965,Städt. Kita Morusstraße 29,Morusstraße 28,12053.0,Berlin,8100207
268917472,52.5471516,13.2318917,Städt. Kita Lünette 20,,,,5300736
268917478,52.4987001,13.4371166,Kita Lübbener Straße 6/7,Lübbener Straße 6/7,10997.0,Berlin,2300419
268917483,52.4103883,13.3575373,Kita Vier Jahreszeiten,Luckeweg 15,12279.0,Berlin,7601340
268917485,52.4374907,13.5633481,Städt. Kita,Mahlower Straße 5-7,12557.0,Berlin,9200819
268917486,52.5271775,13.1606284,Städt. Kita Magistratsweg 69/73,Magistratsweg 69,13591.0,Berlin,5200420
268917490,52.5539049,13.5035683,Sonnenkäfer,Malchower Weg 46,,Berlin,11200410
268917494,52.5307309,13.1585338,Städt. Kita Magistratsweg 101/103,,,,5200423
268917499,52.4373818,13.3815497,Kita Marconistraße 4,,,,7501133
268917504,52.4884802,13.3122501,Städt. Kita Mansfelder Straße 13,,,,4501146
268917521,52.4201026,13.3684103,Kita Marienfelder Allee,,,,7601236
268917528,52.6029579,13.3624807,Städt. Kita Senftenberger Ring 34/34a,Senftenberger Ring 34,13435.0,Berlin,12601133
268917563,52.6206301,13.3982963,Städt. Kita Schwalbennest,,,,3200204
268917571,52.50849,13.41769,Städt. Kita Schmidstraße 4,,,,1100313
268917580,52.539198,13.5056794,"KITA ""Weiße Taube""",Schleizer Straße 62,13055.0,Berlin,11200515
268917586,52.5514945,13.4055509,Drieselmäuse,Driesener Straße 24,10439.0,Berlin,3601140
268917602,52.4703126,13.4350613,Konrad & Kids,Schierker Straße 44,12051.0,Berlin,8100208
268917613,52.5372203,13.5105269,Städt. Kita Schalkauer Straße 25C,,,,11200515
268917618,52.5836762,13.3245151,Städt. Kita Rotbuchenweg 18-22,,,,12500930
268917623,52.5318335,13.3257996,Kita Sprachwelt,Rostocker Straße 32a,10553.0,Berlin,1200518
268917626,52.5474538,13.3618243,Städt. Kita Ruheplatzstraße 13,Ruheplatzstraße 13,13347.0,Berlin,1401043
268917631,52.4783811,13.4442924,Städt. Kita Roseggerstraße 9,,,,8100415
268917646,52.4547115,13.4440417,Kita Riesestraße 2-4,Riesestraße 2,12347.0,Berlin,8200623
268917697,52.5225559,13.1698461,Städt. Kita Räcknitzer Steig 6,,,,5200527
268917709,52.493514,13.4586924,Fröbel-Kindergarten Wirbelwind,Puschkinallee 10/12,12435.0,Berlin,9100101
268917723,52.501503,13.360817,Kita Sonnenschein,Pohlstraße 87,10785.0,Berlin,1100103
268917725,52.4946875,13.4126025,Städt. Kita Planufer 81,,,,2200213
268917730,52.4944301,13.4111734,Städt. Kita Planufer 77,,,,2200213
268917804,52.6100732,13.3370992,Kita Outlaw,,,,12601032
268917807,52.52896,13.33205,Städt. Kita Waldenserstraße 20,,10551.0,Berlin,1200519
268917811,52.4696466,13.4263961,Kita Warthestraße,Warthestraße 62A,12051.0,Berlin,8100104
268917814,52.5171375,13.3114235,Kita Warburgzeile,,10587.0,Berlin,4300619
268917816,52.6003547,13.3631267,Städt. Kita Treuenbrietzener Straße 26,,,,12601133
268917824,52.4622224,13.5934295,Städt. Kita,Uhlenhorster Straße 27,12555.0,Berlin,9502042
268917832,52.4518152,13.3119243,Städt. Kita Unter den Eichen 129a,Unter den Eichen 129A,12203.0,Berlin,6300629
268917835,52.4856505,13.5803766,Städt. Kita Ulmenstraße 79,,,,10400837
268917842,52.49047,13.41747,Städt. Kita Urbanstraße 48k,,,,2200213
268917845,52.5223529,13.584299,Kita Baumelbaum,Teterower Ring 36,12619.0,Berlin,10200629
268917847,52.5223666,13.583646,Montessori-Haus,Teterower Ring 34,12619.0,Berlin,10200629
268917873,52.5342647,13.4120411,Städtischer Kindergarten Tigerenten,Schönhauser Allee 165,10435.0,Berlin,3701554
268917888,52.5459491,13.2260289,Städt. Kita Tabaluga,,,,5300736
268917910,52.5359262,13.1540818,Städt. Kita Spandauer Straße 84,,,,5200421
268917914,52.5054748,13.4091098,Städt. Kita Stallschreiberstraße 13,,,,2100104
268917915,52.5457463,13.4195569,Kinderladen Pauline Kirschkern,Stargarder Straße 19,10437.0,Berlin,3601347
268917930,52.57424,13.41187,Städt. Kita Sonnenblume,,,,3400724
268917951,52.505138,13.4969835,Kita Sonnenblume,,,,11400929
268918024,52.5392579,13.3973512,Städt. Kita Wolgaster Straße 2-5,,,,1300834
268918025,52.6063084,13.3409402,Kita Wirbelwind,Wittenauer Straße 110E,13435.0,,12601031
268918029,52.5042629,13.496608,"Kindertagesstätte ""Pusteblume""",,,,11400929
268918033,52.5121938,13.2608266,Städt. Kita Württembergallee 17,,,,4200310
268918043,52.5500548,13.4103699,Zum klingenden Bäumchen,Dänenstraße 8,10439.0,Berlin,3601141
268918057,52.5976346,13.3630372,Städt. Kita Wilhelmsruher Damm 98,,,,12601133
268918082,52.4811236,13.5212266,Waldorf-Kindergarten Karlshorst e.V.,,,,11501341
268918089,52.4948096,13.2976432,Waldorfkindergarten Tomte e.V.,Schweidnitzer Straße 3,10709.0,Berlin,4500938
268918102,52.5519613,13.3570015,Weddinger Kinder- und Jugendzentrum e.V.,Malplaquetstraße 24,13347.0,Berlin,1401048
268918120,52.4962874,13.3064043,Villa Rappelkiste,Ravensberger Straße 5B,10709.0,Berlin,4500939
269399353,52.5675455,13.2066996,Wichern-Kita,,,,5100101
279620834,52.4968599,13.4428893,EKT – Mauseblitz e.V.,,,,2300419
286618727,52.4823189,13.3426401,Kinderladen Zauberhaus,Innsbrucker Straße 42,10825.0,Berlin,7200308
287296683,52.4983351,13.462385,Glückskinder Stralauer Allee,Stralauer Allee 18,10245.0,Berlin,2500835
312938718,52.3955047,13.4060513,Abenteuerland,Lichtenrader Damm 190,12305.0,,7601442
331345835,52.50772,13.4605212,Nella Propella,Seumestraße 31,10245.0,Berlin,2500834
365223848,52.531764,13.3320067,Kita SOS-Kinderdorf,,,Berlin,1200519
373238434,52.5333274,13.4327706,Kinderladen Mucklas,Esmarchstraße 15,10407.0,Berlin,3701660
387839098,52.5169034,13.4671987,Kinderladen Buana,,,,2500728
388098150,52.5592067,13.4095971,KITA Albatros,,,,3400826
403780768,52.5073447,13.493866,CityKids Berlin,Eitelstraße 16,10317.0,,11400929
442397969,52.466226,13.4363102,"Ali Baba und seine Räuber ""Krümelmonster""",Kranoldstraße 1,12051.0,Berlin,8100209
469293561,52.5713905,13.4106034,Kinderladen Leni Kirschkern,Eintrachtstraße 1,13187.0,Berlin,3400724
469878330,52.5156078,13.3029513,El Carrusel e.V.,Gierkezeile 30,10585.0,Berlin,4300621
508070028,52.5494517,13.35096,Hauptstadtkinder Kita Seestern,Genter Straße 74,13353.0,Berlin,1400942
512545560,52.5553263,13.4305157,Klax Kita Tausendfüßler,Langhansstraße 74B,13086.0,Berlin,3500934
521747740,52.5412286,13.4214486,Kinderschlummerland,Göhrener Straße 3,10437.0,Berlin,3601348
532318871,52.4531474,13.538694,Kita barfuß,,,,9200613
537161656,52.5047504,13.4478202,DRK-Bildungswerk Nord,,,,2400625
542778846,52.47457,13.3042499,Kissi EKT,,,,4400833
559946452,52.5018506,13.4300328,Kita Pîya,,,,2300315
567546847,52.5257808,13.4516182,Kleine Fische,,,,2500726
626900900,52.4820918,13.4272726,Kita Früchte der Kulturen e.V.,Mainzer Straße 17,12053.0,Berlin,8100206
626900903,52.4822991,13.427231,Kita Frühlicht 2,Mainzer Straße 15-16,12053.0,Berlin,8100206
638953354,52.5049217,13.490018,Kita Gisela,Giselastraße 26,10317.0,Berlin,11400929
640400514,52.6027315,13.3493596,EKG - Am Seggeluchbecken,,,,12601134
651400316,52.4495964,13.5080439,Kita Karussel - Lernorte - Wissen und Bildung für Kinder GmbH,Sterndamm 41,12487.0,Berlin,9100408
652583178,52.4260314,13.3320678,Die Maulwürfe,Lorenzstraße 57,12209.0,Berlin,6200422
652885181,52.5326648,13.4018243,Kindergarten Veteranenstraße 10,Veteranenstraße 10,10119.0,Berlin,1100416
655153157,52.5395657,13.6013609,Städt. Kita Hellersdorfer Spielmäuse/Teil A,Kastanienallee 28,12627.0,Berlin,10200419
667211337,52.5139319,13.2655128,Sara Berlin,,,,4200310
704003010,52.4924873,13.3282561,Aventura,,,,4501149
745730793,52.487472,13.4318443,Kita Rotkäppchen,Pannierstraße 10,12047.0,Berlin,8100312
753528287,52.5722415,13.4097183,Verbundkita Pankow - Die Wölfe,Wolfshagener Straße 68,13187.0,Berlin,3400724
761739856,52.4762655,13.4474116,Kinderparadies,,,,8100415
766742182,52.4908527,13.4115665,Schulkinder,,,,2200212
769345879,52.4912728,13.4096875,"Girotondo, deutsch-italienischer Kinderladen",Freiligrathstraße 11,10967.0,Berlin,2200212
838741927,52.5408804,13.1929484,,,,,5100316
876246272,52.5014446,13.4222921,Montessori-Kinderhaus Naunynstraße,Naunynstraße 69,10997.0,Berlin,2300314
941422365,52.5135648,13.4645038,Kita Colbestraße,Colbestraße 9-13,10247.0,Berlin,2500831
1080552866,52.4871838,13.2985854,die kleinen strolchen pflegedienst,,,,4400727
1129338784,52.4364928,13.5513117,DASI Kindertagesstätte Knirpsenland,,,,9200717
1137565398,52.4752501,13.3330522,Kinderladen Hauruck,Perelsplatz 10,12159.0,Berlin,7300517
1144087436,52.4941757,13.4238061,"Kindergarten ""Bärenhöhle""",Schinkestraße 8,12047.0,Berlin,8100310
1210302030,52.5698745,13.3097048,Kita Kleine Kinderwelt,Klixstraße 27,13403.0,Berlin,12200310
1215799770,52.5164889,13.4321249,Blumenkinder,Andreasstraße 51,10243.0,Berlin,2400623
1224120948,52.4825549,13.318573,Aufgepasst,,,,4501148
1244900364,52.5149354,13.4464747,Kita Miki,,,,2400624
1252451446,52.5425889,13.3626312,Kita Paradiesvögel,Burgsdorfstraße 13A,13353.0,Berlin,1401047
1253875518,52.515922,13.448463,Kita Hopsemopse e.V.,,,,2400624
1256685871,52.506124,13.4779379,Kita Buntstift,Pfarrstraße 91,10317.0,Berlin,11400927
1260568918,52.4689558,13.4907092,Kita Arbolitos,Baumschulenstraße 103,12437.0,Berlin,9100305
1263987221,52.5155479,13.4447811,Kita Sternthaler,Gubener Straße 1,10243.0,Berlin,2400624
1270524484,52.4837799,13.2807891,Kindertagesstätte St. Karl Borromäus,Delbrückstraße 33,14193.0,Berlin,4400728
1279101565,52.5390561,13.2085542,Kita St. Nikolai,Behnitz 3,13597.0,Berlin,5100316
1283595020,52.5114298,13.4700577,Kita Lieblingsplatz,,,,2500832
1291031022,52.5398634,13.3808624,Kita Kinderparadies,,,,1300835
1320130128,52.495803,13.4265669,Regenbogenfabrik Kita,Lausitzer Straße 21a,10999.0,Berlin,2300417
1344717549,52.4683561,13.4932242,"Kita ""Die Plänter""",Rodelbergweg 2,12437.0,Berlin,9100305
1357151793,52.5388717,13.4298951,"Kindergarten ""Räuberbande""",Ella-Kay-Straße 6,10405.0,Berlin,3701657
1359236244,52.5364555,13.4291666,Kita Zwergenbaude I,Chodowieckistraße 35,10405.0,Berlin,3701658
1380900817,52.5638377,13.4209055,EKT Gartenkinder e.V.,,,,3400830
1382320526,52.567623,13.422091,Kita der Kath. Kirchengem. St. Georg,,,,3400830
1389419281,52.5293522,13.3999347,be smart academy,,,,1100309
1404818938,52.5491314,13.2100528,Kita Oscar e.V.,Neuendorfer Straße 72,13585.0,Berlin,5100314
1419614783,52.5224298,13.4517162,Pinepako e.V.,Straßmannstraße 28,10249.0,Berlin,2500726
1419614784,52.5226583,13.4526872,Grüne Wolke,Straßmannstraße 36,10249.0,Berlin,2500726
1421113656,52.5204056,13.4603709,Kita Elements,Eldenaer Straße 46,10247.0,Berlin,3601453
1455045016,52.5148575,13.3373993,Kinderstube in Berlin,Klopstockstraße 1,10557.0,Berlin,1200629
1459877407,52.5347189,13.3588286,Städt. Kita Lehrter Straße 39,,,,1200624
1476695923,52.5045328,13.2945456,Ingrids Kindergarten,,,,4300416
1544191095,52.54888,13.4085358,Kinderladen Josephine,Kopenhagener Straße 65,10437.0,Berlin,3601142
1545833203,52.4867675,13.5243787,Kita kleine Wichtel,"Marksburgstraße 38,40",10318.0,Berlin,11501339
1576962382,52.4884162,13.427275,Rasselbande,Weserstraße 212,12047.0,Berlin,8100311
1597894101,52.4908625,13.4214302,Mondsichel,,,,2200213
1624036979,52.5394964,13.2691092,Stubs und Fridolin,,,,5300839
1668063589,52.5398504,13.6000435,Kita Kastanienknirpse,Kastanienallee 53,12627.0,Berlin,10200420
1669810922,52.464601,13.3429747,Harrys Kids Club,Peter-Vischer-Straße 12,12157.0,Berlin,7300619
1693737906,52.4210154,13.488001,Kita Balou,Neuköllner Straße 312,12357.0,Berlin,8401242
1702195402,52.5017447,13.3610111,KiKo Hort II,Pohlstraße 74,10785.0,Berlin,1100103
1717922754,52.513974,13.4994545,Herzberger Wurzelzwerge,Hagenstraße 49,10365.0,Berlin,11300725
1731277088,52.5302117,13.3873195,kinderinsel,Eichendorffstraße 17,10115.0,Berlin,1100415
1739346660,52.4937708,13.3221128,lilolei - Deutsch-Englischer Kinderladen,,,,4501044
1773168245,52.5546162,13.446902,Kita Paul & Paula,"Roelckestraße 30,31",13086.0,Berlin,3500933
1778049228,52.4877861,13.2774378,,,,,4400726
1814559961,52.5218727,13.4017995,Kinderinsel MITTEndrin,Garnisonkirchplatz 2,10178.0,Berlin,1100310
1833519550,52.485432,13.3377964,Kita an der Hochschule für Wirtschaft und Recht,Badensche Straße 50-51,10825.0,Berlin,7200308
1848905433,52.4744519,13.4220286,Kindertagesstätte Genezareth,Allerstraße 33-34,12049.0,Berlin,8100103
1862798922,52.4659416,13.3198005,EKT Fliegenpilz e.V.,,,,6100103
1865691146,52.4916528,13.4334125,KinderFan,,,,8100310
1895066404,52.6555274,13.2838911,Wurzelkinder - Waldkindergarten Frohnau,,,,12400721
1914552666,52.4962372,13.3290445,Finowkids e.V.,Pariser Straße 3,10719.0,Berlin,4501045
1928648257,52.5341872,13.4065682,Fliederhof Waldorfkindergarteninitiative Berlin-Mitte,Zionskirchstraße 49,10119.0,Berlin,1100416
1929575302,52.5129253,13.3124965,Die Zauberworte,Zauritzweg 9,10585.0,Berlin,4300621
1935699753,52.5096533,13.3009537,EKT Kulturküken,Schillerstraße 64,10627.0,Berlin,4300416
1935699754,52.5094959,13.299689,EKT - Pumuckel e.V. Kila II,,,Berlin,4300416
1935699755,52.5093563,13.3003432,Kita Pumuckel,,,,4300416
1948112188,52.5142393,13.2883235,Kinderladen Windmühle,Sophie-Charlotten-Straße 84,14059.0,Berlin,4300413
1948112264,52.5150911,13.2880574,Heinrich-Zille-Kindergarten,,,,4300413
1959523351,52.4971369,13.4321182,Jungle Kita,Wiener Straße 23,10999.0,Berlin,2300418
1976439678,52.5310258,13.4248529,Kita Bienchen,,,Berlin,3701659
2007004767,52.4208647,13.5365952,Kinderzeit,,,,9300920
2021452187,52.5276251,13.5433593,Kleine Kosmonauten,Allee der Kosmonauten 67,12681.0,Berlin,10100312
2030963008,52.4809522,13.3205763,Kindergarten Aufgepasst,Blissestraße 45,10713.0,Berlin,4501151
2102300970,52.5495968,13.3612097,Die kleinen Frösche,,,,1401048
2136471642,52.4979541,13.3056139,Kita,,,,4500938
2139861395,52.496128,13.311787,Kita el caracol/Gestaltpäd.Kindergarten e.V.,Zähringerstraße 14,10707.0,Berlin,4501043
2144424656,52.6103791,13.2472748,Kita Zwergenstube,Am Bärensprung 42,13503.0,Berlin,12400619
2173399329,52.5135475,13.4661533,Kita Spieltraum,Kinzigstraße 11,10247.0,Berlin,2500831
2176082803,52.4589224,13.3818201,Verbundpflegestelle  Winnie-Pooh,Werderstraße 31,12103.0,Berlin,7400825
2266181719,52.5772272,13.4010697,Kita Lotusblüte,,,,3200206
2267204696,52.5150869,13.334787,Kita St-Ursula,Wegelystraße 12,10623.0,Berlin,4300620
2280779399,52.4859936,13.3924437,Evangelische Kita 1,Schwiebusser Straße 6,10965.0,Berlin,2200211
2282059457,52.5960889,13.2831042,Kindertagesstätte am Tegeler Fließ,Waidmannsluster Damm 7E,13507.0,Berlin,12200515
2285378483,52.504294,13.415159,Katholische Kindertagesstätte St. Michael,Dresdener Straße 29,10999.0,Berlin,2300314
2285962149,52.4569827,13.3822392,Kindergarten Krabbelkäfer,Burgemeisterstraße 76,12103.0,Berlin,7400825
2298929155,52.5469016,13.3689555,LifExperience,Reinickendorfer Straße 99,13347.0,Berlin,1401043
2298929161,52.5466954,13.3671302,Kita Paradiesvögel,Plantagenstraße 9,,,1401043
2301610387,52.5513936,13.366711,Wir werden immer größer,,,,1401049
2308423900,52.5533738,13.3903128,Montessori-Kinderhaus,Eulerstraße 18,13357.0,Berlin,1300733
2308524438,52.5480622,13.3594914,Nice-Bildung e.V.,Nazarethkirchstraße 49 A,13347.0,Berlin,1401048
2320709663,52.4941286,13.3540383,Schülerladen Schnuppe,Goltzstraße 21,10781.0,Berlin,7100204
2339246283,52.4819577,13.3216022,Arche Noah,Hildegardstraße 16,10715.0,Berlin,4501151
2352703009,52.5870101,13.4020191,Waldkindergarten Robin Hood,,,,3200207
2375974208,52.5313722,13.3497481,Kita Cheburashka,,,,1200623
2391234938,52.4964983,13.3147379,Städt. Kita Düsseldorfer Straße 53a,,10707.0,Berlin,4501043
2415419758,52.4858711,13.4363129,Kita BeerenStark,Weserstraße 185,12045.0,Berlin,8100312
2424293785,52.4443157,13.5805399,Kita Zauberblümchen,,,,9401534
2425546311,52.4811787,13.528217,Kita Pepe Rakete,Ehrenfelsstraße 9,10318.0,Berlin,11501340
2436713759,52.587432,13.401475,KITA Kleine Mimmi,Dietzgenstraße 71,13156.0,Berlin,3200205
2452556287,52.4683111,13.3042322,,,,,4400832
2463102667,52.5506377,13.4115794,Kinderladen Bullerbü e.V.,,,,3601141
2476315799,52.4788354,13.3322976,Kinderladen Wexstraße,Wexstraße 23,10715.0,Berlin,4501153
2492377936,52.539956,13.3583603,Kinderladen Frischlinge,Tegeler Straße 44,13353.0,Berlin,1401046
2497483865,52.4928311,13.4388419,Sonnenkäferhaus,,,,2300418
2497483946,52.4932203,13.4374458,Spreesprotten,,,,2300418
2498835738,52.5073823,13.3024973,EKT - Yoyo e.V.,Kaiser-Friedrich-Straße 60,10627.0,Berlin,4300623
2508328284,52.4941814,13.4109935,Minifee,,,,2200213
2536537962,52.5915317,13.2811077,Kita Seesterne,Karolinenstraße 21,13507.0,Berlin,12200515
2599978562,52.429151,13.3384476,hisa Kita,,,,6200314
2623912473,52.4455538,13.3820535,KiTa Lillebor,Machonstraße 54,12105.0,Berlin,7501030
2626055043,52.492979,13.4278312,Kinderladen Naseweis,,,,8100310
2669877515,52.5099362,13.3072698,Kinderladen Wusel,Schillerstraße 84,10627.0,Berlin,4300623
2676846498,52.554327,13.3656768,Kita Sonnenblume/AWO,,,,1401049
2702791640,52.4898283,13.3178743,EKT - Gieselerstraße 25 e.V.,,,,4501147
2733755926,52.5286374,13.3189629,Kita Elfenbein,Huttenstraße 21,10553.0,Berlin,1200517
2752211165,52.5560615,13.3878649,EKT Meilenstein,Wriezener Straße 43,13359.0,Berlin,1300732
2752211173,52.5565472,13.3882364,Kita Meilenstein,Wriezener Straße 39,13359.0,Berlin,1300732
2796298037,52.4913343,13.4474325,Karl und Karla e. V.,Karl-Kunger-Straße 59,12435.0,Berlin,9100101
2823349702,52.3955018,13.3931878,,Nuthestraße 18,12307.0,Berlin,7601544
2831610638,52.4613712,13.3206448,Zauberzwerge,Ahornstraße 20,12163.0,Berlin,6100102
2834843046,52.5278272,13.3333273,Kita Die Bärenbande,Emdener Straße 56,10551.0,Berlin,1200519
2877325548,52.521886,13.1975875,Krabbelgruppe der Ev. Melanchthon-Kirchengemeinde,,,,5200630
2889597699,52.5985524,13.3431242,Kita La Vita,Eichhorster Weg 23,13435.0,Berlin,12601134
2889852410,52.5902602,13.3344592,Kita Mondschein,Oranienburger Straße 63,13437.0,Berlin,12500926
2903780164,52.5534752,13.4450961,Kinderladen Wurzelgemüse,Roelckestraße 24,13086.0,Berlin,3500935
2907779311,52.5475532,13.4030016,Kita Edgar Berlin,Korsörer Straße 19,10437.0,Berlin,3601142
2928072324,52.6133967,13.2399584,"Kindertagesstätte ""Claudius-Arche"" der Evangelischen Matthias-Claudius-Kirchengemeinde",Schulzendorfer Straße 25,13503.0,Berlin,12400619
2935486801,52.556208,13.3434292,Kita Primavera,Glasgower Straße 25,13349.0,Berlin,1400939
2938009550,52.4632688,13.3820213,Kita Leotie,Schönburgstraße 12,12103.0,Berlin,7400824
2938012578,52.4601783,13.3769189,Kita Chumani,Kaiserin-Augusta-Straße 27,12103.0,Berlin,7400824
2938063300,52.4648048,13.3766138,Kita Mojak,Podewilsstraße 5,12103.0,Berlin,7400823
2939073344,52.5946316,13.3478519,Kita Container,Schorfheidestraße 13-15,13439.0,Berlin,12601236
2939076048,52.592136,13.3572621,Kinderinsel / Lîle aux enfants,Tramper Weg 4,13439.0,Berlin,12601235
2940305304,52.6234057,13.3129405,"Forscherkindergarten ""Rotbuche""",Berliner Straße 50,13467.0,Berlin,12400723
2952110533,52.5601303,13.3608223,"""Die Arche""",,,,1400940
2952360838,52.5694196,13.3645904,Kita Kinderland,Friedrich-Wilhelm-Straße 76,13409.0,Berlin,12100103
2952709754,52.4168094,13.323531,Kita Sonnenblume,,,,6200423
2953721339,52.5688244,13.3678592,Kita Fidibus,Amendestraße 91,13409.0,Berlin,12100102
2953843467,52.5741474,13.3741122,Kita Sommergarten,Sommerstraße 28,13409.0,Berlin,12100103
2964784072,52.6056068,13.3567372,Kita Krümelkiste,Senftenberger Ring 46A,13435.0,Berlin,12601134
2967300451,52.4634168,13.523331,Evangelischer Kindergarten Oberschöneweide,,,,9200511
2968517234,52.4743894,13.2949776,Pünktchen und Anton,Cunostraße 1,14199.0,Berlin,4400832
3004624108,52.4023007,13.5082995,"AWO-Hort ""Elfenfels""",,,,8401245
3009887462,52.5817998,13.4059097,KiTa Meilenstein,Blankenburger Straße 9A,13156.0,Berlin,3200207
3022044911,52.5098683,13.5025303,Kita Mausezahn,Einbecker Straße 32,10317.0,Berlin,11400929
3026797138,52.4036913,13.5058522,Kinderladen Flinke Kids,Elly-Heuss-Knapp-Straße 21,12355.0,Berlin,8401245
3035084405,52.4476963,13.2520089,Onkel-Toms-Hütte e.V.,Onkel-Tom-Straße 64B,14169.0,Berlin,6400840
3048927550,52.516762,13.4639348,El Jardín de Federico,Rigaer Straße 79,10247.0,Berlin,2500728
3048935296,52.5090538,13.5039008,Lucecitas,Marie-Curie-Allee 4,10315.0,Berlin,11400929
3072343834,52.4946581,13.3415883,EKT - Dachsbau,Münchener Straße 3,10777.0,Berlin,7100101
3073205133,52.4944603,13.3671258,EKT - Bülowstraße e.V.,Bülowstraße 52,10783.0,Berlin,7100205
3079808136,52.4893395,13.331382,Kant-Kindergarten,Bundesallee 187,10717.0,Berlin,4501152
3081226521,52.5421814,13.3743639,die kleinen Kleckse - Tagespflegestätte,Schönwalder Straße 28,,,1300836
3097780240,52.5867986,13.4021811,"Kindergarten ""Dietzgen-Strolche""",Dietzgenstraße 65,13156.0,Berlin,3200207
3107015601,52.5729556,13.4110094,Kinderladen Spielmäuse,Wolfshagener Straße 81,13187.0,Berlin,3400724
3112772960,52.4568991,13.3833753,Kita Tabasu,,,,7400825
3112772961,52.4581456,13.3827437,Notenzwerge,Friedrich-Wilhelm-Straße 78-79,12103.0,Berlin,7400825
3113097603,52.4592287,13.5820556,EKT - Die Sternenfischer e.V.,Stellingdamm 6,12555.0,Berlin,9502042
3113163959,52.4855416,13.4644619,Greta and Friends,Puderstraße 26,12435.0,Berlin,9100202
3113193874,52.4625128,13.4816117,EKT – Schraderstraße,,,,9100304
3113197215,52.4661201,13.4885119,Kita Kleiner Fratz Ernststraße,Ernststraße 4,12437.0,Berlin,9100304
3113197216,52.4672019,13.4851699,Kita Villa Klecks,Kiefholzstraße 269,12437.0,Berlin,9100304
3113362721,52.4490306,13.5122571,Kita Die wilden Knallerbsen,Groß-Berliner Damm 39,12487.0,Berlin,9100408
3113523925,52.4423522,13.5019142,Kita felix and friends,Sterndamm 109,12487.0,Berlin,9100408
3113525295,52.4454568,13.509297,Kita Die wilden Knallerbsen e.V.,,,,9100408
3114688707,52.5093272,13.4728751,Kinderladen Friedrichsklain,Oderstraße 34,10247.0,Berlin,2500832
3140301719,52.5424298,13.3623585,Kita Arif und Alina,Burgsdorfstraße 13,13353.0,Berlin,1401047
3151470262,52.5130311,13.4651679,Kita Scharnweberstraße,Scharnweberstraße 23,10247.0,Berlin,2500831
3161005615,52.450765,13.3218198,Kita Spatzennest,Erlenstraße 20,12167.0,Berlin,6100207
3180634728,52.5048402,13.3158295,EKT - Schlumpfenland e.V.,Wielandstraße 40,10629.0,Berlin,4501041
3187715521,52.5256694,13.3198275,Kita Engelsnest,Kaiserin-Augusta-Allee 101,10553.0,Berlin,1200517
3219122562,52.4935137,13.3511617,Kiezbündnis Schülerladen - Janusz Korczak,Frankenstraße 6,10781.0,Berlin,7100204
3229138235,52.4648314,13.3315433,Kinderladen Krikel Krakel,Peschkestraße 8,12161.0,Berlin,6100209
3235730026,52.4891733,13.4540178,Kita Pretty World,Elsenstraße 25,12435.0,Berlin,9100101
3282739961,52.537398,13.403576,Rappelkiste,Wolliner Straße 9,10435.0,Berlin,1100416
3282743761,52.536911,13.40357,Kinderladen Rosenthaler Vorstadt,Wolliner Straße 60,10435.0,Berlin,1100416
3300124950,52.6409989,13.4888294,Montessori-Kinderhaus Berlin-Buch,Wiltbergstraße 90,,,3100101
3343102816,52.4918956,13.3522876,Kita des Pestalozzi-Fröbel-Hauses,Barbarossastraße 64,10781.0,Berlin,7100204
3398539875,52.5201666,13.4643985,Krippe Mondbär,Eldenaer Straße 36,10247.0,Berlin,3601453
3444591296,52.4809538,13.3628341,Brei nach Neun,Leuthener Straße 8,10829.0,Berlin,7200413
3444591297,52.4812161,13.3592231,Kinderladen Meckerbeine,Cheruskerstraße 17,10829.0,Berlin,7200413
3444594500,52.48257,13.3588659,Kita der Ev. Kirchengem Königin-Luise-Gedächtnis,Cheruskerstraße 30,10829.0,Berlin,7200413
3446653826,52.4836963,13.3630163,Kinderladen Bunte Knospe,,,,7200413
3446657747,52.4913346,13.3652603,Evangelische Kita Silas,,,,7100206
3446931210,52.4833873,13.3620946,Kita Cookis,Gustav-Müller-Platz 2,10829.0,Berlin,7200413
3450394081,52.4880979,13.3642603,Kunkel,,,,7200414
3452083371,52.5543323,13.4101602,Tegner-Strolche,,,,3601139
3475070854,52.5033001,13.3566187,Kita Maulwurf,Derfflingerstraße 21,10785.0,Berlin,1100103
3479948103,52.4924741,13.3563629,EKT - Tigertatzen e.V.,Elßholzstraße 11,10781.0,Berlin,7100204
3484066981,52.4575903,13.2746144,Waldorf-Kindergarten Zehlendorf e.V.,,,,6400844
3488849732,52.4948402,13.3500271,Kinder- und Schülerladen Manno e.V.,Hohenstaufenstraße 10a,10781.0,Berlin,7100102
3563135693,52.4939191,13.4194161,Großpflegestelle Peti und Ulli,,,Berlin,2200213
3570843073,52.4700471,13.3209725,Kinderladen Kraut und Rüben,Schwalbacher Straße 8,12161.0,Berlin,7300516
3570843074,52.4700378,13.3221987,EKT Rappelschlößchen,Schwalbacher Straße 10,12161.0,Berlin,7300516
3578793271,52.5512131,13.3891799,Kindergarten Auenland,Zingster Straße 12,13357.0,Berlin,1300733
3651177320,52.5144877,13.2973279,Kita Schloßstraße,,,,4300414
3666319970,52.4950568,13.3333982,Kindergarten - Sandra Kobs,Nachodstraße 19,10779.0,Berlin,4501152
3666631695,52.499059,13.3416183,Kita Fuggerstraße e.V.,Fuggerstraße 37,10777.0,Berlin,7100101
3666792404,52.5244457,13.313733,"Kita ""bewegte Kinder e.V.""",,,,4300518
3698296432,52.4889997,13.3493536,Kita Purzelbaum,Eisenacher Straße 81,10823.0,Berlin,7200409
3822837670,52.4663073,13.4738265,Kita Hänselstraße,,,,8100521
3843550705,52.4805284,13.323981,Waldorfkindergarten Rosenhof,Weimarische Straße 5,10715.0,Berlin,4501151
3844570972,52.4901702,13.3461426,Kinderladen Frechsdachs,Rosenheimer Straße 28,10781.0,Berlin,7100204
3844739281,52.4869279,13.3425314,Kinderladen Amtomokarasachmo,Salzburger Straße 7,10825.0,Berlin,7200307
3874226721,52.5208599,13.4325745,KreativitätsKindertagesstätte Allesforscher,Strausberger Straße 38,10243.0,Berlin,2400521
3900932445,52.5322577,13.3267775,Kita Elfenblume,Rostocker Straße 28,10553.0,Berlin,1200518
3900935675,52.5319894,13.3267708,Kita Safina I,,,,1200518
3905690358,52.4644544,13.5144646,Kita Windfee,Goethestraße 2,12459.0,Berlin,9200511
3906165319,52.4649644,13.5137988,Kita Spreekinder 2,Edisonstraße 19,12459.0,Berlin,9200511
3943335526,52.5027618,13.3726299,,,,,2200207
3973033677,52.567159,13.3163189,Hakuna Matata,,,,12200309
3987002050,52.448665,13.3133092,Kita der Kath. Kirchengem. St. Annen,,,,6300633
4014691041,52.5289509,13.413324,FRÖBEL Kindergarten,Straßburger Straße 6B,10405.0,Berlin,3701556
4074274150,52.4885535,13.3745228,EKT - Macht nix e.V.,,,,2200209
4086166289,52.444789,13.372418,Die kleinen Sonnenblumen,Kaiserstraße 144,12105.0,Berlin,7501029
4095932191,52.556085,13.3436478,Kinderladen Gänseblümchen,Glasgower Straße 26,13349.0,Berlin,1400939
4116037365,52.4347158,13.3480029,Kinderladen am Park,,,,6200313
4119299329,52.5439853,13.421856,Kita Edgar Berlin,Dunckerstraße 74,10437.0,Berlin,3601347
4135107550,52.4614496,13.4460273,Kita Regenbogen,Buschkrugallee 31,12359.0,Berlin,8200622
4172663099,52.5324737,13.410402,Kinderladen Frieda Kirschkern,Christinenstraße 21,10119.0,Berlin,3701554
4219699165,52.5125546,13.4671387,Kita Salabanda Süd,Scharnweberstraße 47,10247.0,Berlin,2500831
4259918472,52.531283,13.4251048,Kindergarten Berliner Kindheit,,,,3701659
4315470225,52.5499125,13.3494156,Kita Kardelen,Lüderitzstraße 3,13351.0,Berlin,1400938
4339053524,52.5472412,13.3695741,Kinderladen Zauberhaus,Reinickendorfer Straße 30,13347.0,Berlin,1401044
4350176243,52.5204348,13.4602471,Kita Hexenkleckshausen,Eldenaer Straße 46,10247.0,Berlin,3601453
4379185792,52.442998,13.3829407,Kinderladen Marienkäfer,Prühßstraße 30,12105.0,Berlin,7501030
4412304410,52.5077215,13.3117833,Kindertagespflege Froschwiese,Pestalozzistraße 88A,10625.0,Berlin,4300623
4415744966,52.5207501,13.3569328,Kinderladen Schneckenhaus,,,,1200628
4436543239,52.5529084,13.3703184,Kindergarten Rauda,,,,1401044
4444386578,52.5451701,13.369771,Outlaw Kita am Nettelbeckplatz,Reinickendorfer Straße 110A,13347.0,Berlin,1300836
4448386325,52.569655,13.3113888,Kita Stadtperlen,,,,12200310
4450678323,52.4309835,13.3360932,Kita Benjamin Blümchen,,,,6200314
4453587751,52.4768911,13.6003157,Kindergarten frei und geborgen,Hultschiner Damm 25 - 27,12623.0,Berlin,10400940
4473267846,52.5251758,13.4156513,Kita am Alex,Wadzeckstraße 3,10178.0,Berlin,1100310
4534097100,52.5056802,13.4637485,Rabenkinder,Simplonstraße 52,10245.0,Berlin,2500834
4550576193,52.5704421,13.5712392,Kiek mal,,,,10100102
4551507683,52.5202108,13.4640953,Krippe Sonnenkäfer,Eldenaer Straße 36,10247.0,Berlin,3601453
4583979875,52.5849607,13.4285344,Kita Die Kiezkrümel,Pankower Straße 1,13127.0,Berlin,3400725
4596211011,52.4687484,13.4912344,Die Traumfänger,Köpenicker Landstraße 246,12437.0,Berlin,9100305
4640590860,52.5105341,13.4247573,Kita Spreefeld,Wilhelmine-Gemberg-Weg 10,10179.0,Berlin,1100313
4645562407,52.5637906,13.3958208,Kinderladen Auenland e.V.,,,,3400721
4645562408,52.561738,13.3984826,Sternschnuppe,,,,3400721
4652655393,52.5821928,13.4032314,Kita Gänseblümchen,,,,3200206
4698844715,52.4621629,13.5158109,Kita Zauberland,Wilhelminenhofstraße 21,12459.0,Berlin,9200511
4702468664,52.4443986,13.2911541,EKT Biegel e.V.,Unter den Eichen 93,12205.0,Berlin,6300629
4752561585,52.4856821,13.371963,Lok 18,Am Lokdepot 17,10965.0,Berlin,7200414
4757507849,52.4893099,13.454767,Kita Pretty World,Elsenstraße 102A,12435.0,Berlin,9100101
4775397846,52.4973311,13.3474095,Kita Motzstraße,Motzstraße 33,10777.0,Berlin,7100102
4789962777,52.5296051,13.3358133,Kleine Moabiter,Oldenburger Straße 40,10551.0,Berlin,1200519
4797313799,52.4354607,13.5474917,Kita Naturspatzen,,,,9200716
4812222801,52.5669002,13.3967253,Kinderschlummerland PIWI,,,,3400721
4831523450,52.5671925,13.3979818,Pankekinder e.V.,Wollankstraße 119,13187.0,Berlin,3400721
4852033592,52.4652287,13.491111,Kita Kleiner Fratz e.V.,Behringstraße 33,12437.0,Berlin,9100304
4854908806,52.5722291,13.3119042,DRK Kita Antonia,Antonienstraße 50a,13403.0,Berlin,12200310
4854908807,52.5716276,13.3130128,"Kita ""Die kleinen Grünschnäbel""",Eichborndamm 39,13403.0,Berlin,12200310
4854908809,52.5682104,13.3213022,Vorschulgruppe Schillingstraße,Schillingstraße 15,13403.0,Berlin,12200309
4854908810,52.5684913,13.3215093,Kindertagesstätte Schillingstraße,Schillingstraße 16,13403.0,Berlin,12200309
4854908811,52.5685186,13.3210958,Kita Wortschmiede,Zobeltitzstraße 34,13403.0,Berlin,12200309
4894826467,52.6239921,13.3119076,EKT - Zwergenschloß e.V. Krippe,,,,12400723
4896119784,52.6097468,13.3201752,Kids Company II Ganztagsbetreuung,,,,12500928
4904477276,52.4344423,13.2593393,Kita Paulus,,,,6300526
4915105981,52.4664322,13.4367448,"Ali Baba und seine Räuber ""Rainbow""",Bendastraße 21,12051.0,Berlin,8100209
4917238689,52.6191823,13.313895,EKT - Sonnenkita-Hermsdorf e.V.,,,,12400723
4917776158,52.6207167,13.3070663,EKT - Kleine Nordlichter e.V.,Hermsdorfer Damm 192,13467.0,Berlin,12400723
4918783338,52.6193536,13.3104863,EKT - Zwergenschloß e.V.,Olafstraße 16,13467.0,Berlin,12400723
4919670361,52.6170543,13.3248852,"Tagesgroßpflege ""Minigarten""",Seebadstraße 33,13467.0,Berlin,12400723
4955248527,52.4697893,13.3388031,Kita Wielandstraße,Wielandstraße 23,12159.0,Berlin,7300618
4957656703,52.5683367,13.3104634,"Kita ""Kuddel-Muddel""",,,,12200310
5003038558,52.4515961,13.3444096,Kita Bibbi-Bär,Immenweg 13-15,12169.0,Berlin,6100204
5012454810,52.5962638,13.3530182,Kita Kirchenmäuse,Wilhelmsruher Damm 159a,13439.0,Berlin,12601235
5037999568,52.5645135,13.5301589,Kita Wiesenhüpper,Wartiner Straße 77,13057.0,Berlin,11100203
5053819060,52.486814,13.3903892,Wildblume III,Fidicinstraße 10,10965.0,Berlin,2200211
5068538507,52.6106205,13.2474893,Kleine Pusteblume,Am Bärensprung 36,13503.0,Berlin,12400619
5089487583,52.4237701,13.482585,Kita Pretty World,Agnes-Straub-Weg 20,12353.0,Berlin,8301037
5094086536,52.4133854,13.3642264,Kita Marienfelder Kiezhopser,Alt-Marienfelde 54,12277.0,Berlin,7601237
5101307259,52.4566548,13.3270947,Kita Multitalent,Heesestraße 9,12169.0,Berlin,6100208
5141153069,52.5058161,13.4612314,Kita Rabbit Street,Haasestraße 9,,,2500834
5149504749,52.5070767,13.4949569,Kindertagespflegestelle Flohzirkus,,,,11400929
5149515671,52.5060486,13.4949421,Spieltraum Lichtenberg,,,,11400929
5210416716,52.4876362,13.3322424,Kindertagespflege Baerliner Rasselbande,Berliner Straße 9,10715.0,Berlin,4501152
5216814509,52.5679126,13.3647799,Großtagespflege Unser Spatzennest,Amendestraße 101,13409.0,Berlin,12100102
5239552683,52.5211944,13.4542174,Kita Salabanda 73,Mühsamstraße 73,10249.0,Berlin,2500726
5241636642,52.5700278,13.3517285,Kita Pirole,,,,12100205
5252560023,52.5701014,13.3507661,Kita Kinderinsel Aroser Allee,Aroser Allee 151,13407.0,Berlin,12100205
5266157901,52.570183,13.3736421,,,,,12100102
5268605011,52.501672,13.4315036,EKT Bessere Zukunft für Kinder,Muskauer Straße 11A,10997.0,Berlin,2300315
5296054903,52.5856236,13.3720098,Kita Sternenburg,Edelweißstraße 27,13158.0,Berlin,3400619
5306807794,52.5250279,13.5923593,Kindertagesstätte Berlin-Kaulsdorf,Peter-Huchel-Straße 35,12619.0,Berlin,10200628
5338838694,52.5506854,13.4105063,el jardin de Mafalda e.V.,,,,3601141
5339117680,52.5526985,13.4051734,Piano e.V.,,,,3601140
5346651761,52.5468542,13.4025578,Kita Mauerschwalben,,,,3601142
5351286163,52.5524995,13.410922,Pünktchen+Paul,,,,3601141
5351286164,52.5525238,13.4105484,Brüderchen und Schwesterchen,,,,3601141
5370729433,52.4486494,13.3451802,Kindertagesstätte JuLiKinder,Halskestraße 9,12167.0,Berlin,6100205
5380284322,52.4961589,13.4744488,Kinderhafen Spreeräuber,Am Speicher 5,10245.0,Berlin,2500836
5386381032,52.5543581,13.4097286,freude,,,,3601139
5389406549,52.5469547,13.4068008,Die wilden Kücken,Gleimstraße 13,10437.0,Berlin,3601142
5436064207,52.5884009,13.4013844,Kindertagesstätte Melodiekiste,Dietzgenstraße 79,13156.0,Berlin,3200205
5440588796,52.4846064,13.3354846,Piccolino,Babelsberger Straße 40,10715.0,Berlin,4501153
5440588797,52.4853959,13.3355023,Land in Sicht,Babelsberger Straße 43,10715.0,Berlin,4501153
5451560607,52.5527375,13.4047759,PIDA e.V.,Paul-Robeson-Straße 30,10439.0,Berlin,3601140
5471136068,52.5532055,13.4279204,Anderland,,,,3400828
5486628642,52.5549139,13.4223535,Cheburashka,,,,3400827
5489583919,52.4973925,13.4465605,Munkelrübe,Taborstraße 21,10997.0,Berlin,2300419
5504502662,52.4806301,13.3309717,Girasole Kita,Durlacher Straße 27,10715.0,Berlin,4501153
5505144585,52.4797474,13.3245006,Kinderhaus Kipsi,Weimarische Straße 20,10715.0,Berlin,4501151
5508692966,52.5464381,13.4097669,Kindergarten des Stadt & Waldkinder e.V.,,,,3601142
5515845294,52.5186749,13.3157622,Kindertagespflege Alegria,Galvanistraße 15,10587.0,Berlin,4300619
5574301780,52.5226505,13.3808397,Casa Azul Maison Bleue,,,,1100308
5587090948,52.4598569,13.3770518,Reh-KIDS,,,,7400825
5643671624,52.4764939,13.3288085,Kinderladen Sieglinde,Bundesallee 140,12161.0,Berlin,7300517
5650233217,52.5664449,13.3189538,Kita Simba,,,,12200309
5693846374,52.6385963,13.3034086,EKT - Knusperhaus Frohnau e.V.,,,,12400721
5696294465,52.4788501,13.5137859,ABC Kindergarten,,,,11501341
5702857682,52.5507589,13.5674364,Kita Märchen,Rudolf-Leonhard-Straße 10,12679.0,Berlin,10100209
5743824826,52.5954044,13.3492698,,,,,12601235
5746405292,52.386116,13.3977561,EKT Mini-Kids Salvator,,,,7601544
5823415314,52.4536296,13.327751,Kinderladen JaJaHe,,,,6100207
5845386948,52.4798859,13.5145669,Kita Luna Sternenstaub,Liepnitzstraße 42,10318.0,Berlin,11501341
5909869891,52.4921557,13.3764379,Kinderfreizeit im Möckernkiez,,,,2200207
5938467760,52.4713526,13.3339382,das krümelzimmer,Schmargendorfer Straße 34,12159.0,Berlin,7300517
5943298094,52.5623388,13.4026433,Kinderland Ferdinand,Brehmestraße 35,13187.0,Berlin,3400721
5952120161,52.5613364,13.4111377,Clownfisch,,,,3400826
5997087757,52.503514,13.2914558,Coquelicot,,,,4300416
6012964894,52.5307289,13.3889956,Berlinchen,,,,1100415
6051205183,52.5411583,13.3626242,Kita Arif und Alina,Lynarstraße 39,13353.0,Berlin,1401047
6090437599,52.5005367,13.494641,Kita Zahnlücke,,,,11400928
6116296262,52.4648824,13.4389855,Kita BB17,Bruno-Bauer-Straße 17,12051.0,Berlin,8100209
6123173591,52.489352,13.5256417,Kita an der Hochschule für Technik und Wirtschaft Berlin,Hönower Straße 35,10318.0,Berlin,11501339
6133326608,52.5139997,13.5044572,Kindertagespflege Klein Krümel,,,,11300725
6161608466,52.5488556,13.4952731,Kita Hedwig,Hedwigstraße 11,13053.0,Berlin,11200411
6187610415,52.524274,13.4569558,Kita Sternchen,Thaerstraße 30A,10249.0,Berlin,3601453
6187616333,52.5245547,13.4570389,Kita Hokuspokus,Walter-Friedländer-Straße 26,10249.0,Berlin,3601453
6192931617,52.5255685,13.453418,Kinderladen Spieltraum,Hausburgstraße 12,10249.0,Berlin,2500726
6205600286,52.4954806,13.5007396,Zwergenbewegung,,,,11401135
6269962428,52.5499334,13.4119971,"Kinderladen ""kribbel krabbel""",Dänenstraße 4,10439.0,Berlin,3601141
6271841739,52.5723658,13.5683033,Kita Irgendwie Anders,Märkische Allee 414,12689.0,Berlin,10100102
6278331129,52.4830846,13.3555059,Kinderladen Elefanten,Ebersstraße 12a,10827.0,Berlin,7200410
6284838568,52.5637406,13.4197767,Junges Gemüse,Binzstraße 51,,,3400830
6325500308,52.5065951,13.4678639,Montessori Kinderhaus Olivo,Lenbachstraße 2,10245.0,Berlin,2500834
6354886638,52.52192,13.3340935,Kinderladen Jagowspatzen,Jagowstraße 10,10555.0,Berlin,1200522
6388595096,52.4597785,13.5239473,Kita Traumschön,Marienstraße 19,12459.0,Berlin,9200511
6404602146,52.5134267,13.3167887,Kita Wunderinsel,Marie-Elisabeth-Lüders-Straße 7,10625.0,Berlin,4300622
6501792389,52.5676536,13.3305392,Kita Nemo,Kögelstraße 4-5,13403.0,Berlin,12100205
6503855622,52.4559913,13.3263564,Kindertagespflege Spatzennest,Heesestraße 5,12169.0,Berlin,6100208
6520925486,52.4527892,13.3222559,La Casa de los Gorriones,Schützenstraße 41a,12165.0,Berlin,6100207
6520925586,52.4538023,13.3238549,Cardelinas,Leydenallee 90,12167.0,Berlin,6100207
6532305045,52.5513308,13.3483152,Kita Engelsnest II,,,,1400938
6539967415,52.5110977,13.5353544,Kita Tierparkzwerge,Gensinger Straße 83,10315.0,Berlin,11401033
6575237226,52.5053261,13.5580623,Kita Fuchtelzwerge,Elsterwerdaer Platz 1,12683.0,Berlin,10300733
6604233055,52.5412961,13.1449492,,Beim Pfarrhof 40-42,13591.0,Berlin,5200419
6610463373,52.4383182,13.3307881,Kita Mary Poppinz,Beethovenstraße 38,12247.0,Berlin,6200312
6661240699,52.5022287,13.3978489,Kita Milchstraße,,,,2100103
6724108539,52.5255539,13.3089527,Kindertagesstätte Die Schlümpfe,,,,4300518
6732268385,52.5550799,13.3668962,Kita Pinocchio,Iranische Straße 6A,13347.0,Berlin,1401049
6754311360,52.5147816,13.4809441,KiTa Weltentdecker,,,,11300722
6766861387,52.5536895,13.3619238,Kita Weiße Wolke,Groninger Straße 32,13347.0,Berlin,1401049
6766861686,52.5561803,13.3476455,Montessori-Kinderladen Wedding,Edinburger Straße 39,13349.0,Berlin,1400939
6769979833,52.4595307,13.5283086,Plönzwerge,,,,9200511
6789630877,52.5545647,13.4058183,Kita Born,Bornholmer Straße 18,10439.0,Berlin,3601139
6817527816,52.5008072,13.4238174,Kinderladen Wolkenburg,Mariannenstraße 48,10997.0,Berlin,2300315
6869974716,52.5306392,13.4318966,Kindergarten Käthe,Käthe-Niederkirchner-Straße 29,10407.0,Berlin,3701660
6980978159,52.4821571,13.4430948,Kinderladen Highway e.V.,,,,8100418
6987208791,52.5065491,13.4081646,Kleiner Fratz,,,,1100312
7004855347,52.46617,13.4360915,"Ali Baba und seine Räuber ""Die kleinen Strolche""",Kranoldstraße 1A,12051.0,Berlin,8100209
7007028810,52.4294656,13.3318817,Kinderladen Mauersegler,Lankwitzer Straße 10,12209.0,Berlin,6200314
7040633535,52.4865934,13.427025,Kita Zwergplaneten,Hobrechtstraße 8,12043.0,Berlin,8100314
7040793222,52.4848431,13.4304025,Kita Wichtelgarten,Donaustraße 6,12043.0,Berlin,8100314
7045234980,52.4860127,13.4299318,Hort Sonnenkids,,,,8100314
7069235384,52.5335406,13.4363569,Kita Mascha und der Bär,,,,3701660
7093344096,52.4774047,13.4363789,Die drei Affen,Kienitzer Straße 16,12053.0,Berlin,8100207
7093863276,52.5319711,13.4365524,Kita Sturmtüten,Pasteurstraße 38,10407.0,Berlin,3701660
7194172242,52.5352608,13.4370167,Kita Cheburashka,Bernhard-Lichtenberg-Straße 9,10407.0,Berlin,3601451
7222331689,52.4428984,13.5822594,Kleine Helden Köpenick,Müggelheimer Straße 45,12555.0,Berlin,9401534
7232729807,52.4149774,13.3451245,Grashüpferchen,Hildburghauser Straße 73,12279.0,,7601339
7233815655,52.4848675,13.3826789,Die Ameisen,Dudenstraße 17,10965.0,Berlin,7400720
7238382356,52.4746674,13.4246236,Kita Columbus,Weisestraße 26,12049.0,Berlin,8100103
7242405888,52.563972,13.3304057,Kita LuftBallon 2,,,,12100205
7274600282,52.5435972,13.4214935,Bazuba Kaminka,Dunckerstraße 77,10437.0,Berlin,3601347
7276177546,52.5405349,13.4187389,Deutsch-Chinesische Kita,Dunckerstraße 90a,10437.0,Berlin,3601347
7279591710,52.5437922,13.4196071,10 Vorne,Schliemannstraße 33,10437.0,Berlin,3601347
7280443787,52.5464213,13.4208491,Mischpoke,Lychener Straße 76,10437.0,Berlin,3601347
7288732050,52.5418356,13.4170637,Berliner Pandabären,Schliemannstraße 42,10437.0,Berlin,3601347
7288749672,52.5410091,13.4166785,Schaukelpferd,Schliemannstraße 47,10437.0,Berlin,3601347
7289480953,52.5622526,13.3575071,EKT - Die Mini-Entdecker e.V.,,,,12100204
7346753365,52.4970077,13.2977864,Kangaroo Garden,,,,4500938
7346753368,52.4971867,13.297558,Wallaby,,,,4500938
7382754575,52.4342756,13.4549609,Kita Erdmännchen,,,,8300934
7402461285,52.5378211,13.3731736,Kita Feuerfalter,Chausseestraße 84,10115.0,Berlin,1100308
7428910086,52.5573319,13.3420415,Kita Smile,,,,1400939
7428912785,52.5560566,13.3425785,Kita Müllerstraße,Müllerstraße 64,13349.0,Berlin,1400939
7467083289,52.3840683,13.3884783,Hort Orenda,,,,7601546
7495376740,52.5555769,13.3473642,Krippe Barfusstraße,Barfusstraße 14,13349.0,Berlin,1400939
7495426960,52.5554114,13.3437334,Kita Ofener Straße,Ofener Straße 15,13349.0,Berlin,1400939
7502945572,52.5533836,13.3385457,Kita PiratenKids,,,,1400937
7550986531,52.4788304,13.3334177,Kita Kinderkiez,Wexstraße 22,10715.0,Berlin,4501153
7563821254,52.4788854,13.3246408,Die Glückstupfen,,,,4501151
7573227530,52.4995188,13.2924451,Papillon Rouge,Katharinenstraße 20,10711.0,Berlin,4500937
7590570268,52.4934198,13.4178672,Schülerladen Hasenbau,,,,2200213
7609092412,52.5538571,13.344768,Kita Freche Früchte,Transvaalstraße 46,13351.0,Berlin,1400938
7613183868,52.555568,13.3467226,Kita Pîya,Barfusstraße 13,13349.0,Berlin,1400939
7620325885,52.5420536,13.3706773,"Kita Paradiesvögel ""Die Elstern""",Schönwalder Straße 17,13347.0,Berlin,1300836
7624535491,52.5031615,13.4051772,Kita Ritterburg,Ritterstraße 35,10969.0,Berlin,2100104
7638273424,52.4807907,13.3305635,Kindertagesstätte Tübinger Straße,Tübinger Straße 1,10715.0,Berlin,4501153
7683719227,52.4745154,13.3408274,Kinderladen Friedenauer Spatzen,Sponholzstraße 50-51,12159.0,Berlin,7300618
7700452314,52.4870552,13.3192157,Kita Kleine Küken,Brandenburgische Straße 84/85,10713.0,Berlin,4501146
7702380332,52.5542417,13.373197,Vielfalter,,,,1401045
7705210637,52.4668259,13.3328411,Kindertagespflegestelle Bouwmann,,,,7300618
7731748065,52.5601366,13.3804655,Kita Die Bärenbande,,,,1300730
7746191693,52.5845431,13.3662767,Krabbelkiste,,,,3400619
7747350435,52.4738074,13.3430084,Naturdetektive Kita Cecilien,Ceciliengärten 40,12159.0,Berlin,7300618
7747350438,52.474822,13.3428716,Krabbelkiste,Rubensstraße 28,12159.0,Berlin,7300618
7767814951,52.4940751,13.2940937,Multi Lingua INternationaler Kindergarten,Seesener Straße 44-46,10711.0,Berlin,4500938
7776221538,52.4662891,13.3333798,Krippe Die Mäuschen,Holsteinische Straße 33a,12161.0,Berlin,7300618
7803708937,52.4639499,13.4247009,Kita MANNA Maria,Mariendorfer Weg 28,12051.0,Berlin,8100105
7827657723,52.4752629,13.3199592,Spreepferdchen Waldorforientierte Kita,Laubacher Straße 35,14197.0,Berlin,4400835
7827657727,52.4818137,13.3132331,Kleine Knöpfe,Barstraße 28,10713.0,Berlin,4501148
7829798159,52.4419303,13.4462582,Ev. Teilzeit-Kita Hephatha „Kirchenwichtel“,,,,8200727
7850084103,52.4366156,13.5273346,Familya Adlershof,,,,9200715
7853722739,52.511901,13.3882818,Alegria,,,,1100207
8000778281,52.4798579,13.3200941,Platypus,Blissestraße 60,10713.0,Berlin,4501148
8042827119,52.482413,13.3427252,Knopf & Knöpfchen,Fritz-Elsas-Straße 17,10825.0,Berlin,7200308
8066810070,52.4804977,13.347445,Kindertagespflege Windelflitzer,Kärntener Straße 29,10827.0,Berlin,7200308
8066810073,52.4790958,13.347855,Kita Estrellitas,Kärntener Straße 25,10827.0,Berlin,7200308
8071884199,52.5060031,13.2928233,Umme Ecke,,,,4300415
8118819078,52.4708061,13.327969,"Kindergarten ""Zum guten Hirten""",Bundesallee 76a,12161.0,Berlin,7300516
8121763029,52.4594932,13.3140264,Kita Grunewaldstraße,Ermanstraße 26,12163.0,Berlin,6100101
8122194432,52.4709495,13.3280256,Kinder- und Schülerladen Milchzahn,Bundesallee 76,12161.0,Berlin,7300516
8143926006,52.4718964,13.3185831,Montessori-Kinderhaus im IBZ,Wiesbadener Straße 18,14197.0,Berlin,4400835
8167907869,52.5919626,13.4044709,Kita Sauseschritt,Dietzgenstraße 104,13158.0,Berlin,3200207
8176633041,52.4689308,13.3299392,Kita Rubin,Handjerystraße 60,12161.0,Berlin,7300516
8187032300,52.4696638,13.4357168,Kita Prinz Rose,Nogatstraße 45,12051.0,Berlin,8100208
8199219260,52.4700411,13.3207452,Schülerladen Große Pause,Schwalbacher Straße 7,12161.0,Berlin,7300516
8215826722,52.502615,13.388721,KiTa Trauminsel e.V. Nazareth,,,,2100102
8222417372,52.4669055,13.319136,Kindergarten Happy Kids,Kreuznacher Straße 9,14197.0,Berlin,6100103
8222836700,52.4687155,13.3265408,Schülerladen Eisbären,Odenwaldstraße 26,12161.0,Berlin,7300516
8223127055,52.4813021,13.3465303,Himpelchen & Pimpelchen,Koburger Straße 4,10825.0,Berlin,7200308
8240516925,52.5204869,13.3196886,Kita Aurorafalter,Dovestraße 3d,10587.0,Berlin,4300620
8286763684,52.4648862,13.5138867,Kita Spreekinder 1,Griechische Allee 1,12459.0,Berlin,9200511
8328526642,52.4979207,13.2997951,mi nido,,,,4500938
8354810259,52.4941825,13.5069902,Dolgensee Kids,,,,11401135
8444713355,52.5240554,13.4573638,KitaHausburg,Thaerstraße 28B,10249.0,Berlin,3601453
8513000507,52.5541064,13.3513152,Konsti e.V.,,,,1400939
8633086710,52.534004,13.5729459,"Kita ""Gartenkinder""",Irmfriedstraße 64,12683.0,Berlin,10300732
8744144593,52.4501946,13.3485249,Kita Tautropfen,Steglitzer Damm 69a,12169.0,Berlin,6100204
8761813239,52.4480638,13.3061017,Kita die kleinen Grünschnäbel III,,,,6300629
8803749963,52.641878,13.4899232,Baum und Borke,,,,3100101
8839649620,52.5010974,13.2969201,Oskar der Baum & seine Freunde,Joachim-Friedrich-Straße 29,10711.0,Berlin,4500937
8850856429,52.4236726,13.3951907,Kita Grashüpferchen,Mariendorfer Damm 336,12107.0,Berlin,7501135
8873228376,52.4767068,13.4394137,Musikkita Kleiner Fratz,Karl-Marx-Straße 145,12043.0,Berlin,8100416
8907862843,52.5857206,13.4023069,Kita Zitterbacke,,,,3200205
9003375272,52.536028,13.4256762,Netzwerkhort,Christburger Straße 7,10405.0,Berlin,3701658
9003418727,52.5355556,13.4256788,Hort im Gartenhaus,Winsstraße 49,10405.0,Berlin,3701658
9005327733,52.5592583,13.3848095,KiTa Kleine Wölkchen,,,,1300731
9032095847,52.526616,13.1840058,Kita Mondstern,Seeburger Straße 65,,,5200630
9047895780,52.6274748,13.5045691,Kita CampusSterne,Lindenberger Weg 74,13125.0,Berlin,3100103
9061043048,52.551644,13.4189748,Remmi Demmi,Greifenhagener Straße 29,10437.0,Berlin,3601243
9099183759,52.5414874,13.422291,KiBa,Raumerstraße 19,10437.0,Berlin,3601348
9116130907,52.4775867,13.4225075,Kita Hauptstadtracker,Herrfurthplatz 3,12049.0,Berlin,8100102
9163223306,52.5614794,13.3816004,Siebenschön,,,,1300731
9198286180,52.5549678,13.3774141,Der kleine Muck,,,,1401045
9215915528,52.4212839,13.5393365,Kita Krümel-Zwerge,,,,9300920
9215979085,52.419734,13.5385345,Evangelische Kita Altglienicke,,,,9300920
9288296134,52.4711972,13.4309561,Kunti Bunti,Jonasstraße 31,12053.0,Berlin,8100208
9335591748,52.5534696,13.4134009,Paradiesäpfel,,,,3601141
9363637478,52.5191002,13.4543109,Kita Salamander,Weidenweg 53,10247.0,Berlin,2500727
9379533629,52.5429077,13.3729287,Pankonauten,Ravenéstraße 10,13347.0,Berlin,1300836
9410449832,52.4894211,13.414765,Kinderladen Alles Banane,Graefestraße 39,10967.0,Berlin,2200212
9410449833,52.4885575,13.4140792,Kita Sonnenblümchen,Graefestraße 43,10967.0,Berlin,2200212
9428068764,52.5665208,13.4140069,Platanus Kita,,,,3400830
9431788883,52.5500384,13.4597913,Mikematze,Berliner Allee 110,13088.0,Berlin,3500936
9444695333,52.4848126,13.5224995,"Kita ""Dorothea""",Dorotheastraße 27,10318.0,Berlin,11501339
9448521219,52.540821,13.3704258,SpielRaum Reinickenufer,Reinickendorfer Straße 4,13347.0,Berlin,1300836
9461896968,52.5732996,13.3596456,Kita Resi,,,,12100103
9472528745,52.547554,13.3695056,Kita Ringelblume,Reinickendorfer Straße 32,13347.0,Berlin,1401044
9516260468,52.5480476,13.4542927,Kita Zauberschlüssel,Bizetstraße 53,13088.0,Berlin,3500936
9531153624,52.4539857,13.5168759,Junior 1 - KiTa im Fenngarten,Fennstraße 5-6,12439.0,Berlin,9200613
9534728392,52.5464452,13.4526054,Kinderladen Kleine Riesen,Borodinstraße 11,13088.0,Berlin,3500936
9547400048,52.4726688,13.3853501,Bonifatius Buchenblatt,Tempelhofer Damm 96,12101.0,Berlin,7400721
9558352261,52.4565252,13.3284946,Tagesgroßpflege Ilona Rensch & Katrin Hensel,Südendstraße 58,12169.0,Berlin,6100208
9560632315,52.5125572,13.3119212,Die Zauberflöten,Bismarckstraße 25,10625.0,Berlin,4300621
9631262548,52.4885921,13.3213488,Kita Raduga,Fechnerstraße 18,10717.0,Berlin,4501147
9631262549,52.488192,13.321453,Kinderladen Donnerbagger,Fechnerstraße 13,10717.0,Berlin,4501147
9632071025,52.4578724,13.3280658,Tagesgroßpflege Mäusegruppe,Bergstraße 5,12169.0,Berlin,6100208
9632536267,52.479425,13.4458064,freude Kindergärten,Roseggerstraße 13,12059.0,Berlin,8100418
9699881191,52.5087609,13.2964749,GeierBande,,,,4300416
9710898425,52.4521113,13.4388616,Matschmonster II,Pätzer Straße 17,12359.0,Berlin,8200726
9712104839,52.4538432,13.438448,Matschmonster I,Britzer Damm 101,12347.0,Berlin,8200623
9724639228,52.4936139,13.322029,lilolei,,,,4501044
9731085548,52.5604422,13.3805706,Freude Kindergarten Süd-Ost gGmbH,,,,1300731
9737024259,52.5109758,13.2834616,,,,,4200311
9737153784,52.5155013,13.3005291,KITA Kaiser-Friedrich-Straße,,,,4300414
9737161862,52.5141881,13.300778,,,,,4300414
9737172495,52.5135729,13.299601,Tagespflege Haus Zille,,,,4300414
9743301231,52.4177738,13.3664801,Naturdetektive Kita Marienfelder,Marienfelder Allee 102,12277.0,,7601236
9743470294,52.4655764,13.3885447,Kita Arielle 3,Alt-Tempelhof 5,12099.0,Berlin,7400927
9823308580,52.4402781,13.3894742,Kita Juniorplaneten,Alt-Mariendorf 25,12107.0,Berlin,7501134
