{"type": "FeatureCollection", "features": [{"type": "Feature", "geometry": {"type": "Point", "coordinates": [13.4721266, 52.515594]}, "properties": {"id": "282748367", "name": "Sweet Hands", "street": "Waldeyerstraße 7", "zip-code": 10247.0, "city": "Berlin", "planning-area-id": 2500729}}, {"type": "Feature", "geometry": {"type": "Point", "coordinates": [13.4357348, 52.5323311]}, "properties": {"id": "293225672", "name": "Rosa Canina", "street": "Pasteurstraße 32", "zip-code": 10407.0, "city": "Berlin", "planning-area-id": 3701660}}, {"type": "Feature", "geometry": {"type": "Point", "coordinates": [13.2938733, 52.4437443]}, "properties": {"id": "416076804", "name": "Gelatteria Vanilla", "street": "Knesebeckstraße 10", "zip-code": 12205.0, "city": "Berlin", "planning-area-id": 6300629}}, {"type": "Feature", "geometry": {"type": "Point", "coordinates": [13.3831738, 52.4900563]}, "properties": {"id": "482737289", "name": "Fior di Latte", "street": "", "zip-code": 10965.0, "city": "Berlin", "planning-area-id": 2200209}}, {"type": "Feature", "geometry": {"type": "Point", "coordinates": [13.3862658, 52.4914869]}, "properties": {"id": "482737290", "name": "vanille & marille Eismanufaktur", "street": "Hagelberger Straße 1", "zip-code": 10965.0, "city": "Berlin", "planning-area-id": 2200209}}, {"type": "Feature", "geometry": {"type": "Point", "coordinates": [13.4429169, 52.4992919]}, "properties": {"id": "615020649", "name": "Aldemir Eis", "street": "Falckensteinstraße 7", "zip-code": 10997.0, "city": "Berlin", "planning-area-id": 2300419}}, {"type": "Feature", "geometry": {"type": "Point", "coordinates": [13.2939042, 52.4745195]}, "properties": {"id": "664244067", "name": "Eis Da Dalt", "street": "Breite Straße 14A", "zip-code": 14199.0, "city": "Berlin", "planning-area-id": 4400832}}, {"type": "Feature", "geometry": {"type": "Point", "coordinates": [13.3605488, 52.4865601]}, "properties": {"id": "670658034", "name": "Don Gelato", "street": "", "zip-code": "", "city": "", "planning-area-id": 7200411}}, {"type": "Feature", "geometry": {"type": "Point", "coordinates": [13.3607729, 52.4945809]}, "properties": {"id": "670658039", "name": "Eis-Café Vannini", "street": "Potsdamer Straße 170-170b", "zip-code": 10783.0, "city": "Berlin", "planning-area-id": 7100103}}, {"type": "Feature", "geometry": {"type": "Point", "coordinates": [13.2929326, 52.4450623]}, "properties": {"id": "674432264", "name": "Artigiani", "street": "Unter den Eichen 95b", "zip-code": 12205.0, "city": "Berlin", "planning-area-id": 6300629}}, {"type": "Feature", "geometry": {"type": "Point", "coordinates": [13.5743639, 52.4450013]}, "properties": {"id": "735944492", "name": "Eisbar Friederici", "street": "Alt-Köpenick 33", "zip-code": 12555.0, "city": "Berlin", "planning-area-id": 9401534}}, {"type": "Feature", "geometry": {"type": "Point", "coordinates": [13.3596096, 52.4334723]}, "properties": {"id": "739991143", "name": "", "street": "", "zip-code": "", "city": "", "planning-area-id": 6200316}}, {"type": "Feature", "geometry": {"type": "Point", "coordinates": [13.3996999, 52.5807501]}, "properties": {"id": "746853085", "name": "Jacksons Ice Cream", "street": "", "zip-code": "", "city": "", "planning-area-id": 3200206}}, {"type": "Feature", "geometry": {"type": "Point", "coordinates": [13.401989, 52.587148]}, "properties": {"id": "747528359", "name": "Eiscafé Gelato degli Angeli", "street": "Dietzgenstraße 68", "zip-code": 13156.0, "city": "Berlin", "planning-area-id": 3200207}}, {"type": "Feature", "geometry": {"type": "Point", "coordinates": [13.4106207, 52.5699404]}, "properties": {"id": "753361477", "name": "Eisspatz", "street": "Berliner Straße 4", "zip-code": 13187.0, "city": "Berlin", "planning-area-id": 3400723}}, {"type": "Feature", "geometry": {"type": "Point", "coordinates": [13.4210527, 52.5374295]}, "properties": {"id": "773563718", "name": "Tribeca", "street": "Rykestraße 40", "zip-code": 10405.0, "city": "Berlin", "planning-area-id": 3701555}}, {"type": "Feature", "geometry": {"type": "Point", "coordinates": [13.3216253, 52.4581642]}, "properties": {"id": "775342946", "name": "Eis Da Dalt", "street": "", "zip-code": "", "city": "", "planning-area-id": 6100102}}, {"type": "Feature", "geometry": {"type": "Point", "coordinates": [13.3667613, 52.551954]}, "properties": {"id": "832835242", "name": "Eis & Back", "street": "", "zip-code": "", "city": "", "planning-area-id": 1401049}}, {"type": "Feature", "geometry": {"type": "Point", "coordinates": [13.4221348, 52.5417617]}, "properties": {"id": "833025100", "name": "Eislabor", "street": "Raumerstraße 32", "zip-code": 10437.0, "city": "Berlin", "planning-area-id": 3601348}}, {"type": "Feature", "geometry": {"type": "Point", "coordinates": [13.3939761, 52.4892469]}, "properties": {"id": "853810631", "name": "Bio Eissalon tanne B.", "street": "Marheinekeplatz 15", "zip-code": 10961.0, "city": "Berlin", "planning-area-id": 2200211}}, {"type": "Feature", "geometry": {"type": "Point", "coordinates": [13.2975913, 52.5114743]}, "properties": {"id": "860691104", "name": "Moono Frozen Yogurt Berlin", "street": "Schloßstraße 28", "zip-code": 14059.0, "city": "Berlin", "planning-area-id": 4300414}}, {"type": "Feature", "geometry": {"type": "Point", "coordinates": [13.4310567, 52.5010414]}, "properties": {"id": "864085678", "name": "Eissalon tanne B.", "street": "Eisenbahnstraße 48", "zip-code": "", "city": "", "planning-area-id": 2300315}}, {"type": "Feature", "geometry": {"type": "Point", "coordinates": [13.4373087, 52.4936851]}, "properties": {"id": "916563260", "name": "Five Elephant (Ice Scream)", "street": "Reichenberger Straße 104", "zip-code": 10999.0, "city": "Berlin", "planning-area-id": 2300418}}, {"type": "Feature", "geometry": {"type": "Point", "coordinates": [13.4112166, 52.5221389]}, "properties": {"id": "926359040", "name": "San Marco", "street": "", "zip-code": "", "city": "", "planning-area-id": 1100310}}, {"type": "Feature", "geometry": {"type": "Point", "coordinates": [13.4155388, 52.4944225]}, "properties": {"id": "977707412", "name": "Eiscafé Isabel", "street": "Böckhstraße 1", "zip-code": 10967.0, "city": "Berlin", "planning-area-id": 2200213}}, {"type": "Feature", "geometry": {"type": "Point", "coordinates": [13.2600032, 52.4348556]}, "properties": {"id": "1080870487", "name": "", "street": "", "zip-code": "", "city": "", "planning-area-id": 6300526}}, {"type": "Feature", "geometry": {"type": "Point", "coordinates": [13.3077236, 52.5173455]}, "properties": {"id": "1227247985", "name": "Faldon Eismanufaktur", "street": "Otto-Suhr-Allee 104", "zip-code": 10585.0, "city": "Berlin", "planning-area-id": 4300619}}, {"type": "Feature", "geometry": {"type": "Point", "coordinates": [13.2102847, 52.6068479]}, "properties": {"id": "1236954083", "name": "Eisinsel", "street": "", "zip-code": "", "city": "", "planning-area-id": 12400617}}, {"type": "Feature", "geometry": {"type": "Point", "coordinates": [13.3764124, 52.5103967]}, "properties": {"id": "1239737913", "name": "Häagen-Dazs", "street": "", "zip-code": "", "city": "", "planning-area-id": 1100102}}, {"type": "Feature", "geometry": {"type": "Point", "coordinates": [13.2781145, 52.5885432]}, "properties": {"id": "1252865192", "name": "Florida Eiscafé", "street": "", "zip-code": "", "city": "", "planning-area-id": 12200515}}, {"type": "Feature", "geometry": {"type": "Point", "coordinates": [13.4328743, 52.4998032]}, "properties": {"id": "1342682103", "name": "La Gelateria picola", "street": "", "zip-code": "", "city": "", "planning-area-id": 2300315}}, {"type": "Feature", "geometry": {"type": "Point", "coordinates": [13.4616423, 52.511115]}, "properties": {"id": "1374234250", "name": "EisPiraten", "street": "Grünberger Straße 85", "zip-code": 10245.0, "city": "Berlin", "planning-area-id": 2500833}}, {"type": "Feature", "geometry": {"type": "Point", "coordinates": [13.270978, 52.536846]}, "properties": {"id": "1418640423", "name": "Da Mauro", "street": "Nonnendammallee 89", "zip-code": 13629.0, "city": "Berlin", "planning-area-id": 5300841}}, {"type": "Feature", "geometry": {"type": "Point", "coordinates": [13.314186, 52.4643463]}, "properties": {"id": "1420714926", "name": "Eisfee", "street": "Forststraße 17", "zip-code": 12163.0, "city": "Berlin", "planning-area-id": 6100102}}, {"type": "Feature", "geometry": {"type": "Point", "coordinates": [13.411646, 52.5474135]}, "properties": {"id": "1544188668", "name": "Scrolls Garden", "street": "Gleimstraße 26", "zip-code": 10437.0, "city": "Berlin", "planning-area-id": 3601142}}, {"type": "Feature", "geometry": {"type": "Point", "coordinates": [13.3372932, 52.5267288]}, "properties": {"id": "1579564854", "name": "Gelateria Da Gianni", "street": "Turmstraße 35A", "zip-code": 10551.0, "city": "Berlin", "planning-area-id": 1200520}}, {"type": "Feature", "geometry": {"type": "Point", "coordinates": [13.5033722, 52.4554574]}, "properties": {"id": "1595959825", "name": "BioEisdiele", "street": "Südostallee 169", "zip-code": 12487.0, "city": "Berlin", "planning-area-id": 9100407}}, {"type": "Feature", "geometry": {"type": "Point", "coordinates": [13.2712876, 52.4379767]}, "properties": {"id": "1655132781", "name": "Eiscafe Frech", "street": "", "zip-code": "", "city": "", "planning-area-id": 6300527}}, {"type": "Feature", "geometry": {"type": "Point", "coordinates": [13.3089127, 52.506386]}, "properties": {"id": "1665206595", "name": "Eissalon Fiore di ciliegio", "street": "Kantstraße 117a", "zip-code": 10627.0, "city": "Berlin", "planning-area-id": 4300623}}, {"type": "Feature", "geometry": {"type": "Point", "coordinates": [13.2786473, 52.5883744]}, "properties": {"id": "1710136143", "name": "La Donna", "street": "Alt-Tegel 27", "zip-code": 13507.0, "city": "Berlin", "planning-area-id": 12200515}}, {"type": "Feature", "geometry": {"type": "Point", "coordinates": [13.4843935, 52.4636145]}, "properties": {"id": "1773561652", "name": "eiscafé MOINMOIN", "street": "Baumschulenstraße 74", "zip-code": 12437.0, "city": "Berlin", "planning-area-id": 9100304}}, {"type": "Feature", "geometry": {"type": "Point", "coordinates": [13.3793711, 52.5232348]}, "properties": {"id": "1839787343", "name": "Der Eisladen", "street": "Luisenstraße 14", "zip-code": 10117.0, "city": "Berlin", "planning-area-id": 1100308}}, {"type": "Feature", "geometry": {"type": "Point", "coordinates": [13.4776526, 52.5048146]}, "properties": {"id": "1846030173", "name": "SchokoLadenEis", "street": "Kaskelstraße 15", "zip-code": 10317.0, "city": "Berlin", "planning-area-id": 11400927}}, {"type": "Feature", "geometry": {"type": "Point", "coordinates": [13.3535138, 52.4872163]}, "properties": {"id": "1850625817", "name": "Vanille & Marille", "street": "Belziger Straße 24", "zip-code": 10823.0, "city": "Berlin", "planning-area-id": 7200409}}, {"type": "Feature", "geometry": {"type": "Point", "coordinates": [13.2892921, 52.6318563]}, "properties": {"id": "1950643808", "name": "Dolce Vita", "street": "Welfenallee 7", "zip-code": 13465.0, "city": "Berlin", "planning-area-id": 12400720}}, {"type": "Feature", "geometry": {"type": "Point", "coordinates": [13.4278083, 52.4845749]}, "properties": {"id": "1965271022", "name": "Prizreni", "street": "", "zip-code": "", "city": "", "planning-area-id": 8100206}}, {"type": "Feature", "geometry": {"type": "Point", "coordinates": [13.4212355, 52.4938875]}, "properties": {"id": "2018810746", "name": "Waffle 36", "street": "Kottbusser Damm 9", "zip-code": 10967.0, "city": "Berlin", "planning-area-id": 2200213}}, {"type": "Feature", "geometry": {"type": "Point", "coordinates": [13.4021071, 52.5242166]}, "properties": {"id": "2033283081", "name": "Canal", "street": "Rosenthaler Straße 40-41", "zip-code": 10178.0, "city": "Berlin", "planning-area-id": 1100309}}, {"type": "Feature", "geometry": {"type": "Point", "coordinates": [13.5713443, 52.5435849]}, "properties": {"id": "2136186734", "name": "Jannys Eis", "street": "Blumberger Damm 146", "zip-code": 12685.0, "city": "Berlin", "planning-area-id": 10100316}}, {"type": "Feature", "geometry": {"type": "Point", "coordinates": [13.4059926, 52.5407603]}, "properties": {"id": "2140736759", "name": "Pingolino", "street": "Eberswalder Straße 4", "zip-code": 10437.0, "city": "Berlin", "planning-area-id": 3701554}}, {"type": "Feature", "geometry": {"type": "Point", "coordinates": [13.4936564, 52.4195163]}, "properties": {"id": "2206272353", "name": "Da Dalt", "street": "", "zip-code": "", "city": "", "planning-area-id": 8401243}}, {"type": "Feature", "geometry": {"type": "Point", "coordinates": [13.3639425, 52.5500685]}, "properties": {"id": "2300052110", "name": "Spoonful Berlin", "street": "Maxstraße 11", "zip-code": 13347.0, "city": "Berlin", "planning-area-id": 1401049}}, {"type": "Feature", "geometry": {"type": "Point", "coordinates": [13.3870778, 52.5304151]}, "properties": {"id": "2309384558", "name": "Eismieze", "street": "Schlegelstraße 21", "zip-code": 10115.0, "city": "Berlin", "planning-area-id": 1100415}}, {"type": "Feature", "geometry": {"type": "Point", "coordinates": [13.572316, 52.4127058]}, "properties": {"id": "2328402490", "name": "Mokka-Milch-Eiscafé", "street": "Bruno-Taut-Straße 1", "zip-code": 12524.0, "city": "Berlin", "planning-area-id": 9301024}}, {"type": "Feature", "geometry": {"type": "Point", "coordinates": [13.4274772, 52.4882098]}, "properties": {"id": "2335250353", "name": "Eismanufaktur Spoonful", "street": "Weserstraße 6", "zip-code": 12047.0, "city": "Berlin", "planning-area-id": 8100311}}, {"type": "Feature", "geometry": {"type": "Point", "coordinates": [13.4200401, 52.4914615]}, "properties": {"id": "2400918123", "name": "", "street": "Schönleinstraße 11", "zip-code": 10967.0, "city": "Berlin", "planning-area-id": 2200213}}, {"type": "Feature", "geometry": {"type": "Point", "coordinates": [13.4594493, 52.5082288]}, "properties": {"id": "2438932665", "name": "Spoonful", "street": "Gärtnerstraße 33a", "zip-code": 10245.0, "city": "Berlin", "planning-area-id": 2500834}}, {"type": "Feature", "geometry": {"type": "Point", "coordinates": [13.3201033, 52.4851165]}, "properties": {"id": "2445454962", "name": "Eiscafé Monheim", "street": "Blissestraße 12", "zip-code": 10713.0, "city": "Berlin", "planning-area-id": 4501146}}, {"type": "Feature", "geometry": {"type": "Point", "coordinates": [13.3813245, 52.4585977]}, "properties": {"id": "2726147775", "name": "vanille & marille Eismanufaktur", "street": "Friedrich-Wilhelm-Straße 22", "zip-code": 12103.0, "city": "Berlin", "planning-area-id": 7400825}}, {"type": "Feature", "geometry": {"type": "Point", "coordinates": [13.392676, 52.5644458]}, "properties": {"id": "2756763433", "name": "Brivido Dolce", "street": "Wollankstraße 24", "zip-code": 13359.0, "city": "Berlin", "planning-area-id": 1300731}}, {"type": "Feature", "geometry": {"type": "Point", "coordinates": [13.4015321, 52.5237256]}, "properties": {"id": "2796753231", "name": "Amorino", "street": "", "zip-code": "", "city": "", "planning-area-id": 1100309}}, {"type": "Feature", "geometry": {"type": "Point", "coordinates": [13.2058596, 52.539786]}, "properties": {"id": "2824823225", "name": "Da Dalt", "street": "", "zip-code": "", "city": "", "planning-area-id": 5100316}}, {"type": "Feature", "geometry": {"type": "Point", "coordinates": [13.4211946, 52.4929606]}, "properties": {"id": "2852739952", "name": "Lido Eis", "street": "Böckhstraße 27", "zip-code": 10967.0, "city": "Berlin", "planning-area-id": 2200213}}, {"type": "Feature", "geometry": {"type": "Point", "coordinates": [13.3829946, 52.4927568]}, "properties": {"id": "2914461801", "name": "Schokolottchen", "street": "Großbeerenstraße 28d", "zip-code": "", "city": "", "planning-area-id": 2200209}}, {"type": "Feature", "geometry": {"type": "Point", "coordinates": [13.4158666, 52.5471962]}, "properties": {"id": "2930771507", "name": "Kleine Eiszeit", "street": "Stargarder Straße 7", "zip-code": 10437.0, "city": "Berlin", "planning-area-id": 3601346}}, {"type": "Feature", "geometry": {"type": "Point", "coordinates": [13.3070449, 52.6159525]}, "properties": {"id": "2936798208", "name": "Flamingo", "street": "Fellbacher Straße 28", "zip-code": 13467.0, "city": "Berlin", "planning-area-id": 12400722}}, {"type": "Feature", "geometry": {"type": "Point", "coordinates": [13.4212019, 52.4772145]}, "properties": {"id": "2947930990", "name": "Mos Eisley", "street": "Herrfurthplatz 6", "zip-code": 12049.0, "city": "Berlin", "planning-area-id": 8100102}}, {"type": "Feature", "geometry": {"type": "Point", "coordinates": [13.3643755, 52.5642818]}, "properties": {"id": "2953557790", "name": "Il Gelato Italiano", "street": "", "zip-code": "", "city": "", "planning-area-id": 12100101}}, {"type": "Feature", "geometry": {"type": "Point", "coordinates": [13.2080797, 52.5611805]}, "properties": {"id": "2969819044", "name": "Mr. Ice Cream", "street": "", "zip-code": "", "city": "", "planning-area-id": 5100105}}, {"type": "Feature", "geometry": {"type": "Point", "coordinates": [13.6880091, 52.441013]}, "properties": {"id": "3018856733", "name": "Eislounge \"Sonnenseite\"", "street": "Fürstenwalder Allee 26", "zip-code": 12589.0, "city": "Berlin", "planning-area-id": 9501838}}, {"type": "Feature", "geometry": {"type": "Point", "coordinates": [13.4177126, 52.5468535]}, "properties": {"id": "3055877735", "name": "Hokey Pokey", "street": "Stargarder Straße 72", "zip-code": 10437.0, "city": "Berlin", "planning-area-id": 3601346}}, {"type": "Feature", "geometry": {"type": "Point", "coordinates": [13.4869412, 52.6185146]}, "properties": {"id": "3150248629", "name": "Il Buon Gelato Marcon", "street": "Achillesstraße 46", "zip-code": 13125.0, "city": "Berlin", "planning-area-id": 3300411}}, {"type": "Feature", "geometry": {"type": "Point", "coordinates": [13.3439518, 52.4789989]}, "properties": {"id": "3161789870", "name": "Italy Eis", "street": "Innsbrucker Platz 4", "zip-code": 10827.0, "city": "Berlin", "planning-area-id": 7200308}}, {"type": "Feature", "geometry": {"type": "Point", "coordinates": [13.4125006, 52.5509189]}, "properties": {"id": "3265611317", "name": "Eiscafé Scutari", "street": "Schivelbeiner Straße 4", "zip-code": 10439.0, "city": "Berlin", "planning-area-id": 3601141}}, {"type": "Feature", "geometry": {"type": "Point", "coordinates": [13.3533896, 52.4904979]}, "properties": {"id": "3343103839", "name": "Jones Ice Cream", "street": "Goltzstraße 3", "zip-code": 10781.0, "city": "Berlin", "planning-area-id": 7100204}}, {"type": "Feature", "geometry": {"type": "Point", "coordinates": [13.3048601, 52.5125845]}, "properties": {"id": "3474035725", "name": "Il piccolo Castello del Gelato", "street": "", "zip-code": "", "city": "", "planning-area-id": 4300621}}, {"type": "Feature", "geometry": {"type": "Point", "coordinates": [13.4495406, 52.5529655]}, "properties": {"id": "3475661392", "name": "Eisspatz", "street": "Schönstraße 1", "zip-code": 13086.0, "city": "Berlin", "planning-area-id": 3500933}}, {"type": "Feature", "geometry": {"type": "Point", "coordinates": [13.3232663, 52.4539873]}, "properties": {"id": "3485840223", "name": "vanille & marille Eismanufaktur", "street": "Leydenallee 92", "zip-code": 12165.0, "city": "Berlin", "planning-area-id": 6100207}}, {"type": "Feature", "geometry": {"type": "Point", "coordinates": [13.5147481, 52.4551069]}, "properties": {"id": "3525559346", "name": "Eiskultur-Berlin", "street": "Schnellerstraße 118", "zip-code": 12439.0, "city": "Berlin", "planning-area-id": 9200613}}, {"type": "Feature", "geometry": {"type": "Point", "coordinates": [13.3219025, 52.5043673]}, "properties": {"id": "3530856517", "name": "Lottas Torten", "street": "", "zip-code": "", "city": "", "planning-area-id": 4501041}}, {"type": "Feature", "geometry": {"type": "Point", "coordinates": [13.3322474, 52.429866]}, "properties": {"id": "3670161819", "name": "Eis da Gianni", "street": "", "zip-code": 12209.0, "city": "Berlin", "planning-area-id": 6200422}}, {"type": "Feature", "geometry": {"type": "Point", "coordinates": [13.3297086, 52.5031852]}, "properties": {"id": "3676000349", "name": "Häagen-Dazs", "street": "Kurfürstendamm 224", "zip-code": 10719.0, "city": "Berlin", "planning-area-id": 4501042}}, {"type": "Feature", "geometry": {"type": "Point", "coordinates": [13.4182107, 52.4933445]}, "properties": {"id": "3736896887", "name": "LeckoMio", "street": "Graefestraße 80", "zip-code": 10967.0, "city": "Berlin", "planning-area-id": 2200213}}, {"type": "Feature", "geometry": {"type": "Point", "coordinates": [13.5822737, 52.4149389]}, "properties": {"id": "3751973159", "name": "Eiskonditorei Anett", "street": "Büxensteinallee 2", "zip-code": 12527.0, "city": "Berlin", "planning-area-id": 9301126}}, {"type": "Feature", "geometry": {"type": "Point", "coordinates": [13.3363886, 52.451371]}, "properties": {"id": "3755411239", "name": "Kunterbunt", "street": "Steglitzer Damm 5", "zip-code": 12169.0, "city": "Berlin", "planning-area-id": 6100208}}, {"type": "Feature", "geometry": {"type": "Point", "coordinates": [13.3815199, 52.4829803]}, "properties": {"id": "3755816789", "name": "Eisfee", "street": "", "zip-code": "", "city": "", "planning-area-id": 7400720}}, {"type": "Feature", "geometry": {"type": "Point", "coordinates": [13.3382322, 52.4316788]}, "properties": {"id": "3755992395", "name": "", "street": "", "zip-code": "", "city": "", "planning-area-id": 6200314}}, {"type": "Feature", "geometry": {"type": "Point", "coordinates": [13.3460572, 52.4313428]}, "properties": {"id": "3758497646", "name": "Fior di Latte", "street": "", "zip-code": "", "city": "", "planning-area-id": 6200315}}, {"type": "Feature", "geometry": {"type": "Point", "coordinates": [13.3845342, 52.4584272]}, "properties": {"id": "3758502759", "name": "Meyman", "street": "", "zip-code": "", "city": "", "planning-area-id": 7400927}}, {"type": "Feature", "geometry": {"type": "Point", "coordinates": [13.3309411, 52.4641299]}, "properties": {"id": "3758596090", "name": "Henrys", "street": "Schöneberger Straße 11", "zip-code": 12163.0, "city": "Berlin", "planning-area-id": 6100209}}, {"type": "Feature", "geometry": {"type": "Point", "coordinates": [13.5061723, 52.5643769]}, "properties": {"id": "3772667669", "name": "Eiskiosk", "street": "Prerower Platz 1", "zip-code": 13051.0, "city": "Berlin", "planning-area-id": 11100307}}, {"type": "Feature", "geometry": {"type": "Point", "coordinates": [13.4975918, 52.507925]}, "properties": {"id": "3780851157", "name": "Eis Kaffee", "street": "Margaretenstraße 27", "zip-code": 10317.0, "city": "Berlin", "planning-area-id": 11400929}}, {"type": "Feature", "geometry": {"type": "Point", "coordinates": [13.3888993, 52.4896774]}, "properties": {"id": "3782211408", "name": "Eiskimo", "street": "Bergmannstraße 5", "zip-code": 10961.0, "city": "Berlin", "planning-area-id": 2200211}}, {"type": "Feature", "geometry": {"type": "Point", "coordinates": [13.3538454, 52.4984224]}, "properties": {"id": "3826013973", "name": "Caffè e Gelato", "street": "Maaßenstraße 4", "zip-code": 10777.0, "city": "Berlin", "planning-area-id": 7100102}}, {"type": "Feature", "geometry": {"type": "Point", "coordinates": [13.3616237, 52.4975688]}, "properties": {"id": "3855567145", "name": "GioTU", "street": "Potsdamer Straße 144", "zip-code": 10783.0, "city": "Berlin", "planning-area-id": 7100103}}, {"type": "Feature", "geometry": {"type": "Point", "coordinates": [13.3077494, 52.5011928]}, "properties": {"id": "3862835072", "name": "Eis Schober", "street": "", "zip-code": "", "city": "", "planning-area-id": 4501040}}, {"type": "Feature", "geometry": {"type": "Point", "coordinates": [13.4081822, 52.5243114]}, "properties": {"id": "3895256385", "name": "Yoli", "street": "Münzstraße 11b", "zip-code": 10178.0, "city": "Berlin", "planning-area-id": 1100310}}, {"type": "Feature", "geometry": {"type": "Point", "coordinates": [13.4177261, 52.537866]}, "properties": {"id": "3900932271", "name": "Annamaria", "street": "", "zip-code": "", "city": "", "planning-area-id": 3701555}}, {"type": "Feature", "geometry": {"type": "Point", "coordinates": [13.3974529, 52.5289]}, "properties": {"id": "3902472793", "name": "Rosa Canina", "street": "Ackerstraße 174", "zip-code": 10115.0, "city": "Berlin", "planning-area-id": 1100309}}, {"type": "Feature", "geometry": {"type": "Point", "coordinates": [13.4020928, 52.5310465]}, "properties": {"id": "3937513962", "name": "Süße Sünde", "street": "Weinbergsweg 21", "zip-code": 10119.0, "city": "Berlin", "planning-area-id": 1100416}}, {"type": "Feature", "geometry": {"type": "Point", "coordinates": [13.3364637, 52.4722979]}, "properties": {"id": "3955630869", "name": "Kays Eis", "street": "Hauptstraße 80b", "zip-code": 12159.0, "city": "Berlin", "planning-area-id": 7300618}}, {"type": "Feature", "geometry": {"type": "Point", "coordinates": [13.4985499, 52.5163559]}, "properties": {"id": "3992174257", "name": "Lecker Eis", "street": "", "zip-code": "", "city": "", "planning-area-id": 11300725}}, {"type": "Feature", "geometry": {"type": "Point", "coordinates": [13.3707035, 52.5008179]}, "properties": {"id": "4108072816", "name": "Eisdiele am Gleisdreieck", "street": "Flottwellstraße 14", "zip-code": 10785.0, "city": "Berlin", "planning-area-id": 1100104}}, {"type": "Feature", "geometry": {"type": "Point", "coordinates": [13.4426607, 52.4740804]}, "properties": {"id": "4125128510", "name": "Eismanufaktur Spoonful", "street": "Karl-Marx-Platz 17", "zip-code": 12043.0, "city": "Berlin", "planning-area-id": 8100416}}, {"type": "Feature", "geometry": {"type": "Point", "coordinates": [13.3797281, 52.5099105]}, "properties": {"id": "4171763238", "name": "Al Teatro", "street": "Leipziger Platz 12", "zip-code": 10117.0, "city": "Berlin", "planning-area-id": 1100205}}, {"type": "Feature", "geometry": {"type": "Point", "coordinates": [13.523395, 52.4808335]}, "properties": {"id": "4181014748", "name": "Prinzeneis", "street": "", "zip-code": "", "city": "", "planning-area-id": 11501341}}, {"type": "Feature", "geometry": {"type": "Point", "coordinates": [13.3559201, 52.5202778]}, "properties": {"id": "4219261193", "name": "Flamingo Eis", "street": "", "zip-code": "", "city": "", "planning-area-id": 1200628}}, {"type": "Feature", "geometry": {"type": "Point", "coordinates": [13.3527416, 52.5503082]}, "properties": {"id": "4224268261", "name": "Mado", "street": "Müllerstraße 41", "zip-code": 13353.0, "city": "Berlin", "planning-area-id": 1401048}}, {"type": "Feature", "geometry": {"type": "Point", "coordinates": [13.3274713, 52.4285166]}, "properties": {"id": "4250016570", "name": "Lio Gelato", "street": "Kranoldplatz 4", "zip-code": 12209.0, "city": "Berlin", "planning-area-id": 6200422}}, {"type": "Feature", "geometry": {"type": "Point", "coordinates": [13.4064078, 52.5286891]}, "properties": {"id": "4261575771", "name": "Canal", "street": "Linienstraße 54", "zip-code": 10119.0, "city": "Berlin", "planning-area-id": 1100309}}, {"type": "Feature", "geometry": {"type": "Point", "coordinates": [13.4061717, 52.5397083]}, "properties": {"id": "4266662203", "name": "Hokey Pokey", "street": "Oderberger Straße 38", "zip-code": 10435.0, "city": "Berlin", "planning-area-id": 3701554}}, {"type": "Feature", "geometry": {"type": "Point", "coordinates": [13.3984353, 52.5069067]}, "properties": {"id": "4283150546", "name": "Kavlak Eismanufaktur", "street": "Oranienstraße 99", "zip-code": "", "city": "", "planning-area-id": 2100103}}, {"type": "Feature", "geometry": {"type": "Point", "coordinates": [13.4583645, 52.5108588]}, "properties": {"id": "4304351492", "name": "Balaram", "street": "Gabriel-Max-Straße 17", "zip-code": 10245.0, "city": "Berlin", "planning-area-id": 2500833}}, {"type": "Feature", "geometry": {"type": "Point", "coordinates": [13.4224826, 52.5386756]}, "properties": {"id": "4307136694", "name": "Giannis Eis", "street": "Rykestraße 26", "zip-code": 10405.0, "city": "Berlin", "planning-area-id": 3701555}}, {"type": "Feature", "geometry": {"type": "Point", "coordinates": [13.3886582, 52.5498235]}, "properties": {"id": "4317555793", "name": "Gelati Eiscafé", "street": "", "zip-code": "", "city": "", "planning-area-id": 1300733}}, {"type": "Feature", "geometry": {"type": "Point", "coordinates": [13.3563712, 52.4926651]}, "properties": {"id": "4346903425", "name": "Berlin Homemade Icecream", "street": "Elßholzstraße 10", "zip-code": 10781.0, "city": "Berlin", "planning-area-id": 7100204}}, {"type": "Feature", "geometry": {"type": "Point", "coordinates": [13.3040563, 52.506921]}, "properties": {"id": "4363623295", "name": "Frida Eis", "street": "", "zip-code": "", "city": "", "planning-area-id": 4300623}}, {"type": "Feature", "geometry": {"type": "Point", "coordinates": [13.4439199, 52.479556]}, "properties": {"id": "4381298285", "name": "Eis Delfino", "street": "", "zip-code": "", "city": "", "planning-area-id": 8100415}}, {"type": "Feature", "geometry": {"type": "Point", "coordinates": [13.3867781, 52.5310776]}, "properties": {"id": "4396230902", "name": "Plansche", "street": "Eichendorffstraße 13", "zip-code": "", "city": "", "planning-area-id": 1100415}}, {"type": "Feature", "geometry": {"type": "Point", "coordinates": [13.347578, 52.4853812]}, "properties": {"id": "4439295159", "name": "La Dolce Vita", "street": "Belziger Straße 60", "zip-code": 10823.0, "city": "Berlin", "planning-area-id": 7200409}}, {"type": "Feature", "geometry": {"type": "Point", "coordinates": [13.3270284, 52.5274032]}, "properties": {"id": "4452492201", "name": "El Reda sweets", "street": "Huttenstraße 69", "zip-code": 10553.0, "city": "Berlin", "planning-area-id": 1200518}}, {"type": "Feature", "geometry": {"type": "Point", "coordinates": [13.6240141, 52.4513127]}, "properties": {"id": "4470109189", "name": "esila eis", "street": "", "zip-code": "", "city": "", "planning-area-id": 9501737}}, {"type": "Feature", "geometry": {"type": "Point", "coordinates": [13.4046923, 52.3868079]}, "properties": {"id": "4665154495", "name": "Eisdiele", "street": "", "zip-code": "", "city": "", "planning-area-id": 7601544}}, {"type": "Feature", "geometry": {"type": "Point", "coordinates": [13.4865281, 52.4653676]}, "properties": {"id": "4712176333", "name": "Ruffys Waffel", "street": "Baumschulenstraße 88", "zip-code": 12437.0, "city": "Berlin", "planning-area-id": 9100304}}, {"type": "Feature", "geometry": {"type": "Point", "coordinates": [13.4033432, 52.5336996]}, "properties": {"id": "4716502089", "name": "Gelateria by la focacceria", "street": "Fehrbelliner Straße 24", "zip-code": 10119.0, "city": "Berlin", "planning-area-id": 1100416}}, {"type": "Feature", "geometry": {"type": "Point", "coordinates": [13.4694782, 52.506682]}, "properties": {"id": "4801247071", "name": "Green Scoop", "street": "Boxhagener Straße 71", "zip-code": 10245.0, "city": "Berlin", "planning-area-id": 2500832}}, {"type": "Feature", "geometry": {"type": "Point", "coordinates": [13.4079382, 52.5708897]}, "properties": {"id": "4834609477", "name": "Jannys", "street": "", "zip-code": "", "city": "", "planning-area-id": 3400722}}, {"type": "Feature", "geometry": {"type": "Point", "coordinates": [13.4964525, 52.5702021]}, "properties": {"id": "4844156523", "name": "Jannys Eis", "street": "Ribnitzer Straße 24", "zip-code": 13051.0, "city": "Berlin", "planning-area-id": 11100308}}, {"type": "Feature", "geometry": {"type": "Point", "coordinates": [13.387785, 52.4886883]}, "properties": {"id": "4906036043", "name": "Barletta-Eis GmbH", "street": "Am Tempelhofer Berg 6", "zip-code": 10965.0, "city": "Berlin", "planning-area-id": 2200211}}, {"type": "Feature", "geometry": {"type": "Point", "coordinates": [13.3049424, 52.6195049]}, "properties": {"id": "4929307956", "name": "ItalEis Faldon", "street": "Heinsestraße 54", "zip-code": 13467.0, "city": "Berlin", "planning-area-id": 12400722}}, {"type": "Feature", "geometry": {"type": "Point", "coordinates": [13.4110844, 52.4912235]}, "properties": {"id": "4948137827", "name": "Die Eismacher", "street": "Körtestraße 10", "zip-code": 10967.0, "city": "Berlin", "planning-area-id": 2200212}}, {"type": "Feature", "geometry": {"type": "Point", "coordinates": [13.440799, 52.501877]}, "properties": {"id": "4970066224", "name": "Zàgara", "street": "Köpenicker Straße 4", "zip-code": 10997.0, "city": "Berlin", "planning-area-id": 2300316}}, {"type": "Feature", "geometry": {"type": "Point", "coordinates": [13.4346598, 52.4985973]}, "properties": {"id": "4970352421", "name": "Kokomo", "street": "Görlitzer Straße 69", "zip-code": 10997.0, "city": "Berlin", "planning-area-id": 2300419}}, {"type": "Feature", "geometry": {"type": "Point", "coordinates": [13.4499505, 52.5111778]}, "properties": {"id": "4972445020", "name": "Milas Eis", "street": "Kopernikusstraße 35", "zip-code": 10243.0, "city": "Berlin", "planning-area-id": 2400624}}, {"type": "Feature", "geometry": {"type": "Point", "coordinates": [13.4201837, 52.4954747]}, "properties": {"id": "4985572545", "name": "Eis Azzura", "street": "", "zip-code": "", "city": "", "planning-area-id": 2200213}}, {"type": "Feature", "geometry": {"type": "Point", "coordinates": [13.4181886, 52.5361654]}, "properties": {"id": "5003699413", "name": "Cuffaro", "street": "", "zip-code": "", "city": "", "planning-area-id": 3701556}}, {"type": "Feature", "geometry": {"type": "Point", "coordinates": [13.3445875, 52.5202086]}, "properties": {"id": "5016747821", "name": "Eisteufelchen", "street": "Flensburger Straße 5", "zip-code": 10557.0, "city": "Berlin", "planning-area-id": 1200629}}, {"type": "Feature", "geometry": {"type": "Point", "coordinates": [13.3823354, 52.5526047]}, "properties": {"id": "5031751086", "name": "Eis-Cafe", "street": "", "zip-code": "", "city": "", "planning-area-id": 1300733}}, {"type": "Feature", "geometry": {"type": "Point", "coordinates": [13.2906087, 52.4983652]}, "properties": {"id": "5054068399", "name": "Scooby Doo", "street": "Georg-Wilhelm-Straße 4", "zip-code": 10711.0, "city": "Berlin", "planning-area-id": 4500937}}, {"type": "Feature", "geometry": {"type": "Point", "coordinates": [13.427763, 52.4923876]}, "properties": {"id": "5064111016", "name": "Fräulein Frost", "street": "", "zip-code": "", "city": "", "planning-area-id": 8100310}}, {"type": "Feature", "geometry": {"type": "Point", "coordinates": [13.4486312, 52.4732951]}, "properties": {"id": "5107966821", "name": "Eis de Rix", "street": "Böhmische Straße 48", "zip-code": 12055.0, "city": "Berlin", "planning-area-id": 8100416}}, {"type": "Feature", "geometry": {"type": "Point", "coordinates": [13.4243541, 52.5491379]}, "properties": {"id": "5126384317", "name": "Lieblings-Eis am Humannplatz", "street": "Erich-Weinert-Straße 64", "zip-code": 10439.0, "city": "Berlin", "planning-area-id": 3601244}}, {"type": "Feature", "geometry": {"type": "Point", "coordinates": [13.4216782, 52.5499352]}, "properties": {"id": "5126384318", "name": "Kult-Eis", "street": "Stahlheimer Straße 25", "zip-code": "", "city": "", "planning-area-id": 3601243}}, {"type": "Feature", "geometry": {"type": "Point", "coordinates": [13.4660296, 52.5051558]}, "properties": {"id": "5141152693", "name": "Royal Eisladen", "street": "Lenbachstraße 9", "zip-code": 10245.0, "city": "Berlin", "planning-area-id": 2500834}}, {"type": "Feature", "geometry": {"type": "Point", "coordinates": [13.4675028, 52.5158367]}, "properties": {"id": "5143411624", "name": "Sweet Vice", "street": "", "zip-code": "", "city": "", "planning-area-id": 2500728}}, {"type": "Feature", "geometry": {"type": "Point", "coordinates": [13.4249657, 52.499827]}, "properties": {"id": "5246874155", "name": "Eiscafé Rona", "street": "", "zip-code": "", "city": "", "planning-area-id": 2300315}}, {"type": "Feature", "geometry": {"type": "Point", "coordinates": [13.3018685, 52.4947018]}, "properties": {"id": "5400565642", "name": "Yalda Eiscafé", "street": "Cicerostraße 49b", "zip-code": 10709.0, "city": "Berlin", "planning-area-id": 4500939}}, {"type": "Feature", "geometry": {"type": "Point", "coordinates": [13.4432765, 52.5001099]}, "properties": {"id": "5489585152", "name": "vanille & marille", "street": "Schlesische Straße 7", "zip-code": 10997.0, "city": "Berlin", "planning-area-id": 2300419}}, {"type": "Feature", "geometry": {"type": "Point", "coordinates": [13.4003843, 52.5235406]}, "properties": {"id": "5512010606", "name": "Katchi", "street": "Oranienburger Straße 89", "zip-code": 10178.0, "city": "Berlin", "planning-area-id": 1100309}}, {"type": "Feature", "geometry": {"type": "Point", "coordinates": [13.4126863, 52.559474]}, "properties": {"id": "5554966313", "name": "Hokey Pokey", "street": "", "zip-code": "", "city": "", "planning-area-id": 3400826}}, {"type": "Feature", "geometry": {"type": "Point", "coordinates": [13.3406981, 52.4509791]}, "properties": {"id": "5565800012", "name": "Eis&Eis", "street": "", "zip-code": "", "city": "", "planning-area-id": 6100204}}, {"type": "Feature", "geometry": {"type": "Point", "coordinates": [13.4511068, 52.5083101]}, "properties": {"id": "5572048797", "name": "Degli Angeli", "street": "", "zip-code": "", "city": "", "planning-area-id": 2500834}}, {"type": "Feature", "geometry": {"type": "Point", "coordinates": [13.4187844, 52.4946459]}, "properties": {"id": "5635556723", "name": "Eismanufaktur Spoonful", "street": "", "zip-code": 10967.0, "city": "", "planning-area-id": 2200213}}, {"type": "Feature", "geometry": {"type": "Point", "coordinates": [13.3034996, 52.5173694]}, "properties": {"id": "5641329331", "name": "Eisfabrik Alan", "street": "Schustehrusstraße 18", "zip-code": 10585.0, "city": "Berlin", "planning-area-id": 4300621}}, {"type": "Feature", "geometry": {"type": "Point", "coordinates": [13.3581157, 52.488439]}, "properties": {"id": "5718697051", "name": "Helvam", "street": "Hauptstraße 11", "zip-code": 10827.0, "city": "Berlin", "planning-area-id": 7200409}}, {"type": "Feature", "geometry": {"type": "Point", "coordinates": [13.4038867, 52.5210821]}, "properties": {"id": "5726198088", "name": "Waffel oder Becher", "street": "Spandauer Straße 2", "zip-code": 10178.0, "city": "Berlin", "planning-area-id": 1100310}}, {"type": "Feature", "geometry": {"type": "Point", "coordinates": [13.435954, 52.4687792]}, "properties": {"id": "5759194725", "name": "Ilse Eins", "street": "Ilsestraße 1", "zip-code": 12051.0, "city": "Berlin", "planning-area-id": 8100208}}, {"type": "Feature", "geometry": {"type": "Point", "coordinates": [13.4334341, 52.4948115]}, "properties": {"id": "5771640014", "name": "Vanille & Marille", "street": "Reichenberger Straße 118", "zip-code": 10999.0, "city": "Berlin", "planning-area-id": 2300418}}, {"type": "Feature", "geometry": {"type": "Point", "coordinates": [13.2071514, 52.5382897]}, "properties": {"id": "5774792932", "name": "Natur Eis", "street": "", "zip-code": "", "city": "", "planning-area-id": 5100316}}, {"type": "Feature", "geometry": {"type": "Point", "coordinates": [13.4571691, 52.5106477]}, "properties": {"id": "5787555522", "name": "Delabuu Ice Cream", "street": "Krossener Straße 15", "zip-code": "", "city": "", "planning-area-id": 2500833}}, {"type": "Feature", "geometry": {"type": "Point", "coordinates": [13.4598364, 52.5083373]}, "properties": {"id": "5792477122", "name": "NaturEis", "street": "Gärtnerstraße 2", "zip-code": 10245.0, "city": "Berlin", "planning-area-id": 2500834}}, {"type": "Feature", "geometry": {"type": "Point", "coordinates": [13.6134379, 52.5093338]}, "properties": {"id": "5804485917", "name": "Daddys Eiscafé", "street": "Hönower Straße 53", "zip-code": 12623.0, "city": "Berlin", "planning-area-id": 10400939}}, {"type": "Feature", "geometry": {"type": "Point", "coordinates": [13.3212511, 52.570463]}, "properties": {"id": "5804765638", "name": "Die kleine Eisstation", "street": "", "zip-code": "", "city": "", "planning-area-id": 12200308}}, {"type": "Feature", "geometry": {"type": "Point", "coordinates": [13.3427052, 52.4672179]}, "properties": {"id": "5841685885", "name": "Fräulein Frost", "street": "Beckerstraße 4", "zip-code": 12157.0, "city": "Berlin", "planning-area-id": 7300619}}, {"type": "Feature", "geometry": {"type": "Point", "coordinates": [13.3440185, 52.526673]}, "properties": {"id": "5844370762", "name": "Al Teatro", "street": "", "zip-code": "", "city": "Berlin", "planning-area-id": 1200625}}, {"type": "Feature", "geometry": {"type": "Point", "coordinates": [13.3944108, 52.4892682]}, "properties": {"id": "5849339561", "name": "", "street": "", "zip-code": "", "city": "", "planning-area-id": 2200211}}, {"type": "Feature", "geometry": {"type": "Point", "coordinates": [13.4233618, 52.5320168]}, "properties": {"id": "5886792723", "name": "Early Bird", "street": "Winsstraße 68", "zip-code": "", "city": "", "planning-area-id": 3701659}}, {"type": "Feature", "geometry": {"type": "Point", "coordinates": [13.3350398, 52.4722616]}, "properties": {"id": "5938829122", "name": "Eis Boutique", "street": "Lauterstraße 14-15", "zip-code": 12159.0, "city": "Berlin", "planning-area-id": 7300517}}, {"type": "Feature", "geometry": {"type": "Point", "coordinates": [13.4457536, 52.5062306]}, "properties": {"id": "6032523106", "name": "La Luna", "street": "", "zip-code": "", "city": "", "planning-area-id": 2400625}}, {"type": "Feature", "geometry": {"type": "Point", "coordinates": [13.443258, 52.5052111]}, "properties": {"id": "6103423927", "name": "Häagen-Dazs", "street": "", "zip-code": "", "city": "", "planning-area-id": 2400625}}, {"type": "Feature", "geometry": {"type": "Point", "coordinates": [13.3350453, 52.4717852]}, "properties": {"id": "6124870726", "name": "Eisfreunde", "street": "Lauterstraße 17-18", "zip-code": 12159.0, "city": "Berlin", "planning-area-id": 7300517}}, {"type": "Feature", "geometry": {"type": "Point", "coordinates": [13.4009551, 52.5225944]}, "properties": {"id": "6222861256", "name": "Frozen Toppi", "street": "Neue Promenade 8", "zip-code": "", "city": "", "planning-area-id": 1100309}}, {"type": "Feature", "geometry": {"type": "Point", "coordinates": [13.4387155, 52.5006389]}, "properties": {"id": "6353110784", "name": "Duo", "street": "Skalitzer Straße 82", "zip-code": 10997.0, "city": "Berlin", "planning-area-id": 2300316}}, {"type": "Feature", "geometry": {"type": "Point", "coordinates": [13.4634815, 52.5150522]}, "properties": {"id": "6414817068", "name": "Softeis", "street": "Frankfurter Allee 45", "zip-code": 10247.0, "city": "Berlin", "planning-area-id": 2500728}}, {"type": "Feature", "geometry": {"type": "Point", "coordinates": [13.319936, 52.5086537]}, "properties": {"id": "6415204947", "name": "Katchi Ice Cream Art", "street": "Grolmanstraße 14A", "zip-code": 10623.0, "city": "Berlin", "planning-area-id": 4300624}}, {"type": "Feature", "geometry": {"type": "Point", "coordinates": [13.409045, 52.5471768]}, "properties": {"id": "6483857785", "name": "Kult Eis", "street": "Gleimstraße 18", "zip-code": 10437.0, "city": "Berlin", "planning-area-id": 3601142}}, {"type": "Feature", "geometry": {"type": "Point", "coordinates": [13.305841, 52.5101016]}, "properties": {"id": "6489460044", "name": "Gelato Barik", "street": "Wilmersdorfer Straße 128", "zip-code": 10627.0, "city": "Berlin", "planning-area-id": 4300623}}, {"type": "Feature", "geometry": {"type": "Point", "coordinates": [13.4037592, 52.5469626]}, "properties": {"id": "6502216509", "name": "Cholila", "street": "", "zip-code": "", "city": "", "planning-area-id": 3601142}}, {"type": "Feature", "geometry": {"type": "Point", "coordinates": [13.4532057, 52.5207009]}, "properties": {"id": "6529305707", "name": "Eisklecks", "street": "Mühsamstraße 64", "zip-code": 10249.0, "city": "Berlin", "planning-area-id": 2500726}}, {"type": "Feature", "geometry": {"type": "Point", "coordinates": [13.4917781, 52.5435365]}, "properties": {"id": "6542773866", "name": "Eiscafe Heidi", "street": "Konrad-Wolf-Straße 111", "zip-code": 13055.0, "city": "Berlin", "planning-area-id": 11200513}}, {"type": "Feature", "geometry": {"type": "Point", "coordinates": [13.304968, 52.5096076]}, "properties": {"id": "6563578427", "name": "Oak & Ice", "street": "", "zip-code": "", "city": "Berlin", "planning-area-id": 4300623}}, {"type": "Feature", "geometry": {"type": "Point", "coordinates": [13.4652854, 52.4932058]}, "properties": {"id": "6564695283", "name": "Gelateria Italiana da Roberto", "street": "", "zip-code": "", "city": "", "planning-area-id": 9100101}}, {"type": "Feature", "geometry": {"type": "Point", "coordinates": [13.3500328, 52.4982311]}, "properties": {"id": "6584677090", "name": "Vanille & Marille Eismanufaktur", "street": "", "zip-code": "", "city": "", "planning-area-id": 7100102}}, {"type": "Feature", "geometry": {"type": "Point", "coordinates": [13.4024212, 52.5393605]}, "properties": {"id": "6654940879", "name": "Cookies and Cream", "street": "Kremmener Straße 8", "zip-code": 10435.0, "city": "Berlin", "planning-area-id": 1100416}}, {"type": "Feature", "geometry": {"type": "Point", "coordinates": [13.3610336, 52.5450803]}, "properties": {"id": "6712455233", "name": "Ital Eis", "street": "Müllerstraße 156D", "zip-code": "", "city": "", "planning-area-id": 1401047}}, {"type": "Feature", "geometry": {"type": "Point", "coordinates": [13.3914094, 52.511944]}, "properties": {"id": "6715513382", "name": "Rausch Eis", "street": "", "zip-code": "", "city": "", "planning-area-id": 1100207}}, {"type": "Feature", "geometry": {"type": "Point", "coordinates": [13.5141626, 52.462872]}, "properties": {"id": "6763564336", "name": "Marina macht Eis", "street": "Edisonstraße 10", "zip-code": 12459.0, "city": "Berlin", "planning-area-id": 9200511}}, {"type": "Feature", "geometry": {"type": "Point", "coordinates": [13.3555933, 52.4866951]}, "properties": {"id": "6775394311", "name": "Eisfee", "street": "Akazienstraße 3a", "zip-code": 10823.0, "city": "Berlin", "planning-area-id": 7200409}}, {"type": "Feature", "geometry": {"type": "Point", "coordinates": [13.3318555, 52.4263217]}, "properties": {"id": "6816563937", "name": "Eismanufaktur", "street": "", "zip-code": "", "city": "", "planning-area-id": 6200422}}, {"type": "Feature", "geometry": {"type": "Point", "coordinates": [13.6247254, 52.4531884]}, "properties": {"id": "6989302451", "name": "Italienisches Eis Da Dalt", "street": "Bölschestraße 94", "zip-code": 12587.0, "city": "Berlin", "planning-area-id": 9501737}}, {"type": "Feature", "geometry": {"type": "Point", "coordinates": [13.4233851, 52.4773629]}, "properties": {"id": "7036442808", "name": "NiceCream", "street": "Herrfurthstraße 8", "zip-code": 12049.0, "city": "Berlin", "planning-area-id": 8100102}}, {"type": "Feature", "geometry": {"type": "Point", "coordinates": [13.3793459, 52.4935011]}, "properties": {"id": "7106654377", "name": "Eisdreieck", "street": "", "zip-code": 10963.0, "city": "Berlin", "planning-area-id": 2200207}}, {"type": "Feature", "geometry": {"type": "Point", "coordinates": [13.3135251, 52.502408]}, "properties": {"id": "7200716749", "name": "Klassens Eis", "street": "", "zip-code": "", "city": "", "planning-area-id": 4501041}}, {"type": "Feature", "geometry": {"type": "Point", "coordinates": [13.4424886, 52.5434738]}, "properties": {"id": "7233554335", "name": "Il Centro", "street": "Greifswalder Straße 90", "zip-code": 10409.0, "city": "Berlin", "planning-area-id": 3601449}}, {"type": "Feature", "geometry": {"type": "Point", "coordinates": [13.4181937, 52.5438473]}, "properties": {"id": "7292274681", "name": "Gelato alla Grande", "street": "Lettestraße 10", "zip-code": 10437.0, "city": "Berlin", "planning-area-id": 3601347}}, {"type": "Feature", "geometry": {"type": "Point", "coordinates": [13.2940213, 52.5119579]}, "properties": {"id": "7294910505", "name": "Gimme Gelato", "street": "Wundtstraße 15", "zip-code": 14059.0, "city": "Berlin", "planning-area-id": 4300414}}, {"type": "Feature", "geometry": {"type": "Point", "coordinates": [13.417861, 52.5429249]}, "properties": {"id": "7308454310", "name": "Rosa Canina", "street": "Raumerstraße 8", "zip-code": 10437.0, "city": "Berlin", "planning-area-id": 3601347}}, {"type": "Feature", "geometry": {"type": "Point", "coordinates": [13.4219814, 52.5435859]}, "properties": {"id": "7345834490", "name": "Ludo", "street": "Dunckerstraße 18", "zip-code": 10437.0, "city": "Berlin", "planning-area-id": 3601348}}, {"type": "Feature", "geometry": {"type": "Point", "coordinates": [13.5068402, 52.4928796]}, "properties": {"id": "7398388375", "name": "Fabbrica del Gelato Marco Polo", "street": "", "zip-code": "", "city": "", "planning-area-id": 11401135}}, {"type": "Feature", "geometry": {"type": "Point", "coordinates": [13.3321379, 52.4688424]}, "properties": {"id": "7680001266", "name": "Eis Gourmet", "street": "Rheinstraße 19", "zip-code": 12161.0, "city": "Berlin", "planning-area-id": 7300516}}, {"type": "Feature", "geometry": {"type": "Point", "coordinates": [13.2166393, 52.4387245]}, "properties": {"id": "7744836617", "name": "Artigiani", "street": "Matterhornstraße 52", "zip-code": 14129.0, "city": "Berlin", "planning-area-id": 6400838}}, {"type": "Feature", "geometry": {"type": "Point", "coordinates": [13.3840923, 52.5920154]}, "properties": {"id": "7747008740", "name": "I Due Fratelli", "street": "Friedrich-Engels-Straße 134", "zip-code": 13158.0, "city": "Berlin", "planning-area-id": 3400618}}, {"type": "Feature", "geometry": {"type": "Point", "coordinates": [13.3494947, 52.406583]}, "properties": {"id": "7822822027", "name": "Eiscafé Kunterbunt", "street": "", "zip-code": "", "city": "", "planning-area-id": 7601341}}, {"type": "Feature", "geometry": {"type": "Point", "coordinates": [13.3170849, 52.6166468]}, "properties": {"id": "7876639901", "name": "Pizzeria & Gelateria da Massimo", "street": "Berliner Straße 22", "zip-code": 13467.0, "city": "Berlin", "planning-area-id": 12400723}}, {"type": "Feature", "geometry": {"type": "Point", "coordinates": [13.2994463, 52.5053319]}, "properties": {"id": "7947855086", "name": "Moono", "street": "Windscheidstraße 19", "zip-code": 10627.0, "city": "Berlin", "planning-area-id": 4300416}}, {"type": "Feature", "geometry": {"type": "Point", "coordinates": [13.1478891, 52.4517488]}, "properties": {"id": "7962054892", "name": "eiskrem Hausgemacht", "street": "", "zip-code": "", "city": "", "planning-area-id": 5400944}}, {"type": "Feature", "geometry": {"type": "Point", "coordinates": [13.4302972, 52.4880026]}, "properties": {"id": "7963851851", "name": "Blin Blin", "street": "Weserstraße 206", "zip-code": 12047.0, "city": "Berlin", "planning-area-id": 8100311}}, {"type": "Feature", "geometry": {"type": "Point", "coordinates": [13.4028228, 52.5411673]}, "properties": {"id": "8021129285", "name": "shaveiceberlin", "street": "Bernauer Straße 52", "zip-code": 13355.0, "city": "Berlin", "planning-area-id": 3601142}}, {"type": "Feature", "geometry": {"type": "Point", "coordinates": [13.3461303, 52.4677064]}, "properties": {"id": "8072617749", "name": "One Season", "street": "", "zip-code": "", "city": "", "planning-area-id": 7300619}}, {"type": "Feature", "geometry": {"type": "Point", "coordinates": [13.3203362, 52.4573133]}, "properties": {"id": "8120989360", "name": "al teatro", "street": "", "zip-code": "", "city": "", "planning-area-id": 6100102}}, {"type": "Feature", "geometry": {"type": "Point", "coordinates": [13.465678, 52.4930801]}, "properties": {"id": "8128324269", "name": "Slush Eis", "street": "", "zip-code": "", "city": "", "planning-area-id": 9100101}}, {"type": "Feature", "geometry": {"type": "Point", "coordinates": [13.4656247, 52.4930927]}, "properties": {"id": "8128324869", "name": "Slush Eis", "street": "", "zip-code": "", "city": "", "planning-area-id": 9100101}}, {"type": "Feature", "geometry": {"type": "Point", "coordinates": [13.2411036, 52.4425215]}, "properties": {"id": "8462378921", "name": "Eis Faldon", "street": "Fischerhüttenstraße 83a", "zip-code": 14163.0, "city": "Berlin", "planning-area-id": 6400839}}, {"type": "Feature", "geometry": {"type": "Point", "coordinates": [13.4957909, 52.5699488]}, "properties": {"id": "8463977952", "name": "Eisdealer im RiZ", "street": "Ribnitzer Straße 24", "zip-code": 13051.0, "city": "Berlin", "planning-area-id": 11100308}}, {"type": "Feature", "geometry": {"type": "Point", "coordinates": [13.33766, 52.5078968]}, "properties": {"id": "8508597570", "name": "", "street": "", "zip-code": "", "city": "", "planning-area-id": 1100102}}, {"type": "Feature", "geometry": {"type": "Point", "coordinates": [13.4385821, 52.4518292]}, "properties": {"id": "8586851117", "name": "Gelateria La Spada", "street": "", "zip-code": "", "city": "", "planning-area-id": 8200726}}, {"type": "Feature", "geometry": {"type": "Point", "coordinates": [13.3346067, 52.5894947]}, "properties": {"id": "8664189189", "name": "Dolce Gelato", "street": "Alt-Wittenau 86", "zip-code": 13437.0, "city": "Berlin", "planning-area-id": 12500926}}, {"type": "Feature", "geometry": {"type": "Point", "coordinates": [13.352132, 52.4851331]}, "properties": {"id": "8691573558", "name": "Barletta-Eis", "street": "Eisenacher Straße 59", "zip-code": 10823.0, "city": "Berlin", "planning-area-id": 7200409}}, {"type": "Feature", "geometry": {"type": "Point", "coordinates": [13.3402588, 52.4855068]}, "properties": {"id": "8691573574", "name": "Gelateria Marino Eiscafé", "street": "Badensche Straße 55", "zip-code": 10825.0, "city": "Berlin", "planning-area-id": 7200308}}, {"type": "Feature", "geometry": {"type": "Point", "coordinates": [13.5803211, 52.4179118]}, "properties": {"id": "8711623668", "name": "Soft-Eisladen", "street": "Regattastraße 121", "zip-code": 12527.0, "city": "Berlin", "planning-area-id": 9301126}}, {"type": "Feature", "geometry": {"type": "Point", "coordinates": [13.2068914, 52.5367135]}, "properties": {"id": "8761479658", "name": "Eiscafé am Ufer", "street": "Lindenufer 17", "zip-code": "", "city": "", "planning-area-id": 5100316}}, {"type": "Feature", "geometry": {"type": "Point", "coordinates": [13.3068522, 52.4469867]}, "properties": {"id": "8778909754", "name": "Kunterbunt", "street": "Gardeschützenweg 66", "zip-code": "", "city": "", "planning-area-id": 6300633}}, {"type": "Feature", "geometry": {"type": "Point", "coordinates": [13.4357781, 52.4807449]}, "properties": {"id": "8801414017", "name": "Ital. Eis Dadalt", "street": "", "zip-code": "", "city": "", "planning-area-id": 8100415}}, {"type": "Feature", "geometry": {"type": "Point", "coordinates": [13.434794, 52.5294386]}, "properties": {"id": "8847848779", "name": "Eismanufaktur Il Gelataio", "street": "", "zip-code": "", "city": "", "planning-area-id": 3701660}}, {"type": "Feature", "geometry": {"type": "Point", "coordinates": [13.4095775, 52.4793386]}, "properties": {"id": "8849993891", "name": "Gimme Gelato", "street": "", "zip-code": "", "city": "", "planning-area-id": 8100102}}, {"type": "Feature", "geometry": {"type": "Point", "coordinates": [13.3583612, 52.5741253]}, "properties": {"id": "8853469884", "name": "Geheimwaffel", "street": "", "zip-code": "", "city": "", "planning-area-id": 12100205}}, {"type": "Feature", "geometry": {"type": "Point", "coordinates": [13.1401933, 52.452394]}, "properties": {"id": "8869788017", "name": "Eiscafé Marta", "street": "Sakrower Landstraße 23", "zip-code": 14089.0, "city": "", "planning-area-id": 5400945}}, {"type": "Feature", "geometry": {"type": "Point", "coordinates": [13.3793435, 52.4935677]}, "properties": {"id": "8916909335", "name": "IL Triangolo", "street": "", "zip-code": "", "city": "", "planning-area-id": 2200207}}, {"type": "Feature", "geometry": {"type": "Point", "coordinates": [13.3797992, 52.493803]}, "properties": {"id": "8916909337", "name": "Monchi Eis", "street": "", "zip-code": "", "city": "", "planning-area-id": 2200208}}, {"type": "Feature", "geometry": {"type": "Point", "coordinates": [13.324739, 52.4279634]}, "properties": {"id": "8918983517", "name": "Berg & Tal", "street": "", "zip-code": "", "city": "", "planning-area-id": 6200421}}, {"type": "Feature", "geometry": {"type": "Point", "coordinates": [13.2988946, 52.4727431]}, "properties": {"id": "8933232389", "name": "La Bottega del Gelato", "street": "Zoppoter Straße 3", "zip-code": 14199.0, "city": "Berlin", "planning-area-id": 4400832}}, {"type": "Feature", "geometry": {"type": "Point", "coordinates": [13.3074144, 52.5049441]}, "properties": {"id": "8936271543", "name": "Eis König", "street": "", "zip-code": "", "city": "", "planning-area-id": 4501040}}, {"type": "Feature", "geometry": {"type": "Point", "coordinates": [13.4691021, 52.5126258]}, "properties": {"id": "8950919453", "name": "Tante Karla", "street": "", "zip-code": "", "city": "", "planning-area-id": 2500831}}, {"type": "Feature", "geometry": {"type": "Point", "coordinates": [13.3868647, 52.4898715]}, "properties": {"id": "8972746883", "name": "Blumen Eiscafé", "street": "", "zip-code": "", "city": "", "planning-area-id": 2200211}}, {"type": "Feature", "geometry": {"type": "Point", "coordinates": [13.4301397, 52.5179287]}, "properties": {"id": "9005350952", "name": "Eiscafé Il Viale", "street": "", "zip-code": "", "city": "", "planning-area-id": 2400623}}, {"type": "Feature", "geometry": {"type": "Point", "coordinates": [13.4398603, 52.5008091]}, "properties": {"id": "9043430528", "name": "Duo Sicilian Food Shop", "street": "", "zip-code": "", "city": "", "planning-area-id": 2300316}}, {"type": "Feature", "geometry": {"type": "Point", "coordinates": [13.3089188, 52.4311961]}, "properties": {"id": "9055130538", "name": "Fragola", "street": "", "zip-code": "", "city": "", "planning-area-id": 6300632}}, {"type": "Feature", "geometry": {"type": "Point", "coordinates": [13.4540738, 52.5488077]}, "properties": {"id": "9074024198", "name": "Jannys Eis", "street": "Berliner Allee 60", "zip-code": 13088.0, "city": "Berlin", "planning-area-id": 3500936}}, {"type": "Feature", "geometry": {"type": "Point", "coordinates": [13.2934872, 52.517426]}, "properties": {"id": "9074855334", "name": "Lumia", "street": "", "zip-code": "", "city": "", "planning-area-id": 4300413}}, {"type": "Feature", "geometry": {"type": "Point", "coordinates": [13.3285741, 52.4543716]}, "properties": {"id": "9080881736", "name": "Ice Dream", "street": "", "zip-code": "", "city": "", "planning-area-id": 6100208}}, {"type": "Feature", "geometry": {"type": "Point", "coordinates": [13.4997846, 52.5154579]}, "properties": {"id": "9095176125", "name": "Wolke 7 Eiscafé", "street": "Rüdigerstraße 46", "zip-code": 10365.0, "city": "Berlin", "planning-area-id": 11300725}}, {"type": "Feature", "geometry": {"type": "Point", "coordinates": [13.3848727, 52.4983534]}, "properties": {"id": "9124047779", "name": "agiori Eis", "street": "", "zip-code": "", "city": "", "planning-area-id": 2200208}}, {"type": "Feature", "geometry": {"type": "Point", "coordinates": [13.3785684, 52.5534109]}, "properties": {"id": "9124518721", "name": "Cafe Luise", "street": "", "zip-code": "", "city": "", "planning-area-id": 1401045}}, {"type": "Feature", "geometry": {"type": "Point", "coordinates": [13.2594724, 52.428858]}, "properties": {"id": "9143588313", "name": "Eiscafé Korfu", "street": "Teltower Damm 54", "zip-code": 14167.0, "city": "Berlin", "planning-area-id": 6300528}}, {"type": "Feature", "geometry": {"type": "Point", "coordinates": [13.591292, 52.5456438]}, "properties": {"id": "9183000760", "name": "Timmys Eis", "street": "", "zip-code": "", "city": "", "planning-area-id": 10200417}}, {"type": "Feature", "geometry": {"type": "Point", "coordinates": [13.4525181, 52.5131962]}, "properties": {"id": "9215009717", "name": "Chipi Chipi Bombón", "street": "Warschauer Straße 12", "zip-code": 10243.0, "city": "Berlin", "planning-area-id": 2400624}}, {"type": "Feature", "geometry": {"type": "Point", "coordinates": [13.2809185, 52.5893265]}, "properties": {"id": "9271868177", "name": "Ital. Eis R & P", "street": "", "zip-code": "", "city": "", "planning-area-id": 12200515}}, {"type": "Feature", "geometry": {"type": "Point", "coordinates": [13.4027943, 52.5652422]}, "properties": {"id": "9391870288", "name": "Alphis Eis", "street": "Heynstraße 33", "zip-code": 13187.0, "city": "Berlin", "planning-area-id": 3400721}}, {"type": "Feature", "geometry": {"type": "Point", "coordinates": [13.4628606, 52.5495453]}, "properties": {"id": "9405031233", "name": "Heiß & Eis", "street": "Lindenallee 55", "zip-code": 13088.0, "city": "Berlin", "planning-area-id": 3500936}}, {"type": "Feature", "geometry": {"type": "Point", "coordinates": [13.5912402, 52.5455818]}, "properties": {"id": "9455750028", "name": "Timmys Eis", "street": "", "zip-code": "", "city": "", "planning-area-id": 10200417}}, {"type": "Feature", "geometry": {"type": "Point", "coordinates": [13.362285, 52.5683836]}, "properties": {"id": "9461868215", "name": "Dream Eiscafe", "street": "", "zip-code": "", "city": "", "planning-area-id": 12100103}}, {"type": "Feature", "geometry": {"type": "Point", "coordinates": [13.3277239, 52.4655174]}, "properties": {"id": "9500966683", "name": "ital. Eis di Russillo", "street": "", "zip-code": "", "city": "", "planning-area-id": 7300516}}, {"type": "Feature", "geometry": {"type": "Point", "coordinates": [13.3199904, 52.4974566]}, "properties": {"id": "9505675856", "name": "Gelateria Mamma Laura", "street": "", "zip-code": "", "city": "", "planning-area-id": 4501044}}, {"type": "Feature", "geometry": {"type": "Point", "coordinates": [13.4923221, 52.535744]}, "properties": {"id": "9556212664", "name": "Rodi Eis", "street": "", "zip-code": "", "city": "", "planning-area-id": 11200514}}, {"type": "Feature", "geometry": {"type": "Point", "coordinates": [13.4120361, 52.4912399]}, "properties": {"id": "9586761908", "name": "Chunks by KoRo", "street": "", "zip-code": "", "city": "", "planning-area-id": 2200212}}, {"type": "Feature", "geometry": {"type": "Point", "coordinates": [13.384415, 52.5296954]}, "properties": {"id": "9595072749", "name": "Gelateria Italy", "street": "Chausseestraße 16", "zip-code": "", "city": "", "planning-area-id": 1100415}}, {"type": "Feature", "geometry": {"type": "Point", "coordinates": [13.3200112, 52.4893014]}, "properties": {"id": "9631262546", "name": "Berliner Eisbär", "street": "Fechnerstraße 30", "zip-code": 10717.0, "city": "Berlin", "planning-area-id": 4501147}}, {"type": "Feature", "geometry": {"type": "Point", "coordinates": [13.3326451, 52.4527257]}, "properties": {"id": "9656212596", "name": "Eismanufaktur Nizario", "street": "", "zip-code": "", "city": "", "planning-area-id": 6100208}}, {"type": "Feature", "geometry": {"type": "Point", "coordinates": [13.5871708, 52.5218365]}, "properties": {"id": "9667433771", "name": "Eiscafé Alberts", "street": "Hellersdorfer Straße 77", "zip-code": 12619.0, "city": "Berlin", "planning-area-id": 10200629}}, {"type": "Feature", "geometry": {"type": "Point", "coordinates": [13.3988722, 52.5296396]}, "properties": {"id": "9685479614", "name": "Hokey Pokey", "street": "Torstraße 141", "zip-code": 10119.0, "city": "Berlin", "planning-area-id": 1100415}}, {"type": "Feature", "geometry": {"type": "Point", "coordinates": [13.4898289, 52.6175356]}, "properties": {"id": "9767908892", "name": "", "street": "", "zip-code": "", "city": "", "planning-area-id": 3300411}}, {"type": "Feature", "geometry": {"type": "Point", "coordinates": [13.5459901, 52.5440327]}, "properties": {"id": "9797339416", "name": "Eiscafé Promenade", "street": "Marzahner Promenade 1", "zip-code": 12679.0, "city": "Berlin", "planning-area-id": 10100210}}, {"type": "Feature", "geometry": {"type": "Point", "coordinates": [13.3294662, 52.4929909]}, "properties": {"id": "9809605644", "name": "KE GUSTO?", "street": "Trautenaustraße 19", "zip-code": 10717.0, "city": "Berlin", "planning-area-id": 4501149}}, {"type": "Feature", "geometry": {"type": "Point", "coordinates": [13.2611359, 52.4889785]}, "properties": {"id": "9813284031", "name": "Kiosk an der Scheune", "street": "", "zip-code": "", "city": "", "planning-area-id": 4400729}}, {"type": "Feature", "geometry": {"type": "Point", "coordinates": [13.2588427, 52.4324093]}, "properties": {"id": "9861771518", "name": "Gelateria Europa", "street": "Teltower Damm 24", "zip-code": 14169.0, "city": "Berlin", "planning-area-id": 6300526}}, {"type": "Feature", "geometry": {"type": "Point", "coordinates": [13.5826196, 52.4921301]}, "properties": {"id": "9887326389", "name": "", "street": "", "zip-code": "", "city": "", "planning-area-id": 10400837}}, {"type": "Feature", "geometry": {"type": "Point", "coordinates": [13.3750088, 52.5422614]}, "properties": {"id": "9888031651", "name": "Eis Toto", "street": "Schönwalder Straße 30", "zip-code": 13347.0, "city": "Berlin", "planning-area-id": 1300836}}, {"type": "Feature", "geometry": {"type": "Point", "coordinates": [13.3942864, 52.525776]}, "properties": {"id": "9888934886", "name": "Gelato Maria Maria", "street": "", "zip-code": "", "city": "", "planning-area-id": 1100309}}, {"type": "Feature", "geometry": {"type": "Point", "coordinates": [13.3467228, 52.5336548]}, "properties": {"id": "9904979248", "name": "Italienisches Eis Marcon", "street": "Stephanstraße 26", "zip-code": 10559.0, "city": "Berlin", "planning-area-id": 1200623}}, {"type": "Feature", "geometry": {"type": "Point", "coordinates": [13.3613093, 52.5495527]}, "properties": {"id": "9912702096", "name": "Pingolino Eis", "street": "", "zip-code": 13347.0, "city": "Berlin", "planning-area-id": 1401048}}, {"type": "Feature", "geometry": {"type": "Point", "coordinates": [13.421712, 52.4953652]}, "properties": {"id": "9918868969", "name": "Duo Sicilian Ice Cream", "street": "Maybachufer 3", "zip-code": 12047.0, "city": "Berlin", "planning-area-id": 8100310}}, {"type": "Feature", "geometry": {"type": "Point", "coordinates": [13.3832579, 52.4897767]}, "properties": {"id": "10029281619", "name": "Gelateria No 1", "street": "Kreuzbergstraße 71", "zip-code": 10965.0, "city": "Berlin", "planning-area-id": 2200209}}, {"type": "Feature", "geometry": {"type": "Point", "coordinates": [13.6031045, 52.5316672]}, "properties": {"id": "10103240871", "name": "Jannys Eis", "street": "Schneeberger Straße 9", "zip-code": 12627.0, "city": "Berlin", "planning-area-id": 10200526}}, {"type": "Feature", "geometry": {"type": "Point", "coordinates": [13.5748546, 52.4166588]}, "properties": {"id": "10109260983", "name": "La Casa Coral", "street": "Ammerseestraße 26", "zip-code": 12527.0, "city": "Berlin", "planning-area-id": 9301126}}, {"type": "Feature", "geometry": {"type": "Point", "coordinates": [13.3830353, 52.5392278]}, "properties": {"id": "10118912505", "name": "Chunks by KoRo", "street": "Ackerstraße 80", "zip-code": 13355.0, "city": "Berlin", "planning-area-id": 1300835}}, {"type": "Feature", "geometry": {"type": "Point", "coordinates": [13.4018796, 52.5307781]}, "properties": {"id": "10180638417", "name": "Ben & Jerrys", "street": "Weinbergsweg 24", "zip-code": "", "city": "", "planning-area-id": 1100416}}, {"type": "Feature", "geometry": {"type": "Point", "coordinates": [13.3742659, 52.5079525]}, "properties": {"id": "10616370270", "name": "Caffè e Gelato", "street": "", "zip-code": "", "city": "", "planning-area-id": 1100102}}, {"type": "Feature", "geometry": {"type": "Point", "coordinates": [13.1402078, 52.4523942]}, "properties": {"id": "10832100823", "name": "Eiscafé Marta", "street": "", "zip-code": "", "city": "", "planning-area-id": 5400945}}, {"type": "Feature", "geometry": {"type": "Point", "coordinates": [13.4232542, 52.4788337]}, "properties": {"id": "10884209900", "name": "Felicia ice cream", "street": "", "zip-code": "", "city": "", "planning-area-id": 8100102}}, {"type": "Feature", "geometry": {"type": "Point", "coordinates": [13.4973041, 52.5087224]}, "properties": {"id": "10908717676", "name": "Ca-phê", "street": "Einbecker Straße 26", "zip-code": 10317.0, "city": "Berlin", "planning-area-id": 11400929}}, {"type": "Feature", "geometry": {"type": "Point", "coordinates": [13.4172287, 52.5376396]}, "properties": {"id": "10913988788", "name": "Mr. ICE", "street": "", "zip-code": "", "city": "", "planning-area-id": 3701555}}, {"type": "Feature", "geometry": {"type": "Point", "coordinates": [13.4336106, 52.5298888]}, "properties": {"id": "10963865464", "name": "Duo", "street": "", "zip-code": "", "city": "", "planning-area-id": 3701660}}, {"type": "Feature", "geometry": {"type": "Point", "coordinates": [13.4716184, 52.4273458]}, "properties": {"id": "11020839104", "name": "", "street": "", "zip-code": "", "city": "", "planning-area-id": 8301036}}, {"type": "Feature", "geometry": {"type": "Point", "coordinates": [13.5629246, 52.5734602]}, "properties": {"id": "11045663310", "name": "Monte Falco", "street": "", "zip-code": "", "city": "", "planning-area-id": 11100102}}, {"type": "Feature", "geometry": {"type": "Point", "coordinates": [13.27557, 52.5883395]}, "properties": {"id": "11081135262", "name": "", "street": "", "zip-code": "", "city": "", "planning-area-id": 12200515}}, {"type": "Feature", "geometry": {"type": "Point", "coordinates": [13.3282973, 52.5320325]}, "properties": {"id": "11107435651", "name": "Eis Henri", "street": "Beusselstraße 49", "zip-code": "", "city": "", "planning-area-id": 1200518}}, {"type": "Feature", "geometry": {"type": "Point", "coordinates": [13.4336186, 52.5281035]}, "properties": {"id": "11130931005", "name": "", "street": "", "zip-code": "", "city": "", "planning-area-id": 2400520}}, {"type": "Feature", "geometry": {"type": "Point", "coordinates": [13.2830823, 52.4590108]}, "properties": {"id": "11140768480", "name": "Eiscafé Il Pistacchio Dahlem", "street": "", "zip-code": "", "city": "", "planning-area-id": 6400844}}, {"type": "Feature", "geometry": {"type": "Point", "coordinates": [13.4722114, 52.5162554]}, "properties": {"id": "11145846805", "name": "Eiscafe Il Pistacchio", "street": "Schreinerstraße 33", "zip-code": 10247.0, "city": "", "planning-area-id": 2500729}}, {"type": "Feature", "geometry": {"type": "Point", "coordinates": [13.341273, 52.5076984]}, "properties": {"id": "11148418941", "name": "", "street": "", "zip-code": "", "city": "", "planning-area-id": 1100102}}, {"type": "Feature", "geometry": {"type": "Point", "coordinates": [13.3392728, 52.5070638]}, "properties": {"id": "11148419019", "name": "", "street": "", "zip-code": "", "city": "", "planning-area-id": 1100102}}, {"type": "Feature", "geometry": {"type": "Point", "coordinates": [13.6303933, 52.445463]}, "properties": {"id": "11198242338", "name": "", "street": "", "zip-code": "", "city": "", "planning-area-id": 9501737}}]}