{"type": "FeatureCollection", "features": [{"type": "Feature", "geometry": {"type": "Point", "coordinates": [13.31951, 52.459232]}, "properties": {"id": "705765189", "name": "lanconference.de", "street": "Rothenburgstraße 41", "zip-code": 12163.0, "city": "Berlin", "planning-area-id": 6100102}}, {"type": "Feature", "geometry": {"type": "Point", "coordinates": [13.3599205, 52.4862836]}, "properties": {"id": "1232688398", "name": "CoWoS", "street": "Kolonnenstraße 8", "zip-code": 10827.0, "city": "Berlin", "planning-area-id": 7200410}}, {"type": "Feature", "geometry": {"type": "Point", "coordinates": [13.4185717, 52.5144051]}, "properties": {"id": "1244345598", "name": "DB mindbox", "street": "Holzmarktstraße 6-9", "zip-code": 10179.0, "city": "Berlin", "planning-area-id": 1100311}}, {"type": "Feature", "geometry": {"type": "Point", "coordinates": [13.4142133, 52.5432379]}, "properties": {"id": "1784674880", "name": "Office Club", "street": "Pappelallee 78/79", "zip-code": 10437.0, "city": "Berlin", "planning-area-id": 3601346}}, {"type": "Feature", "geometry": {"type": "Point", "coordinates": [13.4328002, 52.4868855]}, "properties": {"id": "3605164303", "name": "Weserland Coworking Berlin", "street": "Weserstraße 21", "zip-code": 12045.0, "city": "Berlin", "planning-area-id": 8100312}}, {"type": "Feature", "geometry": {"type": "Point", "coordinates": [13.3556933, 52.4865993]}, "properties": {"id": "3768830257", "name": "Roof Up", "street": "Akazienstraße 3", "zip-code": 10823.0, "city": "Berlin", "planning-area-id": 7200409}}, {"type": "Feature", "geometry": {"type": "Point", "coordinates": [13.3601459, 52.4935515]}, "properties": {"id": "3864582957", "name": "rent24", "street": "Potsdamer Straße 182", "zip-code": 10783.0, "city": "Berlin", "planning-area-id": 7100204}}, {"type": "Feature", "geometry": {"type": "Point", "coordinates": [13.3704077, 52.5340487]}, "properties": {"id": "4225752737", "name": "Amapola Coworking", "street": "Scharnhorststraße 24", "zip-code": 10115.0, "city": "Berlin", "planning-area-id": 1100308}}, {"type": "Feature", "geometry": {"type": "Point", "coordinates": [13.3901333, 52.5123455]}, "properties": {"id": "4306070496", "name": "mindspace", "street": "Friedrichstraße 68", "zip-code": 10117.0, "city": "Berlin", "planning-area-id": 1100206}}, {"type": "Feature", "geometry": {"type": "Point", "coordinates": [13.4046902, 52.5246687]}, "properties": {"id": "4476799907", "name": "WeWork Hackescher Markt", "street": "Neue Schönhauser Straße 3-5", "zip-code": 10178.0, "city": "Berlin", "planning-area-id": 1100309}}, {"type": "Feature", "geometry": {"type": "Point", "coordinates": [13.4265893, 52.4740867]}, "properties": {"id": "4498449571", "name": "D.Collective", "street": "Okerstraße 45", "zip-code": 12049.0, "city": "Berlin", "planning-area-id": 8100103}}, {"type": "Feature", "geometry": {"type": "Point", "coordinates": [13.3906028, 52.5412201]}, "properties": {"id": "5103564057", "name": "Ahoy! Berlin", "street": "Wattstraße 11", "zip-code": 13355.0, "city": "Berlin", "planning-area-id": 1300835}}, {"type": "Feature", "geometry": {"type": "Point", "coordinates": [13.3603987, 52.4916086]}, "properties": {"id": "5367928671", "name": "rent24", "street": "Potsdamer Straße 188", "zip-code": 10783.0, "city": "Berlin", "planning-area-id": 7100204}}, {"type": "Feature", "geometry": {"type": "Point", "coordinates": [13.3699523, 52.5496879]}, "properties": {"id": "6251995790", "name": "Cultivation Space", "street": "Gottschedstrasse 4", "zip-code": 13357.0, "city": "Berlin", "planning-area-id": 1401044}}, {"type": "Feature", "geometry": {"type": "Point", "coordinates": [13.4265789, 52.5483986]}, "properties": {"id": "6311537150", "name": "Happy Pigeons Co-working", "street": "", "zip-code": "", "city": "", "planning-area-id": 3601244}}, {"type": "Feature", "geometry": {"type": "Point", "coordinates": [13.3916017, 52.5065726]}, "properties": {"id": "6403066082", "name": "betahaus", "street": "Rudi-Dutschke-Straße 23", "zip-code": 10969.0, "city": "Berlin", "planning-area-id": 2100102}}, {"type": "Feature", "geometry": {"type": "Point", "coordinates": [13.4133499, 52.5294474]}, "properties": {"id": "6753987908", "name": "KUGU Home GmbH", "street": "Straßburger Straße 9F", "zip-code": 10405.0, "city": "Berlin", "planning-area-id": 3701556}}, {"type": "Feature", "geometry": {"type": "Point", "coordinates": [13.4437324, 52.4759286]}, "properties": {"id": "6915842784", "name": "Unicorn Village", "street": "Richardstraße 85/86", "zip-code": 12043.0, "city": "Berlin", "planning-area-id": 8100416}}, {"type": "Feature", "geometry": {"type": "Point", "coordinates": [13.355594, 52.4867628]}, "properties": {"id": "7126670562", "name": "Space Shack", "street": "Akazienstraße 3a", "zip-code": 10823.0, "city": "Berlin", "planning-area-id": 7200409}}, {"type": "Feature", "geometry": {"type": "Point", "coordinates": [13.4253802, 52.5418663]}, "properties": {"id": "7310118044", "name": "Wonder", "street": "Prenzlauer Allee 186", "zip-code": 10405.0, "city": "Berlin", "planning-area-id": 3601348}}, {"type": "Feature", "geometry": {"type": "Point", "coordinates": [13.3771781, 52.5603927]}, "properties": {"id": "8919934740", "name": "", "street": "", "zip-code": "", "city": "", "planning-area-id": 1300730}}, {"type": "Feature", "geometry": {"type": "Point", "coordinates": [13.372268, 52.5419344]}, "properties": {"id": "9577860884", "name": "Werkstatt23", "street": "Schönwalder Straße 23", "zip-code": 13347.0, "city": "Berlin", "planning-area-id": 1300836}}, {"type": "Feature", "geometry": {"type": "Point", "coordinates": [13.3914391, 52.5079141]}, "properties": {"id": "10064479039", "name": "Mindspace", "street": "", "zip-code": "", "city": "", "planning-area-id": 1100207}}, {"type": "Feature", "geometry": {"type": "Point", "coordinates": [13.3771763, 52.5598431]}, "properties": {"id": "10133253469", "name": "", "street": "", "zip-code": "", "city": "", "planning-area-id": 1300730}}, {"type": "Feature", "geometry": {"type": "Point", "coordinates": [13.3745881, 52.5537046]}, "properties": {"id": "10133253470", "name": "", "street": "", "zip-code": "", "city": "", "planning-area-id": 1401044}}, {"type": "Feature", "geometry": {"type": "Point", "coordinates": [13.4326669, 52.4791394]}, "properties": {"id": "10741548148", "name": "Rollwerk", "street": "Rollbergstraße 28a", "zip-code": 12053.0, "city": "Berlin", "planning-area-id": 8100206}}, {"type": "Feature", "geometry": {"type": "Point", "coordinates": [13.3835322, 52.4930571]}, "properties": {"id": "11051017210", "name": "UMA Hub", "street": "Großbeerenstraße 60", "zip-code": "", "city": "", "planning-area-id": 2200209}}, {"type": "Feature", "geometry": {"type": "Point", "coordinates": [13.4493869, 52.4846237]}, "properties": {"id": "11285466133", "name": "workish.berlin", "street": "", "zip-code": "", "city": "", "planning-area-id": 8100419}}]}