{"type": "FeatureCollection", "features": [{"type": "Feature", "geometry": {"type": "Point", "coordinates": [13.2842603, 52.5133372]}, "properties": {"id": "30352328", "name": "", "street": "", "zip-code": "", "city": "Berlin", "planning-area-id": 4200311}}, {"type": "Feature", "geometry": {"type": "Point", "coordinates": [13.4368516, 52.4915174]}, "properties": {"id": "410135893", "name": "", "street": "", "zip-code": "", "city": "", "planning-area-id": 2300418}}, {"type": "Feature", "geometry": {"type": "Point", "coordinates": [13.1917177, 52.536068]}, "properties": {"id": "616672198", "name": "Sixti Car Club", "street": "", "zip-code": "", "city": "", "planning-area-id": 5100316}}, {"type": "Feature", "geometry": {"type": "Point", "coordinates": [13.3411199, 52.4695032]}, "properties": {"id": "1334289987", "name": "", "street": "", "zip-code": "", "city": "", "planning-area-id": 7300619}}, {"type": "Feature", "geometry": {"type": "Point", "coordinates": [13.4201248, 52.4997903]}, "properties": {"id": "1826897235", "name": "stadtmobil", "street": "Skalitzer Straße 133", "zip-code": 10999.0, "city": "Berlin", "planning-area-id": 2300314}}, {"type": "Feature", "geometry": {"type": "Point", "coordinates": [13.4316834, 52.5051208]}, "properties": {"id": "1826931830", "name": "Stadtmobil", "street": "Manteuffelstraße 121-123", "zip-code": 10997.0, "city": "Berlin", "planning-area-id": 2300316}}, {"type": "Feature", "geometry": {"type": "Point", "coordinates": [13.420326, 52.5421241]}, "properties": {"id": "3363900043", "name": "", "street": "", "zip-code": "", "city": "", "planning-area-id": 3601348}}, {"type": "Feature", "geometry": {"type": "Point", "coordinates": [13.4189019, 52.542678]}, "properties": {"id": "3363902823", "name": "Greenwheels", "street": "", "zip-code": "", "city": "", "planning-area-id": 3601347}}, {"type": "Feature", "geometry": {"type": "Point", "coordinates": [13.4269668, 52.5449905]}, "properties": {"id": "3875852629", "name": "Flinkster", "street": "", "zip-code": "", "city": "", "planning-area-id": 3601244}}, {"type": "Feature", "geometry": {"type": "Point", "coordinates": [13.4184235, 52.5367486]}, "properties": {"id": "4278854418", "name": "", "street": "", "zip-code": "", "city": "", "planning-area-id": 3701555}}, {"type": "Feature", "geometry": {"type": "Point", "coordinates": [13.381765, 52.5343108]}, "properties": {"id": "4436548357", "name": "", "street": "", "zip-code": "", "city": "", "planning-area-id": 1100414}}, {"type": "Feature", "geometry": {"type": "Point", "coordinates": [13.378748, 52.5229639]}, "properties": {"id": "4605555446", "name": "", "street": "", "zip-code": "", "city": "", "planning-area-id": 1100308}}, {"type": "Feature", "geometry": {"type": "Point", "coordinates": [13.4076002, 52.5473121]}, "properties": {"id": "5260315892", "name": "", "street": "", "zip-code": "", "city": "", "planning-area-id": 3601142}}, {"type": "Feature", "geometry": {"type": "Point", "coordinates": [13.4375537, 52.5034886]}, "properties": {"id": "6124260756", "name": "Cambio Station Köpenicker", "street": "Köpenicker Straße 11", "zip-code": "", "city": "", "planning-area-id": 2300316}}, {"type": "Feature", "geometry": {"type": "Point", "coordinates": [13.4222072, 52.5135935]}, "properties": {"id": "7536994036", "name": "", "street": "", "zip-code": "", "city": "", "planning-area-id": 1100311}}, {"type": "Feature", "geometry": {"type": "Point", "coordinates": [13.4012144, 52.5287821]}, "properties": {"id": "7915910821", "name": "stadtmobil", "street": "", "zip-code": "", "city": "", "planning-area-id": 1100309}}, {"type": "Feature", "geometry": {"type": "Point", "coordinates": [13.3463921, 52.4796049]}, "properties": {"id": "7995684589", "name": "", "street": "", "zip-code": "", "city": "", "planning-area-id": 7200308}}, {"type": "Feature", "geometry": {"type": "Point", "coordinates": [13.2260851, 52.5541797]}, "properties": {"id": "8255683563", "name": "Jelbi-Station Daumstraße/Rhenaniastraße", "street": "", "zip-code": "", "city": "", "planning-area-id": 5300736}}, {"type": "Feature", "geometry": {"type": "Point", "coordinates": [13.2326674, 52.5386786]}, "properties": {"id": "8614201454", "name": "Jelbi-Station U Haselhorst", "street": "", "zip-code": "", "city": "", "planning-area-id": 5300737}}, {"type": "Feature", "geometry": {"type": "Point", "coordinates": [13.5009862, 52.5106897]}, "properties": {"id": "8614204893", "name": "Jelbi-Station S+U Lichtenberg", "street": "", "zip-code": "", "city": "", "planning-area-id": 11400931}}, {"type": "Feature", "geometry": {"type": "Point", "coordinates": [13.5608726, 52.5058683]}, "properties": {"id": "9002051629", "name": "Jelbi", "street": "", "zip-code": "", "city": "", "planning-area-id": 10300733}}, {"type": "Feature", "geometry": {"type": "Point", "coordinates": [13.4181042, 52.544121]}, "properties": {"id": "9074640222", "name": "Cambio", "street": "Lychener Straße 46", "zip-code": 10437.0, "city": "Berlin", "planning-area-id": 3601347}}, {"type": "Feature", "geometry": {"type": "Point", "coordinates": [13.3791418, 52.4917973]}, "properties": {"id": "10263347366", "name": "", "street": "", "zip-code": "", "city": "", "planning-area-id": 2200209}}, {"type": "Feature", "geometry": {"type": "Point", "coordinates": [13.4228501, 52.4867107]}, "properties": {"id": "10271579872", "name": "", "street": "", "zip-code": "", "city": "", "planning-area-id": 2200212}}, {"type": "Feature", "geometry": {"type": "Point", "coordinates": [13.4135196, 52.4885196]}, "properties": {"id": "10293401273", "name": "", "street": "", "zip-code": "", "city": "", "planning-area-id": 2200212}}, {"type": "Feature", "geometry": {"type": "Point", "coordinates": [13.4436721, 52.4974999]}, "properties": {"id": "10293414916", "name": "", "street": "", "zip-code": "", "city": "", "planning-area-id": 2300419}}, {"type": "Feature", "geometry": {"type": "Point", "coordinates": [13.4281633, 52.5722166]}, "properties": {"id": "10608414647", "name": "DB Netz Granitzstraße", "street": "", "zip-code": 13189.0, "city": "Berlin", "planning-area-id": 3400831}}, {"type": "Feature", "geometry": {"type": "Point", "coordinates": [13.3663847, 52.4755902]}, "properties": {"id": "10969860170", "name": "", "street": "", "zip-code": "", "city": "", "planning-area-id": 7200413}}]}