{"type": "FeatureCollection", "features": [{"type": "Feature", "geometry": {"type": "Point", "coordinates": [13.3629858, 52.5076051]}, "properties": {"id": "73696610", "name": "Gedenkstätte Deutscher Widerstand", "street": "", "zip-code": "", "city": "", "planning-area-id": 1100102}}, {"type": "Feature", "geometry": {"type": "Point", "coordinates": [13.3822143, 52.5048708]}, "properties": {"id": "84644782", "name": "Dokumentationszentrum Flucht, Vertreibung, Versöhnung", "street": "Stresemannstraße 90", "zip-code": 10963.0, "city": "Berlin", "planning-area-id": 2100101}}, {"type": "Feature", "geometry": {"type": "Point", "coordinates": [13.37351, 52.5096032]}, "properties": {"id": "260768839", "name": "Deutsche Kinemathek - Museum für Film und Fernsehen", "street": "Potsdamer Straße 2", "zip-code": 10785.0, "city": "Berlin", "planning-area-id": 1100102}}, {"type": "Feature", "geometry": {"type": "Point", "coordinates": [13.2889441, 52.4583565]}, "properties": {"id": "268591806", "name": "Das Museum der Domäne Dahlem", "street": "", "zip-code": "", "city": "", "planning-area-id": 6400844}}, {"type": "Feature", "geometry": {"type": "Point", "coordinates": [13.487485, 52.5145073]}, "properties": {"id": "281391655", "name": "Stasimuseum", "street": "Ruschestraße 103", "zip-code": 10365.0, "city": "Berlin", "planning-area-id": 11300724}}, {"type": "Feature", "geometry": {"type": "Point", "coordinates": [13.2863134, 52.5863068]}, "properties": {"id": "292700476", "name": "Feuerwehrmuseum Berlin", "street": "Veitstraße 5", "zip-code": 13507.0, "city": "Berlin", "planning-area-id": 12200515}}, {"type": "Feature", "geometry": {"type": "Point", "coordinates": [13.3872552, 52.5099308]}, "properties": {"id": "292738889", "name": "Museum für Kommunikation", "street": "Leipziger Straße 16", "zip-code": 10117.0, "city": "Berlin", "planning-area-id": 1100205}}, {"type": "Feature", "geometry": {"type": "Point", "coordinates": [13.5790965, 52.4453638]}, "properties": {"id": "297049901", "name": "Heimatmuseum Köpenick", "street": "", "zip-code": "", "city": "", "planning-area-id": 9401534}}, {"type": "Feature", "geometry": {"type": "Point", "coordinates": [13.2929563, 52.4606001]}, "properties": {"id": "335860469", "name": "Ethnologisches Museum", "street": "", "zip-code": "", "city": "", "planning-area-id": 6400844}}, {"type": "Feature", "geometry": {"type": "Point", "coordinates": [13.378434, 52.5087884]}, "properties": {"id": "340388625", "name": "Deutschlandmuseum", "street": "Leipziger Platz 7", "zip-code": 10117.0, "city": "Berlin", "planning-area-id": 1100205}}, {"type": "Feature", "geometry": {"type": "Point", "coordinates": [13.2138542, 52.5412184]}, "properties": {"id": "344381412", "name": "Enthüllt. Berlin und seine Denkmäler", "street": "Am Juliusturm 64", "zip-code": 13599.0, "city": "Berlin", "planning-area-id": 5300736}}, {"type": "Feature", "geometry": {"type": "Point", "coordinates": [13.3684502, 52.4204028]}, "properties": {"id": "355500002", "name": "Erinnerungsstätte Notaufnahmelager Marienfelde", "street": "Marienfelder Allee 66/80", "zip-code": 12277.0, "city": "Berlin", "planning-area-id": 7601236}}, {"type": "Feature", "geometry": {"type": "Point", "coordinates": [13.3479549, 52.5460206]}, "properties": {"id": "369037135", "name": "Anti-Kriegs-Museum", "street": "Brüsseler Straße 21", "zip-code": 13353.0, "city": "Berlin", "planning-area-id": 1400942}}, {"type": "Feature", "geometry": {"type": "Point", "coordinates": [13.3799981, 52.5219182]}, "properties": {"id": "429739550", "name": "Mori-Ôgai-Gedenkstätte", "street": "Luisenstraße 39", "zip-code": 10117.0, "city": "Berlin", "planning-area-id": 1100308}}, {"type": "Feature", "geometry": {"type": "Point", "coordinates": [13.4390108, 52.4772885]}, "properties": {"id": "448810258", "name": "Puppentheater-Museum Berlin", "street": "Karl-Marx-Straße 135", "zip-code": 12043.0, "city": "Berlin", "planning-area-id": 8100416}}, {"type": "Feature", "geometry": {"type": "Point", "coordinates": [13.3797713, 52.5093664]}, "properties": {"id": "453378190", "name": "Die Mauer | The Wall", "street": "Leipziger Platz 11", "zip-code": 10117.0, "city": "Berlin", "planning-area-id": 1100205}}, {"type": "Feature", "geometry": {"type": "Point", "coordinates": [13.3892456, 52.5478117]}, "properties": {"id": "498822384", "name": "Berliner Unterwelten-Museum", "street": "Brunnenstraße 105", "zip-code": 13355.0, "city": "Berlin", "planning-area-id": 1300834}}, {"type": "Feature", "geometry": {"type": "Point", "coordinates": [13.2603049, 52.4354496]}, "properties": {"id": "507083358", "name": "Heimatmuseum Zehlendorf", "street": "Clayallee 355", "zip-code": 14169.0, "city": "Berlin", "planning-area-id": 6400841}}, {"type": "Feature", "geometry": {"type": "Point", "coordinates": [13.3791152, 52.5304903]}, "properties": {"id": "538692583", "name": "Museum für Naturkunde", "street": "Invalidenstraße 43", "zip-code": 10115.0, "city": "Berlin", "planning-area-id": 1100308}}, {"type": "Feature", "geometry": {"type": "Point", "coordinates": [13.4024859, 52.5143734]}, "properties": {"id": "540613216", "name": "Galgenhaus Stadtmuseum Berlin", "street": "Brüderstraße 10", "zip-code": 10178.0, "city": "Berlin", "planning-area-id": 1100207}}, {"type": "Feature", "geometry": {"type": "Point", "coordinates": [13.6440642, 52.4476818]}, "properties": {"id": "540845281", "name": "Museum im alten Wasserwerk", "street": "", "zip-code": "", "city": "", "planning-area-id": 9501737}}, {"type": "Feature", "geometry": {"type": "Point", "coordinates": [13.3924292, 52.514289]}, "properties": {"id": "545060231", "name": "Hugenottenmuseum Berlin", "street": "", "zip-code": 10117.0, "city": "Berlin", "planning-area-id": 1100206}}, {"type": "Feature", "geometry": {"type": "Point", "coordinates": [13.3927272, 52.5126755]}, "properties": {"id": "545074057", "name": "Parlamentshistorische Ausstellung des Deutschen Bundestages", "street": "", "zip-code": 10117.0, "city": "Berlin", "planning-area-id": 1100206}}, {"type": "Feature", "geometry": {"type": "Point", "coordinates": [13.5022281, 52.4434519]}, "properties": {"id": "559613172", "name": "Heimatmuseum Treptow", "street": "", "zip-code": "", "city": "", "planning-area-id": 9100407}}, {"type": "Feature", "geometry": {"type": "Point", "coordinates": [13.4561865, 52.5177979]}, "properties": {"id": "577577509", "name": "Jugend[widerstands]museum", "street": "Rigaer Straße 9/10", "zip-code": 10247.0, "city": "", "planning-area-id": 2500727}}, {"type": "Feature", "geometry": {"type": "Point", "coordinates": [13.3871677, 52.4829728]}, "properties": {"id": "611632754", "name": "Polizeimuseum", "street": "Platz der Luftbrücke 6", "zip-code": 12101.0, "city": "Berlin", "planning-area-id": 7400721}}, {"type": "Feature", "geometry": {"type": "Point", "coordinates": [13.4182215, 52.5006018]}, "properties": {"id": "632148988", "name": "FHXB Friedrichshain-Kreuzberg Museum", "street": "Adalbertstraße 95a", "zip-code": 10999.0, "city": "Berlin", "planning-area-id": 2300314}}, {"type": "Feature", "geometry": {"type": "Point", "coordinates": [13.304034, 52.5171949]}, "properties": {"id": "661126964", "name": "Keramik-Museum Berlin", "street": "", "zip-code": "", "city": "", "planning-area-id": 4300621}}, {"type": "Feature", "geometry": {"type": "Point", "coordinates": [13.495073, 52.417445]}, "properties": {"id": "701057032", "name": "Heimatmuseum Rudow", "street": "", "zip-code": "", "city": "", "planning-area-id": 8401243}}, {"type": "Feature", "geometry": {"type": "Point", "coordinates": [13.4125151, 52.4903183]}, "properties": {"id": "766728477", "name": "Fichtebunker", "street": "", "zip-code": "", "city": "", "planning-area-id": 2200212}}, {"type": "Feature", "geometry": {"type": "Point", "coordinates": [13.5407192, 52.4381707]}, "properties": {"id": "766875174", "name": "Anna-Seghers-Gedenkstätte", "street": "Anna-Seghers-Straße 81", "zip-code": 12489.0, "city": "Berlin", "planning-area-id": 9200716}}, {"type": "Feature", "geometry": {"type": "Point", "coordinates": [13.3037544, 52.4704996]}, "properties": {"id": "849063657", "name": "WasserWerkstatt des WasserMuseum e.V.", "street": "Dillenburger Straße 57 (Tor 2)", "zip-code": 14199.0, "city": "Berlin", "planning-area-id": 4400832}}, {"type": "Feature", "geometry": {"type": "Point", "coordinates": [13.4808551, 52.5029909]}, "properties": {"id": "1257857022", "name": "Museum Lichtenberg im Stadthaus", "street": "Türrschmidtstraße 24", "zip-code": 10317.0, "city": "Berlin", "planning-area-id": 11400927}}, {"type": "Feature", "geometry": {"type": "Point", "coordinates": [13.4063769, 52.5763987]}, "properties": {"id": "1260572076", "name": "Die Pankower Machthaber", "street": "", "zip-code": "", "city": "", "planning-area-id": 3400722}}, {"type": "Feature", "geometry": {"type": "Point", "coordinates": [13.4419522, 52.517579]}, "properties": {"id": "1270188822", "name": "Computerspielemuseum", "street": "Karl-Marx-Allee 93a", "zip-code": 10243.0, "city": "Berlin", "planning-area-id": 2400522}}, {"type": "Feature", "geometry": {"type": "Point", "coordinates": [13.2499733, 52.5173541]}, "properties": {"id": "1358325721", "name": "Berliner U-Bahn-Museum", "street": "", "zip-code": 14052.0, "city": "Berlin", "planning-area-id": 4200203}}, {"type": "Feature", "geometry": {"type": "Point", "coordinates": [13.3184593, 52.5080398]}, "properties": {"id": "1390712121", "name": "Das Verborgene Museum", "street": "", "zip-code": "", "city": "", "planning-area-id": 4300624}}, {"type": "Feature", "geometry": {"type": "Point", "coordinates": [13.4077764, 52.5229256]}, "properties": {"id": "1433855703", "name": "DeJa Vu", "street": "Rochstraße 14c", "zip-code": 10178.0, "city": "Berlin", "planning-area-id": 1100310}}, {"type": "Feature", "geometry": {"type": "Point", "coordinates": [13.4063144, 52.5164895]}, "properties": {"id": "1476011662", "name": "Zille-Museum", "street": "Propststraße 11", "zip-code": 10178.0, "city": "Berlin", "planning-area-id": 1100310}}, {"type": "Feature", "geometry": {"type": "Point", "coordinates": [13.5728521, 52.4440329]}, "properties": {"id": "1505273433", "name": "Kunstgewerbemuseum", "street": "", "zip-code": "", "city": "", "planning-area-id": 9401534}}, {"type": "Feature", "geometry": {"type": "Point", "coordinates": [13.4024579, 52.5642198]}, "properties": {"id": "1583408273", "name": "Museum Pankow", "street": "Heynstraße 8", "zip-code": 13187.0, "city": "Berlin", "planning-area-id": 3400721}}, {"type": "Feature", "geometry": {"type": "Point", "coordinates": [13.5269397, 52.4572416]}, "properties": {"id": "1632937492", "name": "HTW Berlin, Campus Wilhelminenhof, Geb. C (Computermuseum)", "street": "Wilhelminenhofstraße 75 A", "zip-code": 12459.0, "city": "Berlin", "planning-area-id": 9200511}}, {"type": "Feature", "geometry": {"type": "Point", "coordinates": [13.4021873, 52.5242943]}, "properties": {"id": "1653339015", "name": "Museum Blindenwerkstatt Otto Weidt", "street": "Rosenthaler Straße 39", "zip-code": 10178.0, "city": "Berlin", "planning-area-id": 1100309}}, {"type": "Feature", "geometry": {"type": "Point", "coordinates": [13.3184486, 52.5090606]}, "properties": {"id": "1827559268", "name": "Werkbund Berlin", "street": "Goethestraße 13B", "zip-code": 10623.0, "city": "Berlin", "planning-area-id": 4300624}}, {"type": "Feature", "geometry": {"type": "Point", "coordinates": [13.3720175, 52.5284267]}, "properties": {"id": "1860480265", "name": "Hamburger Bahnhof - Nationalgalerie der Gegenwart", "street": "Invalidenstraße 50-51", "zip-code": "", "city": "", "planning-area-id": 1200624}}, {"type": "Feature", "geometry": {"type": "Point", "coordinates": [13.3863294, 52.5153117]}, "properties": {"id": "1867566597", "name": "Forum Willy Brandt Berlin", "street": "Behrenstraße 15", "zip-code": 10117.0, "city": "Berlin", "planning-area-id": 1100206}}, {"type": "Feature", "geometry": {"type": "Point", "coordinates": [13.2936163, 52.5199022]}, "properties": {"id": "1874529830", "name": "Ausstellungen in der Kleinen Orangerie am Schloss Charlottenburg", "street": "Spandauer Damm 22", "zip-code": 14059.0, "city": "Berlin", "planning-area-id": 4300412}}, {"type": "Feature", "geometry": {"type": "Point", "coordinates": [13.3745186, 52.526136]}, "properties": {"id": "2033362563", "name": "Berliner Medizinhistorisches Museum der Charité", "street": "Charitéplatz 1", "zip-code": 10117.0, "city": "Berlin", "planning-area-id": 1100308}}, {"type": "Feature", "geometry": {"type": "Point", "coordinates": [13.4019195, 52.5244928]}, "properties": {"id": "2164030082", "name": "Anne Frank Zentrum", "street": "Rosenthaler Straße 39", "zip-code": 10178.0, "city": "Berlin", "planning-area-id": 1100309}}, {"type": "Feature", "geometry": {"type": "Point", "coordinates": [13.3340538, 52.4699672]}, "properties": {"id": "2321948745", "name": "Uhrenmuseum", "street": "Rheinstraße 59", "zip-code": 12159.0, "city": "Berlin", "planning-area-id": 7300618}}, {"type": "Feature", "geometry": {"type": "Point", "coordinates": [13.2067237, 52.5376859]}, "properties": {"id": "2335146075", "name": "Das Gotische Haus", "street": "", "zip-code": "", "city": "", "planning-area-id": 5100316}}, {"type": "Feature", "geometry": {"type": "Point", "coordinates": [13.5619103, 52.543492]}, "properties": {"id": "2360277462", "name": "Bezirksmuseum Marzahn-Hellersdorf, Haus 2", "street": "", "zip-code": "", "city": "", "planning-area-id": 10100313}}, {"type": "Feature", "geometry": {"type": "Point", "coordinates": [13.390676, 52.5071871]}, "properties": {"id": "2401869345", "name": "Mauermuseum", "street": "Friedrichstraße 43-45", "zip-code": 10969.0, "city": "Berlin", "planning-area-id": 2100102}}, {"type": "Feature", "geometry": {"type": "Point", "coordinates": [13.2512169, 52.4871137]}, "properties": {"id": "2733904737", "name": "Waldmuseum", "street": "Königsweg 4", "zip-code": 14193.0, "city": "Berlin", "planning-area-id": 4200207}}, {"type": "Feature", "geometry": {"type": "Point", "coordinates": [13.3340771, 52.4883396]}, "properties": {"id": "2807497298", "name": "Lippenstiftmuseum", "street": "", "zip-code": "", "city": "", "planning-area-id": 4501152}}, {"type": "Feature", "geometry": {"type": "Point", "coordinates": [13.4207705, 52.5010562]}, "properties": {"id": "2807527330", "name": "Museum der Dinge", "street": "Oranienstraße 25", "zip-code": 10999.0, "city": "Berlin", "planning-area-id": 2300314}}, {"type": "Feature", "geometry": {"type": "Point", "coordinates": [13.5930033, 52.5342987]}, "properties": {"id": "2807538150", "name": "DDR-Museumswohnung WBS 70", "street": "Hellersdorfer Straße 179", "zip-code": 12627.0, "city": "Berlin", "planning-area-id": 10200420}}, {"type": "Feature", "geometry": {"type": "Point", "coordinates": [13.3586756, 52.4869923]}, "properties": {"id": "2807587974", "name": "Museum der Unerhörten Dinge", "street": "", "zip-code": "", "city": "", "planning-area-id": 7200411}}, {"type": "Feature", "geometry": {"type": "Point", "coordinates": [13.3582193, 52.5042512]}, "properties": {"id": "2818117012", "name": "Schwules Museum*", "street": "Lützowstraße 73", "zip-code": 10785.0, "city": "Berlin", "planning-area-id": 1100103}}, {"type": "Feature", "geometry": {"type": "Point", "coordinates": [13.3911183, 52.440493]}, "properties": {"id": "2845403101", "name": "Judo Welt-Museum", "street": "Alt-Mariendorf 21", "zip-code": "", "city": "", "planning-area-id": 7501134}}, {"type": "Feature", "geometry": {"type": "Point", "coordinates": [13.2056528, 52.5387799]}, "properties": {"id": "2853421751", "name": "Spandovia Sacra – Museum mit Bibliothek und Archiv", "street": "", "zip-code": "", "city": "", "planning-area-id": 5100316}}, {"type": "Feature", "geometry": {"type": "Point", "coordinates": [13.3306266, 52.5065947]}, "properties": {"id": "2959465154", "name": "C/O Berlin", "street": "Hardenbergstraße 22-24", "zip-code": 10623.0, "city": "Berlin", "planning-area-id": 4300622}}, {"type": "Feature", "geometry": {"type": "Point", "coordinates": [13.443196, 52.5011763]}, "properties": {"id": "2971387933", "name": "Ramones Museum", "street": "Oberbaumstraße 5", "zip-code": 10997.0, "city": "Berlin", "planning-area-id": 2300316}}, {"type": "Feature", "geometry": {"type": "Point", "coordinates": [13.3933373, 52.5048626]}, "properties": {"id": "3109782265", "name": "Game Science Center", "street": "Besselstraße 14", "zip-code": 10969.0, "city": "Berlin", "planning-area-id": 2100102}}, {"type": "Feature", "geometry": {"type": "Point", "coordinates": [13.3970326, 52.517699]}, "properties": {"id": "3203167561", "name": "Deutsches Historisches Museum", "street": "Unter den Linden 2", "zip-code": 10117.0, "city": "Berlin", "planning-area-id": 1100206}}, {"type": "Feature", "geometry": {"type": "Point", "coordinates": [13.38865, 52.507451]}, "properties": {"id": "3255895792", "name": "Trabi Museum", "street": "Zimmerstraße 14-15", "zip-code": 10969.0, "city": "Berlin", "planning-area-id": 2100102}}, {"type": "Feature", "geometry": {"type": "Point", "coordinates": [13.3268744, 52.4743009]}, "properties": {"id": "3354056742", "name": "Rotkreuz-Museum", "street": "Bachestraße 11", "zip-code": 12161.0, "city": "Berlin", "planning-area-id": 7300515}}, {"type": "Feature", "geometry": {"type": "Point", "coordinates": [13.4159972, 52.5132378]}, "properties": {"id": "3513338376", "name": "Berliner Stadtmodelle", "street": "", "zip-code": "", "city": "", "planning-area-id": 1100312}}, {"type": "Feature", "geometry": {"type": "Point", "coordinates": [13.4089041, 52.5205791]}, "properties": {"id": "3676215899", "name": "Menschen Museum", "street": "Panoramastraße 1A", "zip-code": 10178.0, "city": "Berlin", "planning-area-id": 1100310}}, {"type": "Feature", "geometry": {"type": "Point", "coordinates": [13.3792937, 52.5090125]}, "properties": {"id": "3749451170", "name": "Deutsches Spionagemuseum", "street": "Leipziger Platz 9", "zip-code": 10117.0, "city": "Berlin", "planning-area-id": 1100205}}, {"type": "Feature", "geometry": {"type": "Point", "coordinates": [13.292635, 52.45556]}, "properties": {"id": "3755207008", "name": "Museum Europäischer Kulturen", "street": "", "zip-code": "", "city": "", "planning-area-id": 6400843}}, {"type": "Feature", "geometry": {"type": "Point", "coordinates": [13.3531052, 52.4989968]}, "properties": {"id": "3826014019", "name": "Game Over", "street": "Nollendorfplatz 6", "zip-code": 10777.0, "city": "Berlin", "planning-area-id": 7100102}}, {"type": "Feature", "geometry": {"type": "Point", "coordinates": [13.3026687, 52.4372564]}, "properties": {"id": "3917330120", "name": "Steglitz Museum", "street": "Drakestraße 64a", "zip-code": 12205.0, "city": "Berlin", "planning-area-id": 6300634}}, {"type": "Feature", "geometry": {"type": "Point", "coordinates": [13.1817243, 52.4849396]}, "properties": {"id": "3977880885", "name": "Gutshof Gatow", "street": "Buchwaldzeile 43", "zip-code": 14089.0, "city": "Berlin", "planning-area-id": 5400942}}, {"type": "Feature", "geometry": {"type": "Point", "coordinates": [13.5877844, 52.4192977]}, "properties": {"id": "4197069045", "name": "Sporttauchermuseum", "street": "", "zip-code": "", "city": "", "planning-area-id": 9401330}}, {"type": "Feature", "geometry": {"type": "Point", "coordinates": [13.5874462, 52.4119793]}, "properties": {"id": "4210852779", "name": "Wassersportmuseum", "street": "", "zip-code": "", "city": "", "planning-area-id": 9301126}}, {"type": "Feature", "geometry": {"type": "Point", "coordinates": [13.3936942, 52.5275656]}, "properties": {"id": "4261575774", "name": "Museum der Stille", "street": "Linienstraße 154A", "zip-code": 10115.0, "city": "Berlin", "planning-area-id": 1100309}}, {"type": "Feature", "geometry": {"type": "Point", "coordinates": [13.2727004, 52.5736393]}, "properties": {"id": "4269824816", "name": "Museum Historischer Ort Krumpuhler Weg", "street": "", "zip-code": "", "city": "", "planning-area-id": 12200412}}, {"type": "Feature", "geometry": {"type": "Point", "coordinates": [13.3905283, 52.5146378]}, "properties": {"id": "4305985078", "name": "Ritter Sport Museum", "street": "Französische Straße 24", "zip-code": 10117.0, "city": "Berlin", "planning-area-id": 1100206}}, {"type": "Feature", "geometry": {"type": "Point", "coordinates": [13.3850341, 52.5474588]}, "properties": {"id": "4366611765", "name": "Flakturmruine Volkspark Humboldthain", "street": "", "zip-code": "", "city": "", "planning-area-id": 1300835}}, {"type": "Feature", "geometry": {"type": "Point", "coordinates": [13.3816742, 52.5168416]}, "properties": {"id": "4388867424", "name": "Madame Tussauds", "street": "Unter den Linden 74", "zip-code": 10117.0, "city": "Berlin", "planning-area-id": 1100206}}, {"type": "Feature", "geometry": {"type": "Point", "coordinates": [13.344761, 52.5199506]}, "properties": {"id": "4418867395", "name": "Buchstabenmuseum", "street": "", "zip-code": 10557.0, "city": "Berlin", "planning-area-id": 1200629}}, {"type": "Feature", "geometry": {"type": "Point", "coordinates": [13.3320045, 52.5080191]}, "properties": {"id": "4491488301", "name": "Helmut Newton Foundation", "street": "", "zip-code": "", "city": "", "planning-area-id": 4300622}}, {"type": "Feature", "geometry": {"type": "Point", "coordinates": [13.3990907, 52.5247205]}, "properties": {"id": "4511961891", "name": "Magicum", "street": "", "zip-code": "", "city": "", "planning-area-id": 1100309}}, {"type": "Feature", "geometry": {"type": "Point", "coordinates": [13.3566505, 52.4986678]}, "properties": {"id": "4708547016", "name": "Urban Nation", "street": "Bülowstraße 7", "zip-code": 10783.0, "city": "Berlin", "planning-area-id": 7100103}}, {"type": "Feature", "geometry": {"type": "Point", "coordinates": [13.395326, 52.5268331]}, "properties": {"id": "4725890783", "name": "Samuraimuseum Berlin", "street": "Auguststraße 68", "zip-code": 10117.0, "city": "Berlin", "planning-area-id": 1100309}}, {"type": "Feature", "geometry": {"type": "Point", "coordinates": [13.3363794, 52.523859]}, "properties": {"id": "4833616123", "name": "Braun-Sammlung Ettel Museum für Design", "street": "Elberfelder Straße 37", "zip-code": 10555.0, "city": "", "planning-area-id": 1200522}}, {"type": "Feature", "geometry": {"type": "Point", "coordinates": [13.4079912, 52.5163681]}, "properties": {"id": "4838662169", "name": "Hanf Museum Berlin", "street": "Mühlendamm 5", "zip-code": 10178.0, "city": "Berlin", "planning-area-id": 1100310}}, {"type": "Feature", "geometry": {"type": "Point", "coordinates": [13.401996, 52.530145]}, "properties": {"id": "5051474599", "name": "David Hasselhoff Museum", "street": "", "zip-code": "", "city": "", "planning-area-id": 1100416}}, {"type": "Feature", "geometry": {"type": "Point", "coordinates": [13.4060339, 52.5168725]}, "properties": {"id": "5119217259", "name": "Designpanoptikum", "street": "Poststraße 7", "zip-code": 10178.0, "city": "Berlin", "planning-area-id": 1100310}}, {"type": "Feature", "geometry": {"type": "Point", "coordinates": [13.431275, 52.4794637]}, "properties": {"id": "5306246621", "name": "Kindl - Zentrum für zeitgenössische Kunst", "street": "Am Sudhaus 3", "zip-code": 12053.0, "city": "Berlin", "planning-area-id": 8100206}}, {"type": "Feature", "geometry": {"type": "Point", "coordinates": [13.4470296, 52.4452795]}, "properties": {"id": "5477244581", "name": "Tauthaus", "street": "", "zip-code": "", "city": "", "planning-area-id": 8200727}}, {"type": "Feature", "geometry": {"type": "Point", "coordinates": [13.39626, 52.5112602]}, "properties": {"id": "5493352632", "name": "Julia Stoschek Collection Berlin", "street": "Leipziger Straße 60", "zip-code": 10117.0, "city": "", "planning-area-id": 1100207}}, {"type": "Feature", "geometry": {"type": "Point", "coordinates": [13.4188484, 52.4971249]}, "properties": {"id": "5498079821", "name": "Künstlerhaus Bethanien", "street": "", "zip-code": "", "city": "", "planning-area-id": 2100106}}, {"type": "Feature", "geometry": {"type": "Point", "coordinates": [13.3302646, 52.4795502]}, "properties": {"id": "5504502639", "name": "KiKuFri", "street": "Bundesplatz 17", "zip-code": 10715.0, "city": "Berlin", "planning-area-id": 4501153}}, {"type": "Feature", "geometry": {"type": "Point", "coordinates": [13.4645632, 52.5173218]}, "properties": {"id": "5688015226", "name": "Hatch Sticker Museum", "street": "Schreinerstraße 10", "zip-code": 10247.0, "city": "Berlin", "planning-area-id": 2500728}}, {"type": "Feature", "geometry": {"type": "Point", "coordinates": [13.2615082, 52.4673699]}, "properties": {"id": "5723205465", "name": "Jagdschloss Grunewald", "street": "Hüttenweg 100", "zip-code": 14193.0, "city": "Berlin", "planning-area-id": 6400842}}, {"type": "Feature", "geometry": {"type": "Point", "coordinates": [13.4069139, 52.5215057]}, "properties": {"id": "5875331486", "name": "Illuseum Berlin", "street": "Karl-Liebknecht-Straße 9", "zip-code": 10178.0, "city": "Berlin", "planning-area-id": 1100310}}, {"type": "Feature", "geometry": {"type": "Point", "coordinates": [13.2894689, 52.4588463]}, "properties": {"id": "6119371020", "name": "Culinarium", "street": "", "zip-code": "", "city": "", "planning-area-id": 6400844}}, {"type": "Feature", "geometry": {"type": "Point", "coordinates": [13.5500961, 52.4609975]}, "properties": {"id": "6474864586", "name": "Alice – Museum für Kinder", "street": "", "zip-code": "", "city": "", "planning-area-id": 9200512}}, {"type": "Feature", "geometry": {"type": "Point", "coordinates": [13.4348363, 52.5043179]}, "properties": {"id": "6475506035", "name": "Museum des Kapitalismus", "street": "Köpenicker Straße 127", "zip-code": 10997.0, "city": "Berlin", "planning-area-id": 2300316}}, {"type": "Feature", "geometry": {"type": "Point", "coordinates": [13.3854756, 52.4395718]}, "properties": {"id": "6522039698", "name": "Tempelhof Museum", "street": "Alt-Mariendorf 43", "zip-code": 12107.0, "city": "Berlin", "planning-area-id": 7501133}}, {"type": "Feature", "geometry": {"type": "Point", "coordinates": [13.2862663, 52.5192079]}, "properties": {"id": "6578042743", "name": "Gipsformerei", "street": "Sophie-Charlotten-Straße 17/18", "zip-code": 14059.0, "city": "Berlin", "planning-area-id": 4300412}}, {"type": "Feature", "geometry": {"type": "Point", "coordinates": [13.4084747, 52.520848]}, "properties": {"id": "6834779786", "name": "Little Big City", "street": "Panoramastraße 1A", "zip-code": 10178.0, "city": "Berlin", "planning-area-id": 1100310}}, {"type": "Feature", "geometry": {"type": "Point", "coordinates": [13.4202437, 52.5333155]}, "properties": {"id": "6880841995", "name": "Museum Pankow", "street": "Prenzlauer Allee 227/228", "zip-code": 10405.0, "city": "Berlin", "planning-area-id": 3701556}}, {"type": "Feature", "geometry": {"type": "Point", "coordinates": [13.4226724, 52.5405294]}, "properties": {"id": "6880841996", "name": "MACHmit! Museum für Kinder", "street": "Senefelderstraße 5/6", "zip-code": 10437.0, "city": "Berlin", "planning-area-id": 3601348}}, {"type": "Feature", "geometry": {"type": "Point", "coordinates": [13.2971723, 52.5192239]}, "properties": {"id": "7063453003", "name": "Sammlung Scharf-Gerstenberg", "street": "Schloßstraße 70", "zip-code": 14059.0, "city": "Berlin", "planning-area-id": 4300414}}, {"type": "Feature", "geometry": {"type": "Point", "coordinates": [13.2975972, 52.5188495]}, "properties": {"id": "7063483104", "name": "Abguss-Sammlung Antiker Plastik", "street": "Schloßstraße 69B", "zip-code": 14059.0, "city": "Berlin", "planning-area-id": 4300414}}, {"type": "Feature", "geometry": {"type": "Point", "coordinates": [13.2967436, 52.5187782]}, "properties": {"id": "7063483105", "name": "Heimatmuseum Charlottenburg", "street": "", "zip-code": "", "city": "", "planning-area-id": 4300414}}, {"type": "Feature", "geometry": {"type": "Point", "coordinates": [13.4214133, 52.543528]}, "properties": {"id": "7274621179", "name": "Zimmermeister Brunzel baut ein Mietshaus", "street": "Dunckerstraße 77", "zip-code": 10437.0, "city": "Berlin", "planning-area-id": 3601347}}, {"type": "Feature", "geometry": {"type": "Point", "coordinates": [13.3898033, 52.5174377]}, "properties": {"id": "7773620257", "name": "Cold War Museum", "street": "Unter den Linden 14", "zip-code": 10117.0, "city": "Berlin", "planning-area-id": 1100206}}, {"type": "Feature", "geometry": {"type": "Point", "coordinates": [13.4012274, 52.5170316]}, "properties": {"id": "8413352835", "name": "Humboldt Forum", "street": "", "zip-code": 10178.0, "city": "Berlin", "planning-area-id": 1100206}}, {"type": "Feature", "geometry": {"type": "Point", "coordinates": [13.1386768, 52.4719263]}, "properties": {"id": "8428338215", "name": "Militär-Historisches Museum Berlin-Gatow", "street": "", "zip-code": 14089.0, "city": "Berlin", "planning-area-id": 5400943}}, {"type": "Feature", "geometry": {"type": "Point", "coordinates": [13.3871461, 52.5209131]}, "properties": {"id": "8888473363", "name": "Tränenpalast", "street": "Reichstagufer 17", "zip-code": 10117.0, "city": "Berlin", "planning-area-id": 1100206}}, {"type": "Feature", "geometry": {"type": "Point", "coordinates": [13.4357058, 52.4865039]}, "properties": {"id": "8946648417", "name": "Erdemuseum", "street": "Weichselstraße 52", "zip-code": "", "city": "", "planning-area-id": 8100312}}, {"type": "Feature", "geometry": {"type": "Point", "coordinates": [13.3913957, 52.5087918]}, "properties": {"id": "9272790617", "name": "Disgusting Food Museum", "street": "Schützenstraße 70", "zip-code": 10117.0, "city": "", "planning-area-id": 1100207}}, {"type": "Feature", "geometry": {"type": "Point", "coordinates": [13.3238223, 52.5136141]}, "properties": {"id": "9275262971", "name": "Architekturmuseum", "street": "", "zip-code": "", "city": "", "planning-area-id": 4300622}}, {"type": "Feature", "geometry": {"type": "Point", "coordinates": [13.3975159, 52.5158884]}, "properties": {"id": "9277014760", "name": "Friedrichswerdersche Kirche", "street": "Werderscher Markt 1", "zip-code": 10117.0, "city": "Berlin", "planning-area-id": 1100206}}, {"type": "Feature", "geometry": {"type": "Point", "coordinates": [13.4032861, 52.510452]}, "properties": {"id": "9689247850", "name": "Haus des Papiers", "street": "Seydelstraße 30", "zip-code": 10117.0, "city": "Berlin", "planning-area-id": 1100207}}, {"type": "Feature", "geometry": {"type": "Point", "coordinates": [13.3597341, 52.4978636]}, "properties": {"id": "9741714717", "name": "Das kleine Grosz Museum", "street": "Bülowstraße 18", "zip-code": 10783.0, "city": "", "planning-area-id": 7100103}}, {"type": "Feature", "geometry": {"type": "Point", "coordinates": [13.4452761, 52.5028154]}, "properties": {"id": "9806828893", "name": "The Wall Museum", "street": "Mühlenstraße 80", "zip-code": 10243.0, "city": "Berlin", "planning-area-id": 2400625}}, {"type": "Feature", "geometry": {"type": "Point", "coordinates": [13.4339213, 52.4658388]}, "properties": {"id": "9926784273", "name": "Bibellabor", "street": "Kranoldstraße 17", "zip-code": "", "city": "", "planning-area-id": 8100209}}, {"type": "Feature", "geometry": {"type": "Point", "coordinates": [13.2920498, 52.5205542]}, "properties": {"id": "9979815161", "name": "Käthe-Kollwitz-Museum Berlin", "street": "", "zip-code": "", "city": "", "planning-area-id": 4300412}}, {"type": "Feature", "geometry": {"type": "Point", "coordinates": [13.2958372, 52.5209193]}, "properties": {"id": "9979815162", "name": "Schloss Charlottenburg", "street": "Spandauer Damm 10", "zip-code": 14059.0, "city": "Berlin", "planning-area-id": 4300412}}, {"type": "Feature", "geometry": {"type": "Point", "coordinates": [13.3405293, 52.53393]}, "properties": {"id": "10003644033", "name": "Museum der Trostfrauen", "street": "Quitzowstraße 103", "zip-code": 10551.0, "city": "Berlin", "planning-area-id": 1200520}}, {"type": "Feature", "geometry": {"type": "Point", "coordinates": [13.3885333, 52.4876934]}, "properties": {"id": "10029372863", "name": "Kurt Mühlenhaupt Museum", "street": "Fidicinstraße 40", "zip-code": 10965.0, "city": "Berlin", "planning-area-id": 2200211}}, {"type": "Feature", "geometry": {"type": "Point", "coordinates": [13.3683003, 52.5301032]}, "properties": {"id": "10041423479", "name": "Haus Kunst Mitte", "street": "Heidestraße 54", "zip-code": 10557.0, "city": "Berlin", "planning-area-id": 1200624}}, {"type": "Feature", "geometry": {"type": "Point", "coordinates": [13.3904195, 52.5174509]}, "properties": {"id": "10142723917", "name": "Bud Spencer Museum", "street": "Unter den Linden 10", "zip-code": 10117.0, "city": "", "planning-area-id": 1100206}}, {"type": "Feature", "geometry": {"type": "Point", "coordinates": [13.3970543, 52.3878047]}, "properties": {"id": "10804128222", "name": "Kindermuseum unterm Dach", "street": "Steinstraße 41", "zip-code": "", "city": "", "planning-area-id": 7601544}}, {"type": "Feature", "geometry": {"type": "Point", "coordinates": [13.3940895, 52.5275959]}, "properties": {"id": "10855520708", "name": "neugerriemschneider", "street": "Linienstraße 155", "zip-code": 10115.0, "city": "", "planning-area-id": 1100309}}, {"type": "Feature", "geometry": {"type": "Point", "coordinates": [13.4122893, 52.5262515]}, "properties": {"id": "10855541805", "name": "BQ", "street": "Weydingerstraße 10", "zip-code": 10178.0, "city": "", "planning-area-id": 1100310}}, {"type": "Feature", "geometry": {"type": "Point", "coordinates": [13.3880411, 52.5077349]}, "properties": {"id": "10959576469", "name": "TimeRide - Berlin 1985 und VR-Stadtrundgänge", "street": "Zimmerstraße 91", "zip-code": 10117.0, "city": "Berlin", "planning-area-id": 1100205}}, {"type": "Feature", "geometry": {"type": "Point", "coordinates": [13.5786101, 52.4549647]}, "properties": {"id": "10992121591", "name": "Gedenkstätte Köpenicker Blutwoche", "street": "Puchanstraße 12", "zip-code": "", "city": "", "planning-area-id": 9501939}}, {"type": "Feature", "geometry": {"type": "Point", "coordinates": [13.4374274, 52.4223917]}, "properties": {"id": "11094595135", "name": "Heimatmuseum", "street": "", "zip-code": "", "city": "", "planning-area-id": 8200832}}, {"type": "Feature", "geometry": {"type": "Point", "coordinates": [13.3803524, 52.5029022]}, "properties": {"id": "11203063853", "name": "Berlin Story Bunker", "street": "", "zip-code": "", "city": "", "planning-area-id": 2100101}}, {"type": "Feature", "geometry": {"type": "Point", "coordinates": [13.3889157, 52.5257323]}, "properties": {"id": "11272995330", "name": "Fotografiska Berlin", "street": "Oranienburger Straße 54", "zip-code": 10117.0, "city": "Berlin", "planning-area-id": 1100309}}, {"type": "Feature", "geometry": {"type": "Point", "coordinates": [13.3964109, 52.5186662]}, "properties": {"id": "11629695656", "name": "Deutsches Historisches Museum – Pei-Bau (Ausstellungsbau)", "street": "Hinter dem Zeughaus 3", "zip-code": 10117.0, "city": "Berlin", "planning-area-id": 1100206}}, {"type": "Feature", "geometry": {"type": "Point", "coordinates": [13.3968995, 52.519358]}, "properties": {"id": "11629726405", "name": "Haus Bastian – Zentrum für kulturelle Bildung", "street": "Am Kupfergraben 10", "zip-code": 10117.0, "city": "Berlin", "planning-area-id": 1100206}}]}