{"type": "FeatureCollection", "features": [{"type": "Feature", "geometry": {"type": "Point", "coordinates": [13.5983058, 52.4104296]}, "properties": {"id": "27446265", "name": "Regattastraße/Sportpromenade", "street": "", "zip-code": "", "city": "", "planning-area-id": 9301126}}, {"type": "Feature", "geometry": {"type": "Point", "coordinates": [13.3448975, 52.5467123]}, "properties": {"id": "30302050", "name": "Seestraße/Amrumer Straße", "street": "", "zip-code": "", "city": "", "planning-area-id": 1400942}}, {"type": "Feature", "geometry": {"type": "Point", "coordinates": [13.4138898, 52.5537705]}, "properties": {"id": "30303888", "name": "Schönhauser Allee/Bornholmer Straße", "street": "", "zip-code": "", "city": "", "planning-area-id": 3601141}}, {"type": "Feature", "geometry": {"type": "Point", "coordinates": [13.4026406, 52.5552992]}, "properties": {"id": "30303894", "name": "Björnsonstraße", "street": "", "zip-code": "", "city": "", "planning-area-id": 3601139}}, {"type": "Feature", "geometry": {"type": "Point", "coordinates": [13.4144934, 52.5542024]}, "properties": {"id": "30303950", "name": "Schönhauser Allee/Bornholmer Straße", "street": "", "zip-code": "", "city": "", "planning-area-id": 3601139}}, {"type": "Feature", "geometry": {"type": "Point", "coordinates": [13.4238019, 52.5527208]}, "properties": {"id": "30303956", "name": "Stahlheimer Straße/Wisbyer Straße", "street": "", "zip-code": "", "city": "", "planning-area-id": 3601243}}, {"type": "Feature", "geometry": {"type": "Point", "coordinates": [13.4295126, 52.5514112]}, "properties": {"id": "30304940", "name": "Prenzlauer Allee/Ostseestraße", "street": "", "zip-code": "", "city": "", "planning-area-id": 3601244}}, {"type": "Feature", "geometry": {"type": "Point", "coordinates": [13.4300239, 52.5507797]}, "properties": {"id": "30304944", "name": "Prenzlauer Allee/Ostseestraße", "street": "", "zip-code": "", "city": "", "planning-area-id": 3601245}}, {"type": "Feature", "geometry": {"type": "Point", "coordinates": [13.4299757, 52.5566797]}, "properties": {"id": "30304965", "name": "Prenzlauer Promenade/Am Steinberg", "street": "", "zip-code": "", "city": "", "planning-area-id": 3500934}}, {"type": "Feature", "geometry": {"type": "Point", "coordinates": [13.427615, 52.5452352]}, "properties": {"id": "30305102", "name": "S Prenzlauer Allee", "street": "", "zip-code": "", "city": "", "planning-area-id": 3601245}}, {"type": "Feature", "geometry": {"type": "Point", "coordinates": [13.4244774, 52.5396527]}, "properties": {"id": "30305106", "name": "Prenzlauer Allee/Danziger Straße", "street": "", "zip-code": "", "city": "", "planning-area-id": 3701657}}, {"type": "Feature", "geometry": {"type": "Point", "coordinates": [13.4239921, 52.5387517]}, "properties": {"id": "30305107", "name": "Prenzlauer Allee/Danziger Straße", "street": "", "zip-code": "", "city": "", "planning-area-id": 3701555}}, {"type": "Feature", "geometry": {"type": "Point", "coordinates": [13.4247224, 52.5390557]}, "properties": {"id": "30305113", "name": "Prenzlauer Allee/Danziger Straße", "street": "", "zip-code": "", "city": "", "planning-area-id": 3701657}}, {"type": "Feature", "geometry": {"type": "Point", "coordinates": [13.4280022, 52.5378916]}, "properties": {"id": "30305114", "name": "Winsstraße", "street": "", "zip-code": "", "city": "", "planning-area-id": 3701657}}, {"type": "Feature", "geometry": {"type": "Point", "coordinates": [13.4294221, 52.5374399]}, "properties": {"id": "30305118", "name": "Winsstraße", "street": "", "zip-code": "", "city": "", "planning-area-id": 3701657}}, {"type": "Feature", "geometry": {"type": "Point", "coordinates": [13.4127872, 52.5632037]}, "properties": {"id": "30305213", "name": "Masurenstraße", "street": "", "zip-code": "", "city": "", "planning-area-id": 3400826}}, {"type": "Feature", "geometry": {"type": "Point", "coordinates": [13.4286019, 52.5818061]}, "properties": {"id": "30554096", "name": "Galenusstraße", "street": "", "zip-code": "", "city": "", "planning-area-id": 3400724}}, {"type": "Feature", "geometry": {"type": "Point", "coordinates": [13.4276065, 52.5773178]}, "properties": {"id": "30554100", "name": "S Pankow-Heinersdorf", "street": "", "zip-code": "", "city": "", "planning-area-id": 3400724}}, {"type": "Feature", "geometry": {"type": "Point", "coordinates": [13.4192595, 52.5750424]}, "properties": {"id": "30554105", "name": "Mendelstraße", "street": "", "zip-code": "", "city": "", "planning-area-id": 3400723}}, {"type": "Feature", "geometry": {"type": "Point", "coordinates": [13.4106484, 52.5711633]}, "properties": {"id": "30554110", "name": "Pankow Kirche", "street": "", "zip-code": "", "city": "", "planning-area-id": 3400723}}, {"type": "Feature", "geometry": {"type": "Point", "coordinates": [13.4328707, 52.5963302]}, "properties": {"id": "30558129", "name": "Rosenthaler Straße", "street": "", "zip-code": "", "city": "", "planning-area-id": 3200308}}, {"type": "Feature", "geometry": {"type": "Point", "coordinates": [13.3971487, 52.5800908]}, "properties": {"id": "30561497", "name": "Pastor-Niemöller-Platz", "street": "", "zip-code": "", "city": "", "planning-area-id": 3200206}}, {"type": "Feature", "geometry": {"type": "Point", "coordinates": [13.3921181, 52.582622]}, "properties": {"id": "30561525", "name": "Am Iderfenngraben", "street": "", "zip-code": "", "city": "", "planning-area-id": 3200206}}, {"type": "Feature", "geometry": {"type": "Point", "coordinates": [13.4602303, 52.5599523]}, "properties": {"id": "30624481", "name": "Pasedagplatz", "street": "", "zip-code": "", "city": "", "planning-area-id": 3501037}}, {"type": "Feature", "geometry": {"type": "Point", "coordinates": [13.4760326, 52.5533362]}, "properties": {"id": "30625116", "name": "Sulzfelder Straße", "street": "", "zip-code": "", "city": "", "planning-area-id": 3501038}}, {"type": "Feature", "geometry": {"type": "Point", "coordinates": [13.480374, 52.5531803]}, "properties": {"id": "30625241", "name": "Hansastraße/Buschallee", "street": "", "zip-code": "", "city": "", "planning-area-id": 3501038}}, {"type": "Feature", "geometry": {"type": "Point", "coordinates": [13.4805827, 52.5537608]}, "properties": {"id": "30684945", "name": "Hansastraße/Buschallee", "street": "", "zip-code": "", "city": "", "planning-area-id": 3501038}}, {"type": "Feature", "geometry": {"type": "Point", "coordinates": [13.4957441, 52.559939]}, "properties": {"id": "30684954", "name": "Feldtmannstraße", "street": "", "zip-code": "", "city": "", "planning-area-id": 11200410}}, {"type": "Feature", "geometry": {"type": "Point", "coordinates": [13.4999139, 52.5613788]}, "properties": {"id": "30684955", "name": "Hansastraße/Malchower Weg", "street": "", "zip-code": "", "city": "", "planning-area-id": 11200410}}, {"type": "Feature", "geometry": {"type": "Point", "coordinates": [13.4796281, 52.5351119]}, "properties": {"id": "30684982", "name": "Altenhofer Straße", "street": "", "zip-code": "", "city": "", "planning-area-id": 11200514}}, {"type": "Feature", "geometry": {"type": "Point", "coordinates": [13.476705, 52.532258]}, "properties": {"id": "30684987", "name": "Landsberger Allee/Weißenseer Weg", "street": "", "zip-code": "", "city": "", "planning-area-id": 11300620}}, {"type": "Feature", "geometry": {"type": "Point", "coordinates": [13.5063374, 52.5636616]}, "properties": {"id": "30689860", "name": "Prerower Platz", "street": "", "zip-code": "", "city": "", "planning-area-id": 11100309}}, {"type": "Feature", "geometry": {"type": "Point", "coordinates": [13.5046117, 52.5638559]}, "properties": {"id": "30689934", "name": "Prerower Platz", "street": "", "zip-code": "", "city": "", "planning-area-id": 11100308}}, {"type": "Feature", "geometry": {"type": "Point", "coordinates": [13.4973963, 52.5701623]}, "properties": {"id": "30689973", "name": "Zingster Straße/Ribnitzer Straße", "street": "", "zip-code": "", "city": "", "planning-area-id": 11100307}}, {"type": "Feature", "geometry": {"type": "Point", "coordinates": [13.5203133, 52.5685744]}, "properties": {"id": "30690321", "name": "Prendener Straße", "street": "", "zip-code": "", "city": "", "planning-area-id": 11100204}}, {"type": "Feature", "geometry": {"type": "Point", "coordinates": [13.5020039, 52.5661358]}, "properties": {"id": "30690550", "name": "Ahrenshooper Straße", "street": "", "zip-code": "", "city": "", "planning-area-id": 11100308}}, {"type": "Feature", "geometry": {"type": "Point", "coordinates": [13.5265911, 52.5698506]}, "properties": {"id": "30691227", "name": "Falkenberg", "street": "", "zip-code": "", "city": "", "planning-area-id": 11100205}}, {"type": "Feature", "geometry": {"type": "Point", "coordinates": [13.5091772, 52.5508154]}, "properties": {"id": "30692597", "name": "Gehrenseestraße", "street": "", "zip-code": "", "city": "", "planning-area-id": 11200410}}, {"type": "Feature", "geometry": {"type": "Point", "coordinates": [13.4615084, 52.5304884]}, "properties": {"id": "30693019", "name": "Oderbruchstraße", "street": "", "zip-code": "", "city": "", "planning-area-id": 3601450}}, {"type": "Feature", "geometry": {"type": "Point", "coordinates": [13.4869072, 52.5339119]}, "properties": {"id": "30694255", "name": "Zechliner Straße", "street": "", "zip-code": "", "city": "", "planning-area-id": 11300721}}, {"type": "Feature", "geometry": {"type": "Point", "coordinates": [13.4948771, 52.53439]}, "properties": {"id": "30694268", "name": "Genslerstraße", "street": "", "zip-code": "", "city": "", "planning-area-id": 11300721}}, {"type": "Feature", "geometry": {"type": "Point", "coordinates": [13.5066484, 52.5349408]}, "properties": {"id": "30694279", "name": "Arendsweg", "street": "", "zip-code": "", "city": "", "planning-area-id": 11200515}}, {"type": "Feature", "geometry": {"type": "Point", "coordinates": [13.5181868, 52.5357322]}, "properties": {"id": "30694284", "name": "Landsberger Allee/Rhinstraße", "street": "", "zip-code": "", "city": "", "planning-area-id": 11200515}}, {"type": "Feature", "geometry": {"type": "Point", "coordinates": [13.5244371, 52.5366428]}, "properties": {"id": "30694289", "name": "Dingelstädter Straße", "street": "", "zip-code": "", "city": "", "planning-area-id": 10100311}}, {"type": "Feature", "geometry": {"type": "Point", "coordinates": [13.5341226, 52.5390995]}, "properties": {"id": "30694295", "name": "Gewerbepark Georg Knorr", "street": "", "zip-code": "", "city": "", "planning-area-id": 10100311}}, {"type": "Feature", "geometry": {"type": "Point", "coordinates": [13.5573621, 52.5465019]}, "properties": {"id": "30694319", "name": "Freizeitforum Marzahn", "street": "", "zip-code": "", "city": "", "planning-area-id": 10100210}}, {"type": "Feature", "geometry": {"type": "Point", "coordinates": [13.565478, 52.5537187]}, "properties": {"id": "30694331", "name": "Max-Herrmann-Straße", "street": "", "zip-code": "", "city": "", "planning-area-id": 10100208}}, {"type": "Feature", "geometry": {"type": "Point", "coordinates": [13.5619425, 52.5472111]}, "properties": {"id": "30694334", "name": "Jan-Petersen-Straße", "street": "", "zip-code": "", "city": "", "planning-area-id": 10100210}}, {"type": "Feature", "geometry": {"type": "Point", "coordinates": [13.5682656, 52.5577949]}, "properties": {"id": "30694352", "name": "Wuhletalstraße", "street": "", "zip-code": "", "city": "", "planning-area-id": 10100206}}, {"type": "Feature", "geometry": {"type": "Point", "coordinates": [13.5718576, 52.5650166]}, "properties": {"id": "30694375", "name": "Niemegker Straße", "street": "", "zip-code": "", "city": "", "planning-area-id": 10100104}}, {"type": "Feature", "geometry": {"type": "Point", "coordinates": [13.5747394, 52.5682711]}, "properties": {"id": "30694376", "name": "Barnimplatz", "street": "", "zip-code": "", "city": "", "planning-area-id": 10100102}}, {"type": "Feature", "geometry": {"type": "Point", "coordinates": [13.5741703, 52.5726002]}, "properties": {"id": "30694391", "name": "Ahrensfelde/Stadtgrenze", "street": "", "zip-code": "", "city": "", "planning-area-id": 10100102}}, {"type": "Feature", "geometry": {"type": "Point", "coordinates": [13.5727623, 52.5464096]}, "properties": {"id": "30694394", "name": "Landsberger Allee/Blumberger Damm", "street": "", "zip-code": "", "city": "", "planning-area-id": 10100316}}, {"type": "Feature", "geometry": {"type": "Point", "coordinates": [13.5787187, 52.5479864]}, "properties": {"id": "30694396", "name": "Brodowiner Ring", "street": "", "zip-code": "", "city": "", "planning-area-id": 10100316}}, {"type": "Feature", "geometry": {"type": "Point", "coordinates": [13.5871358, 52.5490935]}, "properties": {"id": "30694741", "name": "Landsberger Chaussee/Zossener Straße", "street": "", "zip-code": "", "city": "", "planning-area-id": 10200417}}, {"type": "Feature", "geometry": {"type": "Point", "coordinates": [13.587435, 52.5454601]}, "properties": {"id": "30694746", "name": "Michendorfer Straße", "street": "", "zip-code": "", "city": "", "planning-area-id": 10200418}}, {"type": "Feature", "geometry": {"type": "Point", "coordinates": [13.5989829, 52.5438862]}, "properties": {"id": "30694748", "name": "Zossener Straße/Kastanienallee", "street": "", "zip-code": "", "city": "", "planning-area-id": 10200419}}, {"type": "Feature", "geometry": {"type": "Point", "coordinates": [13.6211499, 52.5307469]}, "properties": {"id": "30694767", "name": "Riesaer Straße/Louis-Lewin-Straße", "street": "", "zip-code": "", "city": "", "planning-area-id": 10200524}}, {"type": "Feature", "geometry": {"type": "Point", "coordinates": [13.6234797, 52.5293723]}, "properties": {"id": "30694780", "name": "Riesaer Straße", "street": "", "zip-code": "", "city": "", "planning-area-id": 10200525}}, {"type": "Feature", "geometry": {"type": "Point", "coordinates": [13.5302267, 52.5254798]}, "properties": {"id": "30694949", "name": "Beilsteiner Straße", "street": "", "zip-code": "", "city": "", "planning-area-id": 10100311}}, {"type": "Feature", "geometry": {"type": "Point", "coordinates": [13.5211177, 52.5258353]}, "properties": {"id": "30694953", "name": "Allee der Kosmonauten/Rhinstraße", "street": "", "zip-code": "", "city": "", "planning-area-id": 10100311}}, {"type": "Feature", "geometry": {"type": "Point", "coordinates": [13.5196343, 52.5254439]}, "properties": {"id": "30694959", "name": "Allee der Kosmonauten/Rhinstraße", "street": "", "zip-code": "", "city": "", "planning-area-id": 10100311}}, {"type": "Feature", "geometry": {"type": "Point", "coordinates": [13.5192685, 52.5294311]}, "properties": {"id": "30694960", "name": "Meeraner Straße", "street": "", "zip-code": "", "city": "", "planning-area-id": 10100311}}, {"type": "Feature", "geometry": {"type": "Point", "coordinates": [13.5167808, 52.5362433]}, "properties": {"id": "30694967", "name": "Landsberger Allee/Rhinstraße", "street": "", "zip-code": "", "city": "", "planning-area-id": 11200515}}, {"type": "Feature", "geometry": {"type": "Point", "coordinates": [13.5146099, 52.539004]}, "properties": {"id": "30694968", "name": "Rhinstraße/Plauener Straße", "street": "", "zip-code": "", "city": "", "planning-area-id": 11200515}}, {"type": "Feature", "geometry": {"type": "Point", "coordinates": [13.5084195, 52.5254615]}, "properties": {"id": "30695361", "name": "Ev. Krankenhaus KEH", "street": "", "zip-code": "", "city": "", "planning-area-id": 11300721}}, {"type": "Feature", "geometry": {"type": "Point", "coordinates": [13.4784194, 52.5266198]}, "properties": {"id": "30695385", "name": "Roederplatz", "street": "", "zip-code": "", "city": "", "planning-area-id": 11300617}}, {"type": "Feature", "geometry": {"type": "Point", "coordinates": [13.4626653, 52.5291972]}, "properties": {"id": "30695390", "name": "Karl-Lade-Straße", "street": "", "zip-code": "", "city": "", "planning-area-id": 11300617}}, {"type": "Feature", "geometry": {"type": "Point", "coordinates": [13.4795469, 52.523331]}, "properties": {"id": "30695393", "name": "Möllendorffstraße/Storkower Straße", "street": "", "zip-code": "", "city": "", "planning-area-id": 11300619}}, {"type": "Feature", "geometry": {"type": "Point", "coordinates": [13.4042441, 52.5204243]}, "properties": {"id": "30731481", "name": "Spandauer Straße/Marienkirche", "street": "", "zip-code": "", "city": "", "planning-area-id": 1100310}}, {"type": "Feature", "geometry": {"type": "Point", "coordinates": [13.4147332, 52.5221645]}, "properties": {"id": "30731497", "name": "U Alexanderplatz", "street": "", "zip-code": "", "city": "", "planning-area-id": 1100310}}, {"type": "Feature", "geometry": {"type": "Point", "coordinates": [13.4204682, 52.5249909]}, "properties": {"id": "30731498", "name": "Mollstraße/Otto-Braun-Straße", "street": "", "zip-code": "", "city": "", "planning-area-id": 1100311}}, {"type": "Feature", "geometry": {"type": "Point", "coordinates": [13.4202755, 52.5255473]}, "properties": {"id": "30731507", "name": "Mollstraße/Otto-Braun-Straße", "street": "", "zip-code": "", "city": "", "planning-area-id": 2400520}}, {"type": "Feature", "geometry": {"type": "Point", "coordinates": [13.4115103, 52.5208822]}, "properties": {"id": "30731508", "name": "S+U Alexanderplatz/Gontardstraße", "street": "", "zip-code": "", "city": "", "planning-area-id": 1100310}}, {"type": "Feature", "geometry": {"type": "Point", "coordinates": [13.3873633, 52.5258817]}, "properties": {"id": "30731700", "name": "U Oranienburger Tor", "street": "", "zip-code": "", "city": "", "planning-area-id": 1100308}}, {"type": "Feature", "geometry": {"type": "Point", "coordinates": [13.4108348, 52.528517]}, "properties": {"id": "30732016", "name": "U Rosa-Luxemburg-Platz", "street": "", "zip-code": "", "city": "", "planning-area-id": 1100310}}, {"type": "Feature", "geometry": {"type": "Point", "coordinates": [13.4116514, 52.5236711]}, "properties": {"id": "30732068", "name": "S+U Alexanderplatz/Memhardstraße", "street": "", "zip-code": "", "city": "", "planning-area-id": 1100310}}, {"type": "Feature", "geometry": {"type": "Point", "coordinates": [13.4165112, 52.5278448]}, "properties": {"id": "30732071", "name": "Mollstraße/Prenzlauer Allee", "street": "", "zip-code": "", "city": "", "planning-area-id": 3701556}}, {"type": "Feature", "geometry": {"type": "Point", "coordinates": [13.4195273, 52.5312171]}, "properties": {"id": "30733475", "name": "Prenzlauer Allee/Metzer Straße", "street": "", "zip-code": "", "city": "", "planning-area-id": 3701556}}, {"type": "Feature", "geometry": {"type": "Point", "coordinates": [13.4208437, 52.5334293]}, "properties": {"id": "30733478", "name": "Knaackstraße", "street": "", "zip-code": "", "city": "", "planning-area-id": 3701556}}, {"type": "Feature", "geometry": {"type": "Point", "coordinates": [13.4225029, 52.5362333]}, "properties": {"id": "30733479", "name": "Marienburger Straße", "street": "", "zip-code": "", "city": "", "planning-area-id": 3701555}}, {"type": "Feature", "geometry": {"type": "Point", "coordinates": [13.4416553, 52.5435991]}, "properties": {"id": "30733487", "name": "Thomas-Mann-Straße", "street": "", "zip-code": "", "city": "", "planning-area-id": 3601449}}, {"type": "Feature", "geometry": {"type": "Point", "coordinates": [13.4517416, 52.5484803]}, "properties": {"id": "30733493", "name": "Antonplatz", "street": "", "zip-code": "", "city": "", "planning-area-id": 3500936}}, {"type": "Feature", "geometry": {"type": "Point", "coordinates": [13.440803, 52.5516729]}, "properties": {"id": "30733501", "name": "Friesickestraße", "street": "", "zip-code": "", "city": "", "planning-area-id": 3500934}}, {"type": "Feature", "geometry": {"type": "Point", "coordinates": [13.4348544, 52.5622499]}, "properties": {"id": "30733522", "name": "Tino-Schwierzina-Straße", "street": "", "zip-code": "", "city": "", "planning-area-id": 3300516}}, {"type": "Feature", "geometry": {"type": "Point", "coordinates": [13.4360911, 52.5653634]}, "properties": {"id": "30733524", "name": "Am Wasserturm", "street": "", "zip-code": "", "city": "", "planning-area-id": 3300516}}, {"type": "Feature", "geometry": {"type": "Point", "coordinates": [13.4447167, 52.5291671]}, "properties": {"id": "30734427", "name": "Paul-Heyse-Straße", "street": "", "zip-code": "", "city": "", "planning-area-id": 3601452}}, {"type": "Feature", "geometry": {"type": "Point", "coordinates": [13.4522943, 52.5196343]}, "properties": {"id": "30734435", "name": "Bersarinplatz", "street": "", "zip-code": "", "city": "", "planning-area-id": 2500726}}, {"type": "Feature", "geometry": {"type": "Point", "coordinates": [13.4526058, 52.5122375]}, "properties": {"id": "30734503", "name": "Grünberger Straße/Warschauer Straße", "street": "", "zip-code": "", "city": "", "planning-area-id": 2500833}}, {"type": "Feature", "geometry": {"type": "Point", "coordinates": [13.4847623, 52.4971668]}, "properties": {"id": "30736267", "name": "Kosanke-Siedlung", "street": "", "zip-code": "", "city": "", "planning-area-id": 11501238}}, {"type": "Feature", "geometry": {"type": "Point", "coordinates": [13.4906093, 52.4931464]}, "properties": {"id": "30736270", "name": "Gustav-Holzmann-Straße", "street": "", "zip-code": "", "city": "", "planning-area-id": 11501238}}, {"type": "Feature", "geometry": {"type": "Point", "coordinates": [13.495864, 52.4881352]}, "properties": {"id": "30736271", "name": "Heizkraftwerk Klingenberg", "street": "", "zip-code": "", "city": "", "planning-area-id": 11501238}}, {"type": "Feature", "geometry": {"type": "Point", "coordinates": [13.5251316, 52.481264]}, "properties": {"id": "30736427", "name": "S Karlshorst", "street": "", "zip-code": "", "city": "", "planning-area-id": 11501341}}, {"type": "Feature", "geometry": {"type": "Point", "coordinates": [13.5266007, 52.4927665]}, "properties": {"id": "30736431", "name": "Treskowallee/HTW", "street": "", "zip-code": "", "city": "", "planning-area-id": 11501339}}, {"type": "Feature", "geometry": {"type": "Point", "coordinates": [13.5190656, 52.5139723]}, "properties": {"id": "30736442", "name": "S Friedrichsfelde Ost", "street": "", "zip-code": "", "city": "", "planning-area-id": 11401032}}, {"type": "Feature", "geometry": {"type": "Point", "coordinates": [13.5394706, 52.4576241]}, "properties": {"id": "31524735", "name": "Weiskopffstraße", "street": "", "zip-code": "", "city": "", "planning-area-id": 9200512}}, {"type": "Feature", "geometry": {"type": "Point", "coordinates": [13.3516304, 52.5502459]}, "properties": {"id": "35528193", "name": "U Seestraße", "street": "", "zip-code": "", "city": "", "planning-area-id": 1400942}}, {"type": "Feature", "geometry": {"type": "Point", "coordinates": [13.5098227, 52.5457156]}, "properties": {"id": "50808874", "name": "Rhinstraße/Gärtnerstraße", "street": "", "zip-code": "", "city": "", "planning-area-id": 11200411}}, {"type": "Feature", "geometry": {"type": "Point", "coordinates": [13.4844148, 52.5399029]}, "properties": {"id": "52776952", "name": "Simon-Bolivar-Straße", "street": "", "zip-code": "", "city": "", "planning-area-id": 11200513}}, {"type": "Feature", "geometry": {"type": "Point", "coordinates": [13.6092949, 52.5111719]}, "properties": {"id": "59851047", "name": "S Mahlsdorf", "street": "", "zip-code": "", "city": "", "planning-area-id": 10400939}}, {"type": "Feature", "geometry": {"type": "Point", "coordinates": [13.5752688, 52.4242962]}, "properties": {"id": "79408448", "name": "Friedrich-Wolf-Straße", "street": "", "zip-code": "", "city": "", "planning-area-id": 9301126}}, {"type": "Feature", "geometry": {"type": "Point", "coordinates": [13.5604679, 52.5380642]}, "properties": {"id": "85897703", "name": "Adersleber Weg", "street": "", "zip-code": "", "city": "", "planning-area-id": 10100314}}, {"type": "Feature", "geometry": {"type": "Point", "coordinates": [13.4334573, 52.5232307]}, "properties": {"id": "87018549", "name": "Platz der Vereinten Nationen", "street": "", "zip-code": "", "city": "", "planning-area-id": 2400521}}, {"type": "Feature", "geometry": {"type": "Point", "coordinates": [13.4274985, 52.5231179]}, "properties": {"id": "87018550", "name": "Büschingstraße", "street": "", "zip-code": "", "city": "", "planning-area-id": 2400520}}, {"type": "Feature", "geometry": {"type": "Point", "coordinates": [13.4138505, 52.5495502]}, "properties": {"id": "91711812", "name": "S+U Schönhauser Allee", "street": "", "zip-code": "", "city": "", "planning-area-id": 3601141}}, {"type": "Feature", "geometry": {"type": "Point", "coordinates": [13.4125522, 52.5449538]}, "properties": {"id": "91711823", "name": "Milastraße", "street": "", "zip-code": "", "city": "", "planning-area-id": 3601142}}, {"type": "Feature", "geometry": {"type": "Point", "coordinates": [13.4196558, 52.6060687]}, "properties": {"id": "92627145", "name": "Hugenottenplatz", "street": "", "zip-code": "", "city": "", "planning-area-id": 3200308}}, {"type": "Feature", "geometry": {"type": "Point", "coordinates": [13.424295, 52.6072487]}, "properties": {"id": "92627148", "name": "Arnouxstraße", "street": "", "zip-code": "", "city": "", "planning-area-id": 3200310}}, {"type": "Feature", "geometry": {"type": "Point", "coordinates": [13.4314825, 52.6017309]}, "properties": {"id": "92627167", "name": "Blankenfelder Straße", "street": "", "zip-code": "", "city": "", "planning-area-id": 3200308}}, {"type": "Feature", "geometry": {"type": "Point", "coordinates": [13.5631525, 52.4565253]}, "properties": {"id": "94941339", "name": "Alte Försterei", "street": "", "zip-code": "", "city": "", "planning-area-id": 9501939}}, {"type": "Feature", "geometry": {"type": "Point", "coordinates": [13.5586012, 52.455916]}, "properties": {"id": "94941344", "name": "Spindlersfelder Straße", "street": "", "zip-code": "", "city": "", "planning-area-id": 9501939}}, {"type": "Feature", "geometry": {"type": "Point", "coordinates": [13.5501064, 52.4566234]}, "properties": {"id": "94941350", "name": "Nixenstraße", "street": "", "zip-code": "", "city": "", "planning-area-id": 9200512}}, {"type": "Feature", "geometry": {"type": "Point", "coordinates": [13.5436031, 52.4575779]}, "properties": {"id": "94941359", "name": "Freizeit- und Erholungszentrum", "street": "", "zip-code": "", "city": "", "planning-area-id": 9200512}}, {"type": "Feature", "geometry": {"type": "Point", "coordinates": [13.5710431, 52.4516146]}, "properties": {"id": "94942335", "name": "Bahnhofstraße/Lindenstraße", "street": "", "zip-code": "", "city": "", "planning-area-id": 9501939}}, {"type": "Feature", "geometry": {"type": "Point", "coordinates": [13.5861832, 52.4410441]}, "properties": {"id": "94951410", "name": "Pablo-Neruda-Straße", "street": "", "zip-code": "", "city": "", "planning-area-id": 9401534}}, {"type": "Feature", "geometry": {"type": "Point", "coordinates": [13.5754514, 52.4443426]}, "properties": {"id": "94951419", "name": "Schloßplatz Köpenick", "street": "", "zip-code": "", "city": "", "planning-area-id": 9401534}}, {"type": "Feature", "geometry": {"type": "Point", "coordinates": [13.5620331, 52.4453228]}, "properties": {"id": "94963733", "name": "S Spindlersfeld", "street": "", "zip-code": "", "city": "", "planning-area-id": 9200819}}, {"type": "Feature", "geometry": {"type": "Point", "coordinates": [13.6143398, 52.5321781]}, "properties": {"id": "95911874", "name": "Jenaer Straße", "street": "", "zip-code": "", "city": "", "planning-area-id": 10200524}}, {"type": "Feature", "geometry": {"type": "Point", "coordinates": [13.5927651, 52.5447344]}, "properties": {"id": "95914718", "name": "Alte Hellersdorfer Straße/Zossener Straße", "street": "", "zip-code": "", "city": "", "planning-area-id": 10200418}}, {"type": "Feature", "geometry": {"type": "Point", "coordinates": [13.5920763, 52.4388396]}, "properties": {"id": "95948746", "name": "Krankenhaus Köpenick/Südseite", "street": "", "zip-code": "", "city": "", "planning-area-id": 9401329}}, {"type": "Feature", "geometry": {"type": "Point", "coordinates": [13.552675, 52.5339031]}, "properties": {"id": "96535655", "name": "Allee der Kosmonauten/Poelchaustraße", "street": "", "zip-code": "", "city": "", "planning-area-id": 10100314}}, {"type": "Feature", "geometry": {"type": "Point", "coordinates": [13.5490456, 52.5288185]}, "properties": {"id": "96535658", "name": "Boschpoler Straße", "street": "", "zip-code": "", "city": "", "planning-area-id": 10100312}}, {"type": "Feature", "geometry": {"type": "Point", "coordinates": [13.5364753, 52.5256938]}, "properties": {"id": "96536154", "name": "S Springpfuhl", "street": "", "zip-code": "", "city": "", "planning-area-id": 10100311}}, {"type": "Feature", "geometry": {"type": "Point", "coordinates": [13.4977506, 52.51236]}, "properties": {"id": "96536918", "name": "S+U Lichtenberg/Siegfriedstraße", "street": "", "zip-code": "", "city": "", "planning-area-id": 11300725}}, {"type": "Feature", "geometry": {"type": "Point", "coordinates": [13.5638356, 52.542096]}, "properties": {"id": "98862012", "name": "Alt-Marzahn", "street": "", "zip-code": "", "city": "", "planning-area-id": 10100313}}, {"type": "Feature", "geometry": {"type": "Point", "coordinates": [13.5611133, 52.5502042]}, "properties": {"id": "98865506", "name": "Bürgerpark Marzahn", "street": "", "zip-code": "", "city": "", "planning-area-id": 10100208}}, {"type": "Feature", "geometry": {"type": "Point", "coordinates": [13.5748224, 52.5727427]}, "properties": {"id": "98867660", "name": "Ahrensfelde/Stadtgrenze", "street": "", "zip-code": "", "city": "", "planning-area-id": 10100102}}, {"type": "Feature", "geometry": {"type": "Point", "coordinates": [13.472126, 52.5357243]}, "properties": {"id": "98871740", "name": "Hohenschönhauser Straße", "street": "", "zip-code": "", "city": "", "planning-area-id": 11300616}}, {"type": "Feature", "geometry": {"type": "Point", "coordinates": [13.4571206, 52.5287726]}, "properties": {"id": "98878581", "name": "S Landsberger Allee", "street": "", "zip-code": "", "city": "", "planning-area-id": 3601450}}, {"type": "Feature", "geometry": {"type": "Point", "coordinates": [13.4382788, 52.5407284]}, "properties": {"id": "98878847", "name": "S Greifswalder Straße", "street": "", "zip-code": "", "city": "", "planning-area-id": 3601449}}, {"type": "Feature", "geometry": {"type": "Point", "coordinates": [13.4858218, 52.5522928]}, "properties": {"id": "98883766", "name": "Orankestrand", "street": "", "zip-code": "", "city": "", "planning-area-id": 3501038}}, {"type": "Feature", "geometry": {"type": "Point", "coordinates": [13.5095067, 52.5508669]}, "properties": {"id": "98884328", "name": "Gehrenseestraße", "street": "", "zip-code": "", "city": "", "planning-area-id": 11200410}}, {"type": "Feature", "geometry": {"type": "Point", "coordinates": [13.5202011, 52.5047159]}, "properties": {"id": "100062685", "name": "Alfred-Kowalke-Straße", "street": "", "zip-code": "", "city": "", "planning-area-id": 11401137}}, {"type": "Feature", "geometry": {"type": "Point", "coordinates": [13.4671092, 52.5484859]}, "properties": {"id": "103923024", "name": "Gounodstraße", "street": "", "zip-code": "", "city": "", "planning-area-id": 3500936}}, {"type": "Feature", "geometry": {"type": "Point", "coordinates": [13.5051916, 52.5488033]}, "properties": {"id": "113639023", "name": "Alt-Hohenschönhausen", "street": "", "zip-code": "", "city": "", "planning-area-id": 11200411}}, {"type": "Feature", "geometry": {"type": "Point", "coordinates": [13.6337903, 52.3864113]}, "properties": {"id": "123139240", "name": "Adlergestell/Vetschauer Allee", "street": "", "zip-code": "", "city": "", "planning-area-id": 9301227}}, {"type": "Feature", "geometry": {"type": "Point", "coordinates": [13.6349375, 52.3911239]}, "properties": {"id": "123139267", "name": "Lübbenauer Weg", "street": "", "zip-code": "", "city": "", "planning-area-id": 9301227}}, {"type": "Feature", "geometry": {"type": "Point", "coordinates": [13.57036, 52.4408436]}, "properties": {"id": "129255755", "name": "Glienicker Straße", "street": "", "zip-code": "", "city": "", "planning-area-id": 9200819}}, {"type": "Feature", "geometry": {"type": "Point", "coordinates": [13.4805355, 52.5384568]}, "properties": {"id": "146866102", "name": "Sandinostraße", "street": "", "zip-code": "", "city": "", "planning-area-id": 11200513}}, {"type": "Feature", "geometry": {"type": "Point", "coordinates": [13.6043407, 52.5389275]}, "properties": {"id": "150543903", "name": "Stendaler Straße/Quedlinburger Straße", "street": "", "zip-code": "", "city": "", "planning-area-id": 10200421}}, {"type": "Feature", "geometry": {"type": "Point", "coordinates": [13.4293062, 52.608242]}, "properties": {"id": "169494133", "name": "Navarraplatz", "street": "", "zip-code": "", "city": "", "planning-area-id": 3200310}}, {"type": "Feature", "geometry": {"type": "Point", "coordinates": [13.3808669, 52.5945425]}, "properties": {"id": "223676384", "name": "Wiesenwinkel", "street": "", "zip-code": "", "city": "", "planning-area-id": 3400618}}, {"type": "Feature", "geometry": {"type": "Point", "coordinates": [13.3909988, 52.5553253]}, "properties": {"id": "223826507", "name": "Grüntaler Straße", "street": "", "zip-code": "", "city": "", "planning-area-id": 1300733}}, {"type": "Feature", "geometry": {"type": "Point", "coordinates": [13.5124151, 52.5551935]}, "properties": {"id": "243457847", "name": "Anna-Ebermann-Straße", "street": "", "zip-code": "", "city": "", "planning-area-id": 11200410}}, {"type": "Feature", "geometry": {"type": "Point", "coordinates": [13.5145413, 52.5587048]}, "properties": {"id": "243458026", "name": "Arnimstraße", "street": "", "zip-code": "", "city": "", "planning-area-id": 11100309}}, {"type": "Feature", "geometry": {"type": "Point", "coordinates": [13.5101671, 52.5599143]}, "properties": {"id": "243458179", "name": "Rüdickenstraße", "street": "", "zip-code": "", "city": "", "planning-area-id": 11100309}}, {"type": "Feature", "geometry": {"type": "Point", "coordinates": [13.5037009, 52.5627532]}, "properties": {"id": "243458261", "name": "Prerower Platz", "street": "", "zip-code": "", "city": "", "planning-area-id": 11100309}}, {"type": "Feature", "geometry": {"type": "Point", "coordinates": [13.4927547, 52.5442504]}, "properties": {"id": "243460382", "name": "Freienwalder Straße", "street": "", "zip-code": "", "city": "", "planning-area-id": 11200513}}, {"type": "Feature", "geometry": {"type": "Point", "coordinates": [13.473882, 52.5356989]}, "properties": {"id": "243460732", "name": "Hohenschönhauser Straße", "street": "", "zip-code": "", "city": "", "planning-area-id": 11200514}}, {"type": "Feature", "geometry": {"type": "Point", "coordinates": [13.4714237, 52.5383802]}, "properties": {"id": "243460915", "name": "Sportforum", "street": "", "zip-code": "", "city": "", "planning-area-id": 11200512}}, {"type": "Feature", "geometry": {"type": "Point", "coordinates": [13.4686831, 52.544219]}, "properties": {"id": "243460954", "name": "Betriebshof Indira-Gandhi-Straße", "street": "", "zip-code": "", "city": "", "planning-area-id": 11200512}}, {"type": "Feature", "geometry": {"type": "Point", "coordinates": [13.4953373, 52.5728631]}, "properties": {"id": "243465044", "name": "Zingster Straße", "street": "", "zip-code": "", "city": "", "planning-area-id": 11100307}}, {"type": "Feature", "geometry": {"type": "Point", "coordinates": [13.494871, 52.5723698]}, "properties": {"id": "243465154", "name": "Zingster Straße", "street": "", "zip-code": "", "city": "", "planning-area-id": 11100307}}, {"type": "Feature", "geometry": {"type": "Point", "coordinates": [13.5258916, 52.5692786]}, "properties": {"id": "243465657", "name": "Welsestraße", "street": "", "zip-code": "", "city": "", "planning-area-id": 11100203}}, {"type": "Feature", "geometry": {"type": "Point", "coordinates": [13.5100149, 52.5351866]}, "properties": {"id": "243830926", "name": "Schalkauer Straße", "street": "", "zip-code": "", "city": "", "planning-area-id": 11200515}}, {"type": "Feature", "geometry": {"type": "Point", "coordinates": [13.3395713, 52.543917]}, "properties": {"id": "243847233", "name": "Virchow-Klinikum", "street": "", "zip-code": "", "city": "", "planning-area-id": 1400938}}, {"type": "Feature", "geometry": {"type": "Point", "coordinates": [13.3585272, 52.5538317]}, "properties": {"id": "243848077", "name": "Osram-Höfe", "street": "", "zip-code": "", "city": "", "planning-area-id": 1401048}}, {"type": "Feature", "geometry": {"type": "Point", "coordinates": [13.3667957, 52.5570401]}, "properties": {"id": "243848348", "name": "Louise-Schroeder-Platz", "street": "", "zip-code": "", "city": "", "planning-area-id": 1401049}}, {"type": "Feature", "geometry": {"type": "Point", "coordinates": [13.3837614, 52.5559072]}, "properties": {"id": "243849130", "name": "Osloer Straße/Prinzenallee", "street": "", "zip-code": "", "city": "", "planning-area-id": 1401045}}, {"type": "Feature", "geometry": {"type": "Point", "coordinates": [13.3962825, 52.5548293]}, "properties": {"id": "243849131", "name": "S Bornholmer Straße", "street": "", "zip-code": "", "city": "", "planning-area-id": 1300733}}, {"type": "Feature", "geometry": {"type": "Point", "coordinates": [13.4377179, 52.570062]}, "properties": {"id": "243850922", "name": "Rothenbachstraße", "street": "", "zip-code": "", "city": "", "planning-area-id": 3300516}}, {"type": "Feature", "geometry": {"type": "Point", "coordinates": [13.4285619, 52.5475501]}, "properties": {"id": "243854585", "name": "Erich-Weinert-Straße", "street": "", "zip-code": "", "city": "", "planning-area-id": 3601245}}, {"type": "Feature", "geometry": {"type": "Point", "coordinates": [13.4258552, 52.5419298]}, "properties": {"id": "243855398", "name": "Fröbelstraße", "street": "", "zip-code": "", "city": "", "planning-area-id": 3701657}}, {"type": "Feature", "geometry": {"type": "Point", "coordinates": [13.5193753, 52.5192733]}, "properties": {"id": "243856643", "name": "Kleingartenanlage Bielefeldt", "street": "", "zip-code": "", "city": "", "planning-area-id": 10100311}}, {"type": "Feature", "geometry": {"type": "Point", "coordinates": [13.4540183, 52.51539]}, "properties": {"id": "243995876", "name": "U Frankfurter Tor", "street": "", "zip-code": "", "city": "", "planning-area-id": 2500830}}, {"type": "Feature", "geometry": {"type": "Point", "coordinates": [13.4500341, 52.5229542]}, "properties": {"id": "243996096", "name": "Straßmannstraße", "street": "", "zip-code": "", "city": "", "planning-area-id": 2500726}}, {"type": "Feature", "geometry": {"type": "Point", "coordinates": [13.5240205, 52.4967571]}, "properties": {"id": "243996833", "name": "U Tierpark", "street": "", "zip-code": "", "city": "", "planning-area-id": 11401137}}, {"type": "Feature", "geometry": {"type": "Point", "coordinates": [13.5215203, 52.5013606]}, "properties": {"id": "243996834", "name": "Criegernweg", "street": "", "zip-code": "", "city": "", "planning-area-id": 11401137}}, {"type": "Feature", "geometry": {"type": "Point", "coordinates": [13.5189935, 52.5105776]}, "properties": {"id": "243996913", "name": "Alt-Friedrichsfelde/Rhinstraße", "street": "", "zip-code": "", "city": "", "planning-area-id": 11401032}}, {"type": "Feature", "geometry": {"type": "Point", "coordinates": [13.440187, 52.5241405]}, "properties": {"id": "244129939", "name": "Klinikum im Friedrichshain", "street": "", "zip-code": "", "city": "", "planning-area-id": 2400521}}, {"type": "Feature", "geometry": {"type": "Point", "coordinates": [13.4462385, 52.5259323]}, "properties": {"id": "244129991", "name": "Landsberger Allee/Petersburger Straße", "street": "", "zip-code": "", "city": "", "planning-area-id": 2400522}}, {"type": "Feature", "geometry": {"type": "Point", "coordinates": [13.3908576, 52.5359069]}, "properties": {"id": "244484708", "name": "Gedenkstätte Berliner Mauer", "street": "", "zip-code": "", "city": "", "planning-area-id": 1300835}}, {"type": "Feature", "geometry": {"type": "Point", "coordinates": [13.4117675, 52.521606]}, "properties": {"id": "244486083", "name": "S+U Alexanderplatz/Dircksenstraße", "street": "", "zip-code": "", "city": "", "planning-area-id": 1100310}}, {"type": "Feature", "geometry": {"type": "Point", "coordinates": [13.4194191, 52.5247633]}, "properties": {"id": "244486144", "name": "Mollstraße/Otto-Braun-Straße", "street": "", "zip-code": "", "city": "", "planning-area-id": 1100310}}, {"type": "Feature", "geometry": {"type": "Point", "coordinates": [13.3869695, 52.5273494]}, "properties": {"id": "244487457", "name": "Hannoversche Straße", "street": "", "zip-code": "", "city": "", "planning-area-id": 1100308}}, {"type": "Feature", "geometry": {"type": "Point", "coordinates": [13.4526258, 52.5105842]}, "properties": {"id": "245548434", "name": "Kopernikusstraße/Warschauer Straße", "street": "", "zip-code": "", "city": "", "planning-area-id": 2500833}}, {"type": "Feature", "geometry": {"type": "Point", "coordinates": [13.5835183, 52.4629445]}, "properties": {"id": "247115551", "name": "Mittelheide", "street": "", "zip-code": "", "city": "", "planning-area-id": 9502043}}, {"type": "Feature", "geometry": {"type": "Point", "coordinates": [13.5886074, 52.4696309]}, "properties": {"id": "247115795", "name": "Unter den Birken", "street": "", "zip-code": "", "city": "", "planning-area-id": 9502043}}, {"type": "Feature", "geometry": {"type": "Point", "coordinates": [13.5853227, 52.4669377]}, "properties": {"id": "247115797", "name": "Wongrowitzer Steig", "street": "", "zip-code": "", "city": "", "planning-area-id": 9502043}}, {"type": "Feature", "geometry": {"type": "Point", "coordinates": [13.6003908, 52.4766078]}, "properties": {"id": "247116364", "name": "Hultschiner Damm/Seestraße", "street": "", "zip-code": "", "city": "", "planning-area-id": 10400940}}, {"type": "Feature", "geometry": {"type": "Point", "coordinates": [13.6009475, 52.480299]}, "properties": {"id": "247116367", "name": "Roseggerstraße", "street": "", "zip-code": "", "city": "", "planning-area-id": 10400940}}, {"type": "Feature", "geometry": {"type": "Point", "coordinates": [13.6017355, 52.482992]}, "properties": {"id": "247116371", "name": "Erich-Baron-Weg", "street": "", "zip-code": "", "city": "", "planning-area-id": 10400940}}, {"type": "Feature", "geometry": {"type": "Point", "coordinates": [13.6037288, 52.4857014]}, "properties": {"id": "247116372", "name": "Bütower Straße", "street": "", "zip-code": "", "city": "", "planning-area-id": 10400940}}, {"type": "Feature", "geometry": {"type": "Point", "coordinates": [13.5800797, 52.4593295]}, "properties": {"id": "247119325", "name": "S Köpenick", "street": "", "zip-code": "", "city": "", "planning-area-id": 9502043}}, {"type": "Feature", "geometry": {"type": "Point", "coordinates": [13.5840982, 52.4615785]}, "properties": {"id": "247140831", "name": "Janitzkystraße", "street": "", "zip-code": "", "city": "", "planning-area-id": 9502042}}, {"type": "Feature", "geometry": {"type": "Point", "coordinates": [13.5791114, 52.4582856]}, "properties": {"id": "247140929", "name": "S Köpenick", "street": "", "zip-code": "", "city": "", "planning-area-id": 9501939}}, {"type": "Feature", "geometry": {"type": "Point", "coordinates": [13.5844189, 52.4604054]}, "properties": {"id": "247141032", "name": "Hirtestraße", "street": "", "zip-code": "", "city": "", "planning-area-id": 9502042}}, {"type": "Feature", "geometry": {"type": "Point", "coordinates": [13.5991443, 52.4741663]}, "properties": {"id": "247145793", "name": "Mahlsdorf-Süd", "street": "", "zip-code": "", "city": "", "planning-area-id": 9502043}}, {"type": "Feature", "geometry": {"type": "Point", "coordinates": [13.602463, 52.4839641]}, "properties": {"id": "247147355", "name": "Erich-Baron-Weg", "street": "", "zip-code": "", "city": "", "planning-area-id": 10400940}}, {"type": "Feature", "geometry": {"type": "Point", "coordinates": [13.6075883, 52.4910007]}, "properties": {"id": "247149554", "name": "Eichenhofweg", "street": "", "zip-code": "", "city": "", "planning-area-id": 10400940}}, {"type": "Feature", "geometry": {"type": "Point", "coordinates": [13.6064139, 52.4893741]}, "properties": {"id": "247150231", "name": "Bruchsaler Straße", "street": "", "zip-code": "", "city": "", "planning-area-id": 10400940}}, {"type": "Feature", "geometry": {"type": "Point", "coordinates": [13.6096147, 52.4937616]}, "properties": {"id": "247153173", "name": "Ledebourstraße", "street": "", "zip-code": "", "city": "", "planning-area-id": 10400940}}, {"type": "Feature", "geometry": {"type": "Point", "coordinates": [13.6133356, 52.5051994]}, "properties": {"id": "247154123", "name": "Alt-Mahlsdorf", "street": "", "zip-code": "", "city": "", "planning-area-id": 10400939}}, {"type": "Feature", "geometry": {"type": "Point", "coordinates": [13.5258742, 52.4587748]}, "properties": {"id": "247156814", "name": "Rathenaustraße/HTW", "street": "", "zip-code": "", "city": "", "planning-area-id": 9200511}}, {"type": "Feature", "geometry": {"type": "Point", "coordinates": [13.5172971, 52.4711791]}, "properties": {"id": "247158622", "name": "Volkspark Wuhlheide", "street": "", "zip-code": "", "city": "", "planning-area-id": 9200510}}, {"type": "Feature", "geometry": {"type": "Point", "coordinates": [13.5204016, 52.4741663]}, "properties": {"id": "247159172", "name": "Hegemeisterweg", "street": "", "zip-code": "", "city": "", "planning-area-id": 11501341}}, {"type": "Feature", "geometry": {"type": "Point", "coordinates": [13.5268378, 52.4863576]}, "properties": {"id": "247159958", "name": "Marksburgstraße", "street": "", "zip-code": "", "city": "", "planning-area-id": 11501340}}, {"type": "Feature", "geometry": {"type": "Point", "coordinates": [13.5166189, 52.4819985]}, "properties": {"id": "247338146", "name": "Stechlinstraße", "street": "", "zip-code": "", "city": "", "planning-area-id": 11501341}}, {"type": "Feature", "geometry": {"type": "Point", "coordinates": [13.5105082, 52.4557502]}, "properties": {"id": "247350366", "name": "S Schöneweide", "street": "", "zip-code": "", "city": "", "planning-area-id": 9200613}}, {"type": "Feature", "geometry": {"type": "Point", "coordinates": [13.5079617, 52.4505494]}, "properties": {"id": "247352251", "name": "Pietschkerstraße", "street": "", "zip-code": "", "city": "", "planning-area-id": 9100407}}, {"type": "Feature", "geometry": {"type": "Point", "coordinates": [13.506827, 52.4470964]}, "properties": {"id": "247352344", "name": "Sterndamm/Königsheideweg", "street": "", "zip-code": "", "city": "", "planning-area-id": 9100407}}, {"type": "Feature", "geometry": {"type": "Point", "coordinates": [13.5743834, 52.4454593]}, "properties": {"id": "247361247", "name": "Rathaus Köpenick", "street": "", "zip-code": "", "city": "", "planning-area-id": 9401534}}, {"type": "Feature", "geometry": {"type": "Point", "coordinates": [13.5678135, 52.4449158]}, "properties": {"id": "247361594", "name": "Köllnischer Platz", "street": "", "zip-code": "", "city": "", "planning-area-id": 9200819}}, {"type": "Feature", "geometry": {"type": "Point", "coordinates": [13.5588281, 52.4417915]}, "properties": {"id": "247362578", "name": "Ottomar-Geschke-Straße", "street": "", "zip-code": "", "city": "", "planning-area-id": 9200717}}, {"type": "Feature", "geometry": {"type": "Point", "coordinates": [13.5594516, 52.4418687]}, "properties": {"id": "247362579", "name": "Ottomar-Geschke-Straße", "street": "", "zip-code": "", "city": "", "planning-area-id": 9200819}}, {"type": "Feature", "geometry": {"type": "Point", "coordinates": [13.4167576, 52.6053946]}, "properties": {"id": "247436786", "name": "Guyotstraße", "street": "", "zip-code": "", "city": "", "planning-area-id": 3200308}}, {"type": "Feature", "geometry": {"type": "Point", "coordinates": [13.433607, 52.6071269]}, "properties": {"id": "247437097", "name": "Französisch Buchholz Kirche", "street": "", "zip-code": "", "city": "", "planning-area-id": 3200309}}, {"type": "Feature", "geometry": {"type": "Point", "coordinates": [13.4315503, 52.5926983]}, "properties": {"id": "247437514", "name": "Marienstraße/Pasewalker Straße", "street": "", "zip-code": "", "city": "", "planning-area-id": 3200207}}, {"type": "Feature", "geometry": {"type": "Point", "coordinates": [13.4303202, 52.589266]}, "properties": {"id": "247437538", "name": "Pasewalker Straße/Blankenburger Weg", "street": "", "zip-code": "", "city": "", "planning-area-id": 3200207}}, {"type": "Feature", "geometry": {"type": "Point", "coordinates": [13.4289064, 52.5851776]}, "properties": {"id": "247437706", "name": "Pankower Straße", "street": "", "zip-code": "", "city": "", "planning-area-id": 3400725}}, {"type": "Feature", "geometry": {"type": "Point", "coordinates": [13.4151516, 52.5724332]}, "properties": {"id": "247437951", "name": "Stiftsweg", "street": "", "zip-code": "", "city": "", "planning-area-id": 3400723}}, {"type": "Feature", "geometry": {"type": "Point", "coordinates": [13.3882501, 52.5887072]}, "properties": {"id": "247441704", "name": "Nordendstraße", "street": "", "zip-code": "", "city": "", "planning-area-id": 3200205}}, {"type": "Feature", "geometry": {"type": "Point", "coordinates": [13.384124, 52.5915653]}, "properties": {"id": "247441829", "name": "Angerweg", "street": "", "zip-code": "", "city": "", "planning-area-id": 3400618}}, {"type": "Feature", "geometry": {"type": "Point", "coordinates": [13.3768132, 52.5968467]}, "properties": {"id": "247441884", "name": "Hauptstraße/Friedrich-Engels-Straße", "street": "", "zip-code": "", "city": "", "planning-area-id": 3400618}}, {"type": "Feature", "geometry": {"type": "Point", "coordinates": [13.4062294, 52.590844]}, "properties": {"id": "247444383", "name": "Waldemarstraße", "street": "", "zip-code": "", "city": "", "planning-area-id": 3200207}}, {"type": "Feature", "geometry": {"type": "Point", "coordinates": [13.3884107, 52.5192805]}, "properties": {"id": "247600965", "name": "S+U Friedrichstraße", "street": "", "zip-code": "", "city": "", "planning-area-id": 1100206}}, {"type": "Feature", "geometry": {"type": "Point", "coordinates": [13.3953708, 52.5194258]}, "properties": {"id": "247603398", "name": "Am Kupfergraben", "street": "", "zip-code": "", "city": "", "planning-area-id": 1100206}}, {"type": "Feature", "geometry": {"type": "Point", "coordinates": [13.692946, 52.4515271]}, "properties": {"id": "252280390", "name": "S Rahnsdorf", "street": "", "zip-code": "", "city": "", "planning-area-id": 9501838}}, {"type": "Feature", "geometry": {"type": "Point", "coordinates": [13.6266707, 52.4577004]}, "properties": {"id": "253943340", "name": "S Friedrichshagen", "street": "", "zip-code": "", "city": "", "planning-area-id": 9501737}}, {"type": "Feature", "geometry": {"type": "Point", "coordinates": [13.6350737, 52.4591593]}, "properties": {"id": "253943345", "name": "Brösener Straße", "street": "", "zip-code": "", "city": "", "planning-area-id": 9501737}}, {"type": "Feature", "geometry": {"type": "Point", "coordinates": [13.6615253, 52.4498523]}, "properties": {"id": "253943504", "name": "Fürstenwalder Damm/Müggelseedamm", "street": "", "zip-code": "", "city": "", "planning-area-id": 9501737}}, {"type": "Feature", "geometry": {"type": "Point", "coordinates": [13.6711513, 52.4476458]}, "properties": {"id": "253943512", "name": "Licht- und Luftbad Müggelsee", "street": "", "zip-code": "", "city": "", "planning-area-id": 9501838}}, {"type": "Feature", "geometry": {"type": "Point", "coordinates": [13.6776394, 52.4457181]}, "properties": {"id": "253943514", "name": "Strandbad Müggelsee", "street": "", "zip-code": "", "city": "", "planning-area-id": 9501838}}, {"type": "Feature", "geometry": {"type": "Point", "coordinates": [13.685038, 52.4435317]}, "properties": {"id": "253943516", "name": "Rahnsdorf/Waldschänke", "street": "", "zip-code": "", "city": "", "planning-area-id": 9501838}}, {"type": "Feature", "geometry": {"type": "Point", "coordinates": [13.6521704, 52.4524638]}, "properties": {"id": "254100382", "name": "Fürstenwalder Damm", "street": "", "zip-code": "", "city": "", "planning-area-id": 9501737}}, {"type": "Feature", "geometry": {"type": "Point", "coordinates": [13.5885926, 52.4169658]}, "properties": {"id": "254839386", "name": "Wendenschloß", "street": "", "zip-code": "", "city": "", "planning-area-id": 9401330}}, {"type": "Feature", "geometry": {"type": "Point", "coordinates": [13.568045, 52.5573513]}, "properties": {"id": "266559224", "name": "Wuhletalstraße", "street": "", "zip-code": "", "city": "", "planning-area-id": 10100206}}, {"type": "Feature", "geometry": {"type": "Point", "coordinates": [13.3983499, 52.579025]}, "properties": {"id": "270927391", "name": "Grabbeallee/Pastor-Niemöller-Platz", "street": "", "zip-code": "", "city": "", "planning-area-id": 3200206}}, {"type": "Feature", "geometry": {"type": "Point", "coordinates": [13.4116754, 52.5410444]}, "properties": {"id": "271766938", "name": "U Eberswalder Straße", "street": "", "zip-code": "", "city": "", "planning-area-id": 3601142}}, {"type": "Feature", "geometry": {"type": "Point", "coordinates": [13.4325586, 52.5363204]}, "properties": {"id": "271773180", "name": "Greifswalder Straße/Danziger Straße", "street": "", "zip-code": "", "city": "", "planning-area-id": 3701657}}, {"type": "Feature", "geometry": {"type": "Point", "coordinates": [13.4335857, 52.5359594]}, "properties": {"id": "271773181", "name": "Greifswalder Straße/Danziger Straße", "street": "", "zip-code": "", "city": "", "planning-area-id": 3601451}}, {"type": "Feature", "geometry": {"type": "Point", "coordinates": [13.4327418, 52.5358897]}, "properties": {"id": "271774347", "name": "Greifswalder Straße/Danziger Straße", "street": "", "zip-code": "", "city": "", "planning-area-id": 3701660}}, {"type": "Feature", "geometry": {"type": "Point", "coordinates": [13.4333987, 52.5364999]}, "properties": {"id": "271774348", "name": "Greifswalder Straße/Danziger Straße", "street": "", "zip-code": "", "city": "", "planning-area-id": 3601451}}, {"type": "Feature", "geometry": {"type": "Point", "coordinates": [13.4377292, 52.5339695]}, "properties": {"id": "271775909", "name": "Arnswalder Platz", "street": "", "zip-code": "", "city": "", "planning-area-id": 3601451}}, {"type": "Feature", "geometry": {"type": "Point", "coordinates": [13.4407002, 52.532541]}, "properties": {"id": "271777824", "name": "Kniprodestraße/Danziger Straße", "street": "", "zip-code": "", "city": "", "planning-area-id": 3601451}}, {"type": "Feature", "geometry": {"type": "Point", "coordinates": [13.4469945, 52.5270595]}, "properties": {"id": "271777826", "name": "Landsberger Allee/Petersburger Straße", "street": "", "zip-code": "", "city": "", "planning-area-id": 3601452}}, {"type": "Feature", "geometry": {"type": "Point", "coordinates": [13.6156241, 52.4470553]}, "properties": {"id": "271779546", "name": "Spreestraße", "street": "", "zip-code": "", "city": "", "planning-area-id": 9501736}}, {"type": "Feature", "geometry": {"type": "Point", "coordinates": [13.4821953, 52.5267637]}, "properties": {"id": "276002421", "name": "Bernhard-Bästlein-Straße", "street": "", "zip-code": "", "city": "", "planning-area-id": 11300620}}, {"type": "Feature", "geometry": {"type": "Point", "coordinates": [13.4788562, 52.5156658]}, "properties": {"id": "288268231", "name": "Rathaus Lichtenberg", "street": "", "zip-code": "", "city": "", "planning-area-id": 11300722}}, {"type": "Feature", "geometry": {"type": "Point", "coordinates": [13.4773672, 52.513805]}, "properties": {"id": "288268520", "name": "S+U Frankfurter Allee", "street": "", "zip-code": "", "city": "", "planning-area-id": 11300722}}, {"type": "Feature", "geometry": {"type": "Point", "coordinates": [13.4056617, 52.5345175]}, "properties": {"id": "315735263", "name": "Zionskirchplatz", "street": "", "zip-code": "", "city": "", "planning-area-id": 1100416}}, {"type": "Feature", "geometry": {"type": "Point", "coordinates": [13.4135734, 52.5493619]}, "properties": {"id": "318122988", "name": "S+U Schönhauser Allee", "street": "", "zip-code": "", "city": "", "planning-area-id": 3601141}}, {"type": "Feature", "geometry": {"type": "Point", "coordinates": [13.6248473, 52.40105]}, "properties": {"id": "332067663", "name": "Richtershorn", "street": "", "zip-code": "", "city": "", "planning-area-id": 9301126}}, {"type": "Feature", "geometry": {"type": "Point", "coordinates": [13.6006253, 52.4518544]}, "properties": {"id": "349047807", "name": "Hirschgarten", "street": "", "zip-code": "", "city": "", "planning-area-id": 9501736}}, {"type": "Feature", "geometry": {"type": "Point", "coordinates": [13.6082856, 52.4531061]}, "properties": {"id": "349047810", "name": "Westendsiedlung", "street": "", "zip-code": "", "city": "", "planning-area-id": 9501736}}, {"type": "Feature", "geometry": {"type": "Point", "coordinates": [13.6128781, 52.454141]}, "properties": {"id": "349047813", "name": "Mühlweg", "street": "", "zip-code": "", "city": "", "planning-area-id": 9501736}}, {"type": "Feature", "geometry": {"type": "Point", "coordinates": [13.5942323, 52.4530137]}, "properties": {"id": "349047884", "name": "Bellevuestraße", "street": "", "zip-code": "", "city": "", "planning-area-id": 9501941}}, {"type": "Feature", "geometry": {"type": "Point", "coordinates": [13.6090983, 52.4490623]}, "properties": {"id": "349050439", "name": "Wassersportzentrum", "street": "", "zip-code": "", "city": "", "planning-area-id": 9501736}}, {"type": "Feature", "geometry": {"type": "Point", "coordinates": [13.6319994, 52.4567014]}, "properties": {"id": "349055083", "name": "Hartlebenstraße", "street": "", "zip-code": "", "city": "", "planning-area-id": 9501737}}, {"type": "Feature", "geometry": {"type": "Point", "coordinates": [13.6390729, 52.4479905]}, "properties": {"id": "349055255", "name": "Altes Wasserwerk", "street": "", "zip-code": "", "city": "", "planning-area-id": 9501737}}, {"type": "Feature", "geometry": {"type": "Point", "coordinates": [13.6192978, 52.4556504]}, "properties": {"id": "349058473", "name": "Ahornallee", "street": "", "zip-code": "", "city": "", "planning-area-id": 9501737}}, {"type": "Feature", "geometry": {"type": "Point", "coordinates": [13.6109691, 52.5111685]}, "properties": {"id": "356180843", "name": "S Mahlsdorf", "street": "", "zip-code": "", "city": "", "planning-area-id": 10400939}}, {"type": "Feature", "geometry": {"type": "Point", "coordinates": [13.46934, 52.5066384]}, "properties": {"id": "361482764", "name": "Neue Bahnhofstraße", "street": "", "zip-code": "", "city": "", "planning-area-id": 2500832}}, {"type": "Feature", "geometry": {"type": "Point", "coordinates": [13.4697498, 52.5064089]}, "properties": {"id": "361482765", "name": "Neue Bahnhofstraße", "street": "", "zip-code": "", "city": "", "planning-area-id": 2500832}}, {"type": "Feature", "geometry": {"type": "Point", "coordinates": [13.4127936, 52.5414567]}, "properties": {"id": "365145502", "name": "U Eberswalder Straße/Pappelallee", "street": "", "zip-code": "", "city": "", "planning-area-id": 3601346}}, {"type": "Feature", "geometry": {"type": "Point", "coordinates": [13.4128789, 52.5415991]}, "properties": {"id": "365145503", "name": "U Eberswalder Straße/Pappelallee", "street": "", "zip-code": "", "city": "", "planning-area-id": 3601346}}, {"type": "Feature", "geometry": {"type": "Point", "coordinates": [13.5728968, 52.4515723]}, "properties": {"id": "370884692", "name": "Bahnhofstraße/Lindenstraße", "street": "", "zip-code": "", "city": "", "planning-area-id": 9501939}}, {"type": "Feature", "geometry": {"type": "Point", "coordinates": [13.4696737, 52.5119866]}, "properties": {"id": "386790206", "name": "Traveplatz", "street": "", "zip-code": "", "city": "", "planning-area-id": 2500831}}, {"type": "Feature", "geometry": {"type": "Point", "coordinates": [13.3732618, 52.5566956]}, "properties": {"id": "418506176", "name": "U Osloer Straße", "street": "", "zip-code": "", "city": "", "planning-area-id": 1401045}}, {"type": "Feature", "geometry": {"type": "Point", "coordinates": [13.4634444, 52.510986]}, "properties": {"id": "431281297", "name": "Wismarplatz", "street": "", "zip-code": "", "city": "", "planning-area-id": 2500831}}, {"type": "Feature", "geometry": {"type": "Point", "coordinates": [13.4633489, 52.5111368]}, "properties": {"id": "431281298", "name": "Wismarplatz", "street": "", "zip-code": "", "city": "", "planning-area-id": 2500831}}, {"type": "Feature", "geometry": {"type": "Point", "coordinates": [13.4522675, 52.5120579]}, "properties": {"id": "469462973", "name": "Grünberger Straße/Warschauer Straße", "street": "", "zip-code": "", "city": "", "planning-area-id": 2500833}}, {"type": "Feature", "geometry": {"type": "Point", "coordinates": [13.4514133, 52.5095695]}, "properties": {"id": "469466577", "name": "Revaler Straße", "street": "", "zip-code": "", "city": "", "planning-area-id": 2500834}}, {"type": "Feature", "geometry": {"type": "Point", "coordinates": [13.465969, 52.5088235]}, "properties": {"id": "471493994", "name": "Holteistraße", "street": "", "zip-code": "", "city": "", "planning-area-id": 2500831}}, {"type": "Feature", "geometry": {"type": "Point", "coordinates": [13.4666115, 52.5083933]}, "properties": {"id": "471493995", "name": "Holteistraße", "street": "", "zip-code": "", "city": "", "planning-area-id": 2500832}}, {"type": "Feature", "geometry": {"type": "Point", "coordinates": [13.4658555, 52.5081321]}, "properties": {"id": "471493996", "name": "Holteistraße", "street": "", "zip-code": "", "city": "", "planning-area-id": 2500833}}, {"type": "Feature", "geometry": {"type": "Point", "coordinates": [13.4693612, 52.5280674]}, "properties": {"id": "521821577", "name": "Anton-Saefkow-Platz", "street": "", "zip-code": "", "city": "", "planning-area-id": 11300617}}, {"type": "Feature", "geometry": {"type": "Point", "coordinates": [13.5703135, 52.5457935]}, "properties": {"id": "535249440", "name": "Landsberger Allee/Blumberger Damm", "street": "", "zip-code": "", "city": "", "planning-area-id": 10100315}}, {"type": "Feature", "geometry": {"type": "Point", "coordinates": [13.5061494, 52.5624568]}, "properties": {"id": "538255601", "name": "Prerower Platz", "street": "", "zip-code": "", "city": "", "planning-area-id": 11100309}}, {"type": "Feature", "geometry": {"type": "Point", "coordinates": [13.6129594, 52.5081863]}, "properties": {"id": "567465354", "name": "Wilhelmsmühlenweg", "street": "", "zip-code": "", "city": "", "planning-area-id": 10400939}}, {"type": "Feature", "geometry": {"type": "Point", "coordinates": [13.4374123, 52.5727666]}, "properties": {"id": "583760324", "name": "Heinersdorf", "street": "", "zip-code": "", "city": "", "planning-area-id": 3300516}}, {"type": "Feature", "geometry": {"type": "Point", "coordinates": [13.5408489, 52.435251]}, "properties": {"id": "583899039", "name": "S Adlershof", "street": "", "zip-code": "", "city": "", "planning-area-id": 9200715}}, {"type": "Feature", "geometry": {"type": "Point", "coordinates": [13.4195215, 52.5247689]}, "properties": {"id": "595038851", "name": "Mollstraße/Otto-Braun-Straße", "street": "", "zip-code": "", "city": "", "planning-area-id": 1100310}}, {"type": "Feature", "geometry": {"type": "Point", "coordinates": [13.6419956, 52.4560552]}, "properties": {"id": "598350419", "name": "Wasserwerk Friedrichshagen", "street": "", "zip-code": "", "city": "", "planning-area-id": 9501737}}, {"type": "Feature", "geometry": {"type": "Point", "coordinates": [13.5138941, 52.5665389]}, "properties": {"id": "614090924", "name": "S Hohenschönhausen", "street": "", "zip-code": "", "city": "", "planning-area-id": 11100204}}, {"type": "Feature", "geometry": {"type": "Point", "coordinates": [13.4026821, 52.5552883]}, "properties": {"id": "614580976", "name": "Björnsonstraße", "street": "", "zip-code": "", "city": "", "planning-area-id": 3601139}}, {"type": "Feature", "geometry": {"type": "Point", "coordinates": [13.5104609, 52.4842462]}, "properties": {"id": "614587424", "name": "Blockdammweg", "street": "", "zip-code": "", "city": "", "planning-area-id": 11501341}}, {"type": "Feature", "geometry": {"type": "Point", "coordinates": [13.450451, 52.5078885]}, "properties": {"id": "631457501", "name": "S Warschauer Straße", "street": "", "zip-code": "", "city": "", "planning-area-id": 2500834}}, {"type": "Feature", "geometry": {"type": "Point", "coordinates": [13.4506002, 52.5080422]}, "properties": {"id": "631457502", "name": "S Warschauer Straße", "street": "", "zip-code": "", "city": "", "planning-area-id": 2500834}}, {"type": "Feature", "geometry": {"type": "Point", "coordinates": [13.4876061, 52.5569615]}, "properties": {"id": "654575602", "name": "Stadion Buschallee/Hansastraße", "street": "", "zip-code": "", "city": "", "planning-area-id": 3501038}}, {"type": "Feature", "geometry": {"type": "Point", "coordinates": [13.577895, 52.4205549]}, "properties": {"id": "667031675", "name": "Königsseestraße", "street": "", "zip-code": "", "city": "", "planning-area-id": 9301126}}, {"type": "Feature", "geometry": {"type": "Point", "coordinates": [13.4486813, 52.5050736]}, "properties": {"id": "667971366", "name": "S+U Warschauer Straße", "street": "", "zip-code": "", "city": "", "planning-area-id": 2400625}}, {"type": "Feature", "geometry": {"type": "Point", "coordinates": [13.4797196, 52.5197412]}, "properties": {"id": "669763367", "name": "Loeperplatz", "street": "", "zip-code": "", "city": "", "planning-area-id": 11300722}}, {"type": "Feature", "geometry": {"type": "Point", "coordinates": [13.5148805, 52.4622508]}, "properties": {"id": "717651913", "name": "Wilhelminenhofstraße/Edisonstraße", "street": "", "zip-code": "", "city": "", "planning-area-id": 9200511}}, {"type": "Feature", "geometry": {"type": "Point", "coordinates": [13.5138993, 52.4630566]}, "properties": {"id": "717651919", "name": "Wilhelminenhofstraße/Edisonstraße", "street": "", "zip-code": "", "city": "", "planning-area-id": 9200510}}, {"type": "Feature", "geometry": {"type": "Point", "coordinates": [13.5202896, 52.4609913]}, "properties": {"id": "717665734", "name": "Firlstraße", "street": "", "zip-code": "", "city": "", "planning-area-id": 9200511}}, {"type": "Feature", "geometry": {"type": "Point", "coordinates": [13.5212276, 52.4607897]}, "properties": {"id": "717665736", "name": "Firlstraße", "street": "", "zip-code": "", "city": "", "planning-area-id": 9200511}}, {"type": "Feature", "geometry": {"type": "Point", "coordinates": [13.546264, 52.4372432]}, "properties": {"id": "766875150", "name": "Marktplatz Adlershof", "street": "", "zip-code": "", "city": "", "planning-area-id": 9200716}}, {"type": "Feature", "geometry": {"type": "Point", "coordinates": [13.4116896, 52.5404182]}, "properties": {"id": "771184388", "name": "U Eberswalder Straße", "street": "", "zip-code": "", "city": "", "planning-area-id": 3701554}}, {"type": "Feature", "geometry": {"type": "Point", "coordinates": [13.4113879, 52.540204]}, "properties": {"id": "771184393", "name": "U Eberswalder Straße", "street": "", "zip-code": "", "city": "", "planning-area-id": 3701554}}, {"type": "Feature", "geometry": {"type": "Point", "coordinates": [13.5079138, 52.4502578]}, "properties": {"id": "852932396", "name": "Pietschkerstraße", "street": "", "zip-code": "", "city": "", "planning-area-id": 9100407}}, {"type": "Feature", "geometry": {"type": "Point", "coordinates": [13.5093914, 52.4531382]}, "properties": {"id": "852932443", "name": "S Schöneweide/Sterndamm", "street": "", "zip-code": "", "city": "", "planning-area-id": 9100407}}, {"type": "Feature", "geometry": {"type": "Point", "coordinates": [13.3875222, 52.5325525]}, "properties": {"id": "938213396", "name": "S Nordbahnhof", "street": "", "zip-code": "", "city": "", "planning-area-id": 1100415}}, {"type": "Feature", "geometry": {"type": "Point", "coordinates": [13.3970747, 52.5238986]}, "properties": {"id": "963600646", "name": "Monbijouplatz", "street": "", "zip-code": "", "city": "", "planning-area-id": 1100309}}, {"type": "Feature", "geometry": {"type": "Point", "coordinates": [13.4045701, 52.5695371]}, "properties": {"id": "972482434", "name": "Rathaus Pankow", "street": "", "zip-code": "", "city": "", "planning-area-id": 3400723}}, {"type": "Feature", "geometry": {"type": "Point", "coordinates": [13.4132251, 52.5591509]}, "properties": {"id": "972482435", "name": "U Vinetastraße", "street": "", "zip-code": "", "city": "", "planning-area-id": 3400826}}, {"type": "Feature", "geometry": {"type": "Point", "coordinates": [13.4038045, 52.5694816]}, "properties": {"id": "972482438", "name": "Rathaus Pankow", "street": "", "zip-code": "", "city": "", "planning-area-id": 3400723}}, {"type": "Feature", "geometry": {"type": "Point", "coordinates": [13.414524, 52.5532393]}, "properties": {"id": "972482442", "name": "Schönhauser Allee/Bornholmer Straße", "street": "", "zip-code": "", "city": "", "planning-area-id": 3601141}}, {"type": "Feature", "geometry": {"type": "Point", "coordinates": [13.3876417, 52.5242398]}, "properties": {"id": "990017251", "name": "U Oranienburger Tor", "street": "", "zip-code": "", "city": "", "planning-area-id": 1100308}}, {"type": "Feature", "geometry": {"type": "Point", "coordinates": [13.5826397, 52.5490131]}, "properties": {"id": "999586155", "name": "Betriebshof Marzahn", "street": "", "zip-code": "", "city": "", "planning-area-id": 10100316}}, {"type": "Feature", "geometry": {"type": "Point", "coordinates": [13.4377078, 52.5702229]}, "properties": {"id": "1000715081", "name": "Rothenbachstraße", "street": "", "zip-code": "", "city": "", "planning-area-id": 3300516}}, {"type": "Feature", "geometry": {"type": "Point", "coordinates": [13.4244231, 52.5760936]}, "properties": {"id": "1003299170", "name": "Würtzstraße", "street": "", "zip-code": "", "city": "", "planning-area-id": 3400723}}, {"type": "Feature", "geometry": {"type": "Point", "coordinates": [13.4297695, 52.5503132]}, "properties": {"id": "1012940956", "name": "Prenzlauer Allee/Ostseestraße", "street": "", "zip-code": "", "city": "", "planning-area-id": 3601245}}, {"type": "Feature", "geometry": {"type": "Point", "coordinates": [13.428891, 52.5516937]}, "properties": {"id": "1012940962", "name": "Prenzlauer Allee/Ostseestraße", "street": "", "zip-code": "", "city": "", "planning-area-id": 3601244}}, {"type": "Feature", "geometry": {"type": "Point", "coordinates": [13.4150001, 52.5537181]}, "properties": {"id": "1012941040", "name": "Schönhauser Allee/Bornholmer Straße", "street": "", "zip-code": "", "city": "", "planning-area-id": 3601243}}, {"type": "Feature", "geometry": {"type": "Point", "coordinates": [13.4597503, 52.50903]}, "properties": {"id": "1137469153", "name": "Wühlischstraße/Gärtnerstraße", "street": "", "zip-code": "", "city": "", "planning-area-id": 2500833}}, {"type": "Feature", "geometry": {"type": "Point", "coordinates": [13.4780996, 52.5203119]}, "properties": {"id": "1154232187", "name": "Loeperplatz", "street": "", "zip-code": "", "city": "", "planning-area-id": 11300722}}, {"type": "Feature", "geometry": {"type": "Point", "coordinates": [13.5885444, 52.4169977]}, "properties": {"id": "1264267239", "name": "Wendenschloß", "street": "", "zip-code": "", "city": "", "planning-area-id": 9401330}}, {"type": "Feature", "geometry": {"type": "Point", "coordinates": [13.5717287, 52.4306271]}, "properties": {"id": "1383533471", "name": "Betonwerk", "street": "", "zip-code": "", "city": "", "planning-area-id": 9200819}}, {"type": "Feature", "geometry": {"type": "Point", "coordinates": [13.5716912, 52.4309071]}, "properties": {"id": "1383533479", "name": "Betonwerk", "street": "", "zip-code": "", "city": "", "planning-area-id": 9200819}}, {"type": "Feature", "geometry": {"type": "Point", "coordinates": [13.5750827, 52.4246225]}, "properties": {"id": "1383533525", "name": "Friedrich-Wolf-Straße", "street": "", "zip-code": "", "city": "", "planning-area-id": 9301126}}, {"type": "Feature", "geometry": {"type": "Point", "coordinates": [13.5700051, 52.4415594]}, "properties": {"id": "1383533528", "name": "Glienicker Straße", "street": "", "zip-code": "", "city": "", "planning-area-id": 9200819}}, {"type": "Feature", "geometry": {"type": "Point", "coordinates": [13.5691692, 52.4436433]}, "properties": {"id": "1383533552", "name": "Köllnischer Platz", "street": "", "zip-code": "", "city": "", "planning-area-id": 9200819}}, {"type": "Feature", "geometry": {"type": "Point", "coordinates": [13.569186, 52.4438253]}, "properties": {"id": "1383533555", "name": "Köllnischer Platz", "street": "", "zip-code": "", "city": "", "planning-area-id": 9200819}}, {"type": "Feature", "geometry": {"type": "Point", "coordinates": [13.634932, 52.3912295]}, "properties": {"id": "1383533562", "name": "Lübbenauer Weg", "street": "", "zip-code": "", "city": "", "planning-area-id": 9301227}}, {"type": "Feature", "geometry": {"type": "Point", "coordinates": [13.5489367, 52.4382203]}, "properties": {"id": "1383533566", "name": "Marktplatz Adlershof", "street": "", "zip-code": "", "city": "", "planning-area-id": 9200717}}, {"type": "Feature", "geometry": {"type": "Point", "coordinates": [13.577967, 52.4203842]}, "properties": {"id": "1383533580", "name": "Königsseestraße", "street": "", "zip-code": "", "city": "", "planning-area-id": 9301126}}, {"type": "Feature", "geometry": {"type": "Point", "coordinates": [13.5884715, 52.411217]}, "properties": {"id": "1383533585", "name": "Regattatribünen", "street": "", "zip-code": "", "city": "", "planning-area-id": 9301126}}, {"type": "Feature", "geometry": {"type": "Point", "coordinates": [13.5714309, 52.4347036]}, "properties": {"id": "1383533590", "name": "Rosenweg", "street": "", "zip-code": "", "city": "", "planning-area-id": 9200819}}, {"type": "Feature", "geometry": {"type": "Point", "coordinates": [13.5714816, 52.4349601]}, "properties": {"id": "1383533593", "name": "Rosenweg", "street": "", "zip-code": "", "city": "", "planning-area-id": 9200819}}, {"type": "Feature", "geometry": {"type": "Point", "coordinates": [13.5749203, 52.4132784]}, "properties": {"id": "1383533600", "name": "S Grünau", "street": "", "zip-code": "", "city": "", "planning-area-id": 9301126}}, {"type": "Feature", "geometry": {"type": "Point", "coordinates": [13.604455, 52.4086224]}, "properties": {"id": "1383533628", "name": "Strandbad Grünau", "street": "", "zip-code": "", "city": "", "planning-area-id": 9301126}}, {"type": "Feature", "geometry": {"type": "Point", "coordinates": [13.5714889, 52.4386665]}, "properties": {"id": "1383533634", "name": "Vollkropfgraben", "street": "", "zip-code": "", "city": "", "planning-area-id": 9200819}}, {"type": "Feature", "geometry": {"type": "Point", "coordinates": [13.5714377, 52.43886]}, "properties": {"id": "1383533637", "name": "Vollkropfgraben", "street": "", "zip-code": "", "city": "", "planning-area-id": 9200819}}, {"type": "Feature", "geometry": {"type": "Point", "coordinates": [13.5519025, 52.4392704]}, "properties": {"id": "1383533640", "name": "Wassermannstraße", "street": "", "zip-code": "", "city": "", "planning-area-id": 9200717}}, {"type": "Feature", "geometry": {"type": "Point", "coordinates": [13.5526003, 52.4395698]}, "properties": {"id": "1383533641", "name": "Wassermannstraße", "street": "", "zip-code": "", "city": "", "planning-area-id": 9200717}}, {"type": "Feature", "geometry": {"type": "Point", "coordinates": [13.4659619, 52.5521763]}, "properties": {"id": "1406990438", "name": "Weißer See", "street": "", "zip-code": "", "city": "", "planning-area-id": 3500933}}, {"type": "Feature", "geometry": {"type": "Point", "coordinates": [13.5413836, 52.4340207]}, "properties": {"id": "1420514676", "name": "S Adlershof", "street": "", "zip-code": "", "city": "", "planning-area-id": 9200715}}, {"type": "Feature", "geometry": {"type": "Point", "coordinates": [13.4333751, 52.5585796]}, "properties": {"id": "1421431221", "name": "Am Steinberg", "street": "", "zip-code": "", "city": "", "planning-area-id": 3300516}}, {"type": "Feature", "geometry": {"type": "Point", "coordinates": [13.4295342, 52.5565563]}, "properties": {"id": "1421431246", "name": "Prenzlauer Promenade/Am Steinberg", "street": "", "zip-code": "", "city": "", "planning-area-id": 3500934}}, {"type": "Feature", "geometry": {"type": "Point", "coordinates": [13.4348157, 52.5622588]}, "properties": {"id": "1421431268", "name": "Tino-Schwierzina-Straße", "street": "", "zip-code": "", "city": "", "planning-area-id": 3300516}}, {"type": "Feature", "geometry": {"type": "Point", "coordinates": [13.4331617, 52.5581724]}, "properties": {"id": "1421431271", "name": "Am Steinberg", "street": "", "zip-code": "", "city": "", "planning-area-id": 3300516}}, {"type": "Feature", "geometry": {"type": "Point", "coordinates": [13.4358341, 52.5648336]}, "properties": {"id": "1421431287", "name": "Am Wasserturm", "street": "", "zip-code": "", "city": "", "planning-area-id": 3300516}}, {"type": "Feature", "geometry": {"type": "Point", "coordinates": [13.4647134, 52.5516265]}, "properties": {"id": "1545984202", "name": "Weißer See", "street": "", "zip-code": "", "city": "", "planning-area-id": 3500936}}, {"type": "Feature", "geometry": {"type": "Point", "coordinates": [13.4371063, 52.5725511]}, "properties": {"id": "1554875829", "name": "Heinersdorf", "street": "", "zip-code": "", "city": "", "planning-area-id": 3300516}}, {"type": "Feature", "geometry": {"type": "Point", "coordinates": [13.444118, 52.5452407]}, "properties": {"id": "1576686929", "name": "Greifswalder Straße/Ostseestraße", "street": "", "zip-code": "", "city": "", "planning-area-id": 3601449}}, {"type": "Feature", "geometry": {"type": "Point", "coordinates": [13.445119, 52.5457311]}, "properties": {"id": "1576803497", "name": "Greifswalder Straße/Ostseestraße", "street": "", "zip-code": "", "city": "", "planning-area-id": 3601449}}, {"type": "Feature", "geometry": {"type": "Point", "coordinates": [13.4188658, 52.6059135]}, "properties": {"id": "1585156615", "name": "Hugenottenplatz", "street": "", "zip-code": "", "city": "", "planning-area-id": 3200308}}, {"type": "Feature", "geometry": {"type": "Point", "coordinates": [13.4160793, 52.6052662]}, "properties": {"id": "1585156630", "name": "Guyotstraße", "street": "", "zip-code": "", "city": "", "planning-area-id": 3200308}}, {"type": "Feature", "geometry": {"type": "Point", "coordinates": [13.4285114, 52.6080936]}, "properties": {"id": "1585732263", "name": "Navarraplatz", "street": "", "zip-code": "", "city": "", "planning-area-id": 3200310}}, {"type": "Feature", "geometry": {"type": "Point", "coordinates": [13.4235947, 52.6071465]}, "properties": {"id": "1585732290", "name": "Arnouxstraße", "street": "", "zip-code": "", "city": "", "planning-area-id": 3200310}}, {"type": "Feature", "geometry": {"type": "Point", "coordinates": [13.4681721, 52.5569639]}, "properties": {"id": "1600662281", "name": "Betriebshof Weißensee", "street": "", "zip-code": "", "city": "", "planning-area-id": 3501037}}, {"type": "Feature", "geometry": {"type": "Point", "coordinates": [13.42592, 52.5421147]}, "properties": {"id": "1615477753", "name": "Fröbelstraße", "street": "", "zip-code": "", "city": "", "planning-area-id": 3701657}}, {"type": "Feature", "geometry": {"type": "Point", "coordinates": [13.427408, 52.5448075]}, "properties": {"id": "1615477765", "name": "S Prenzlauer Allee", "street": "", "zip-code": "", "city": "", "planning-area-id": 3601245}}, {"type": "Feature", "geometry": {"type": "Point", "coordinates": [13.4287932, 52.5481477]}, "properties": {"id": "1615477793", "name": "Erich-Weinert-Straße", "street": "", "zip-code": "", "city": "", "planning-area-id": 3601245}}, {"type": "Feature", "geometry": {"type": "Point", "coordinates": [13.4120602, 52.5213728]}, "properties": {"id": "1615531689", "name": "S+U Alexanderplatz/Dircksenstraße", "street": "", "zip-code": "", "city": "", "planning-area-id": 1100310}}, {"type": "Feature", "geometry": {"type": "Point", "coordinates": [13.4106594, 52.5222588]}, "properties": {"id": "1628877119", "name": "S+U Alexanderplatz/Dircksenstraße", "street": "", "zip-code": "", "city": "", "planning-area-id": 1100310}}, {"type": "Feature", "geometry": {"type": "Point", "coordinates": [13.4290859, 52.5327449]}, "properties": {"id": "1631119467", "name": "Hufelandstraße", "street": "", "zip-code": "", "city": "", "planning-area-id": 3701660}}, {"type": "Feature", "geometry": {"type": "Point", "coordinates": [13.4580146, 52.5498168]}, "properties": {"id": "1631224840", "name": "Albertinenstraße", "street": "", "zip-code": "", "city": "", "planning-area-id": 3500936}}, {"type": "Feature", "geometry": {"type": "Point", "coordinates": [13.4691966, 52.5537598]}, "properties": {"id": "1631224941", "name": "Buschallee", "street": "", "zip-code": "", "city": "", "planning-area-id": 3501038}}, {"type": "Feature", "geometry": {"type": "Point", "coordinates": [13.4161901, 52.526818]}, "properties": {"id": "1631354284", "name": "Mollstraße/Prenzlauer Allee", "street": "", "zip-code": "", "city": "", "planning-area-id": 1100310}}, {"type": "Feature", "geometry": {"type": "Point", "coordinates": [13.4677089, 52.5570138]}, "properties": {"id": "1631515733", "name": "Betriebshof Weißensee", "street": "", "zip-code": "", "city": "", "planning-area-id": 3501037}}, {"type": "Feature", "geometry": {"type": "Point", "coordinates": [13.4609656, 52.5594065]}, "properties": {"id": "1631515805", "name": "Pasedagplatz", "street": "", "zip-code": "", "city": "", "planning-area-id": 3500933}}, {"type": "Feature", "geometry": {"type": "Point", "coordinates": [13.4026808, 52.5216622]}, "properties": {"id": "1633759760", "name": "S Hackescher Markt", "street": "", "zip-code": "", "city": "", "planning-area-id": 1100310}}, {"type": "Feature", "geometry": {"type": "Point", "coordinates": [13.4034101, 52.5226155]}, "properties": {"id": "1633759766", "name": "S Hackescher Markt", "street": "", "zip-code": "", "city": "", "planning-area-id": 1100310}}, {"type": "Feature", "geometry": {"type": "Point", "coordinates": [13.4104123, 52.5286105]}, "properties": {"id": "1661140876", "name": "U Rosa-Luxemburg-Platz", "street": "", "zip-code": "", "city": "", "planning-area-id": 1100310}}, {"type": "Feature", "geometry": {"type": "Point", "coordinates": [13.3986649, 52.5237138]}, "properties": {"id": "1661927028", "name": "Monbijouplatz", "street": "", "zip-code": "", "city": "", "planning-area-id": 1100309}}, {"type": "Feature", "geometry": {"type": "Point", "coordinates": [13.4019, 52.5297422]}, "properties": {"id": "1662140222", "name": "U Rosenthaler Platz", "street": "", "zip-code": "", "city": "", "planning-area-id": 1100309}}, {"type": "Feature", "geometry": {"type": "Point", "coordinates": [13.4035047, 52.5253215]}, "properties": {"id": "1662153916", "name": "U Weinmeisterstraße/Gipsstraße", "street": "", "zip-code": "", "city": "", "planning-area-id": 1100309}}, {"type": "Feature", "geometry": {"type": "Point", "coordinates": [13.4191052, 52.5399725]}, "properties": {"id": "1666049727", "name": "Husemannstraße", "street": "", "zip-code": "", "city": "", "planning-area-id": 3601348}}, {"type": "Feature", "geometry": {"type": "Point", "coordinates": [13.4182043, 52.5401347]}, "properties": {"id": "1666049729", "name": "Husemannstraße", "street": "", "zip-code": "", "city": "", "planning-area-id": 3601347}}, {"type": "Feature", "geometry": {"type": "Point", "coordinates": [13.4128397, 52.5409945]}, "properties": {"id": "1666049778", "name": "U Eberswalder Straße", "street": "", "zip-code": "", "city": "", "planning-area-id": 3601347}}, {"type": "Feature", "geometry": {"type": "Point", "coordinates": [13.5138972, 52.4619526]}, "properties": {"id": "1666367703", "name": "Wilhelminenhofstraße/Edisonstraße", "street": "", "zip-code": "", "city": "", "planning-area-id": 9200510}}, {"type": "Feature", "geometry": {"type": "Point", "coordinates": [13.3947562, 52.5322689]}, "properties": {"id": "1667940451", "name": "Pappelplatz", "street": "", "zip-code": "", "city": "", "planning-area-id": 1100415}}, {"type": "Feature", "geometry": {"type": "Point", "coordinates": [13.4082376, 52.5371529]}, "properties": {"id": "1668427073", "name": "Schwedter Straße", "street": "", "zip-code": "", "city": "", "planning-area-id": 3701554}}, {"type": "Feature", "geometry": {"type": "Point", "coordinates": [13.402603, 52.5238354]}, "properties": {"id": "1668497956", "name": "S Hackescher Markt", "street": "", "zip-code": "", "city": "", "planning-area-id": 1100309}}, {"type": "Feature", "geometry": {"type": "Point", "coordinates": [13.3878498, 52.5262067]}, "properties": {"id": "1668685086", "name": "U Oranienburger Tor", "street": "", "zip-code": "", "city": "", "planning-area-id": 1100309}}, {"type": "Feature", "geometry": {"type": "Point", "coordinates": [13.3923646, 52.5250979]}, "properties": {"id": "1668717159", "name": "S Oranienburger Straße", "street": "", "zip-code": "", "city": "", "planning-area-id": 1100309}}, {"type": "Feature", "geometry": {"type": "Point", "coordinates": [13.39369, 52.5203096]}, "properties": {"id": "1673526976", "name": "Georgenstraße/Am Kupfergraben", "street": "", "zip-code": "", "city": "", "planning-area-id": 1100206}}, {"type": "Feature", "geometry": {"type": "Point", "coordinates": [13.5016719, 52.566363]}, "properties": {"id": "1679005907", "name": "Ahrenshooper Straße", "street": "", "zip-code": "", "city": "", "planning-area-id": 11100307}}, {"type": "Feature", "geometry": {"type": "Point", "coordinates": [13.512077, 52.5549343]}, "properties": {"id": "1679005908", "name": "Anna-Ebermann-Straße", "street": "", "zip-code": "", "city": "", "planning-area-id": 11200410}}, {"type": "Feature", "geometry": {"type": "Point", "coordinates": [13.5150534, 52.5585353]}, "properties": {"id": "1679005909", "name": "Arnimstraße", "street": "", "zip-code": "", "city": "", "planning-area-id": 11100309}}, {"type": "Feature", "geometry": {"type": "Point", "coordinates": [13.5195448, 52.5685017]}, "properties": {"id": "1679005911", "name": "Prendener Straße", "street": "", "zip-code": "", "city": "", "planning-area-id": 11100204}}, {"type": "Feature", "geometry": {"type": "Point", "coordinates": [13.4950964, 52.5597435]}, "properties": {"id": "1679005912", "name": "Feldtmannstraße", "street": "", "zip-code": "", "city": "", "planning-area-id": 11200410}}, {"type": "Feature", "geometry": {"type": "Point", "coordinates": [13.4821862, 52.5544234]}, "properties": {"id": "1679005913", "name": "Giersstraße", "street": "", "zip-code": "", "city": "", "planning-area-id": 3501038}}, {"type": "Feature", "geometry": {"type": "Point", "coordinates": [13.4992999, 52.5612044]}, "properties": {"id": "1679005914", "name": "Hansastraße/Malchower Weg", "street": "", "zip-code": "", "city": "", "planning-area-id": 11200410}}, {"type": "Feature", "geometry": {"type": "Point", "coordinates": [13.509622, 52.5461347]}, "properties": {"id": "1679005918", "name": "Rhinstraße/Gärtnerstraße", "street": "", "zip-code": "", "city": "", "planning-area-id": 11200411}}, {"type": "Feature", "geometry": {"type": "Point", "coordinates": [13.5131802, 52.5663088]}, "properties": {"id": "1679005919", "name": "S Hohenschönhausen", "street": "", "zip-code": "", "city": "", "planning-area-id": 11100204}}, {"type": "Feature", "geometry": {"type": "Point", "coordinates": [13.4869834, 52.5566718]}, "properties": {"id": "1679005920", "name": "Stadion Buschallee/Hansastraße", "street": "", "zip-code": "", "city": "", "planning-area-id": 3501038}}, {"type": "Feature", "geometry": {"type": "Point", "coordinates": [13.5251581, 52.5692194]}, "properties": {"id": "1679005921", "name": "Welsestraße", "street": "", "zip-code": "", "city": "", "planning-area-id": 11100203}}, {"type": "Feature", "geometry": {"type": "Point", "coordinates": [13.4971498, 52.5703215]}, "properties": {"id": "1679005922", "name": "Zingster Straße/Ribnitzer Straße", "street": "", "zip-code": "", "city": "", "planning-area-id": 11100307}}, {"type": "Feature", "geometry": {"type": "Point", "coordinates": [13.5045505, 52.5488737]}, "properties": {"id": "1679005949", "name": "Alt-Hohenschönhausen", "street": "", "zip-code": "", "city": "", "planning-area-id": 11200411}}, {"type": "Feature", "geometry": {"type": "Point", "coordinates": [13.465843, 52.5515946]}, "properties": {"id": "1679204620", "name": "Weißer See", "street": "", "zip-code": "", "city": "", "planning-area-id": 3500936}}, {"type": "Feature", "geometry": {"type": "Point", "coordinates": [13.4687215, 52.5442346]}, "properties": {"id": "1679204621", "name": "Betriebshof Indira-Gandhi-Straße", "street": "", "zip-code": "", "city": "", "planning-area-id": 11200512}}, {"type": "Feature", "geometry": {"type": "Point", "coordinates": [13.4671538, 52.5485019]}, "properties": {"id": "1679204622", "name": "Gounodstraße", "street": "", "zip-code": "", "city": "", "planning-area-id": 3500936}}, {"type": "Feature", "geometry": {"type": "Point", "coordinates": [13.4729468, 52.5359329]}, "properties": {"id": "1679204623", "name": "Hohenschönhauser Straße", "street": "", "zip-code": "", "city": "", "planning-area-id": 11300616}}, {"type": "Feature", "geometry": {"type": "Point", "coordinates": [13.4764087, 52.532769]}, "properties": {"id": "1679204624", "name": "Landsberger Allee/Weißenseer Weg", "street": "", "zip-code": "", "city": "", "planning-area-id": 11300620}}, {"type": "Feature", "geometry": {"type": "Point", "coordinates": [13.4801576, 52.5202545]}, "properties": {"id": "1679204625", "name": "Loeperplatz", "street": "", "zip-code": "", "city": "", "planning-area-id": 11300722}}, {"type": "Feature", "geometry": {"type": "Point", "coordinates": [13.4787369, 52.5203395]}, "properties": {"id": "1679204626", "name": "Loeperplatz", "street": "", "zip-code": "", "city": "", "planning-area-id": 11300722}}, {"type": "Feature", "geometry": {"type": "Point", "coordinates": [13.4795914, 52.5238424]}, "properties": {"id": "1679204628", "name": "Möllendorffstraße/Storkower Straße", "street": "", "zip-code": "", "city": "", "planning-area-id": 11300619}}, {"type": "Feature", "geometry": {"type": "Point", "coordinates": [13.4792529, 52.5161015]}, "properties": {"id": "1679204629", "name": "Rathaus Lichtenberg", "street": "", "zip-code": "", "city": "", "planning-area-id": 11300722}}, {"type": "Feature", "geometry": {"type": "Point", "coordinates": [13.4775557, 52.5139808]}, "properties": {"id": "1679204630", "name": "S+U Frankfurter Allee", "street": "", "zip-code": "", "city": "", "planning-area-id": 11300722}}, {"type": "Feature", "geometry": {"type": "Point", "coordinates": [13.4713825, 52.5385243]}, "properties": {"id": "1679204631", "name": "Sportforum", "street": "", "zip-code": "", "city": "", "planning-area-id": 11200512}}, {"type": "Feature", "geometry": {"type": "Point", "coordinates": [13.479068, 52.5266001]}, "properties": {"id": "1679204729", "name": "Roederplatz", "street": "", "zip-code": "", "city": "", "planning-area-id": 11300620}}, {"type": "Feature", "geometry": {"type": "Point", "coordinates": [13.437123, 52.5342203]}, "properties": {"id": "1679221132", "name": "Arnswalder Platz", "street": "", "zip-code": "", "city": "", "planning-area-id": 3601451}}, {"type": "Feature", "geometry": {"type": "Point", "coordinates": [13.4525257, 52.519215]}, "properties": {"id": "1679221133", "name": "Bersarinplatz", "street": "", "zip-code": "", "city": "", "planning-area-id": 2500726}}, {"type": "Feature", "geometry": {"type": "Point", "coordinates": [13.4421124, 52.5315225]}, "properties": {"id": "1679221134", "name": "Kniprodestraße/Danziger Straße", "street": "", "zip-code": "", "city": "", "planning-area-id": 3601452}}, {"type": "Feature", "geometry": {"type": "Point", "coordinates": [13.4473159, 52.5267024]}, "properties": {"id": "1679221136", "name": "Landsberger Allee/Petersburger Straße", "street": "", "zip-code": "", "city": "", "planning-area-id": 3601452}}, {"type": "Feature", "geometry": {"type": "Point", "coordinates": [13.4449135, 52.5289276]}, "properties": {"id": "1679221137", "name": "Paul-Heyse-Straße", "street": "", "zip-code": "", "city": "", "planning-area-id": 3601452}}, {"type": "Feature", "geometry": {"type": "Point", "coordinates": [13.4503004, 52.5224781]}, "properties": {"id": "1679221138", "name": "Straßmannstraße", "street": "", "zip-code": "", "city": "", "planning-area-id": 2500726}}, {"type": "Feature", "geometry": {"type": "Point", "coordinates": [13.4127766, 52.5636566]}, "properties": {"id": "1685046689", "name": "Masurenstraße", "street": "", "zip-code": "", "city": "", "planning-area-id": 3400826}}, {"type": "Feature", "geometry": {"type": "Point", "coordinates": [13.4121641, 52.5675692]}, "properties": {"id": "1685046691", "name": "S+U Pankow", "street": "", "zip-code": "", "city": "", "planning-area-id": 3400723}}, {"type": "Feature", "geometry": {"type": "Point", "coordinates": [13.4084656, 52.5703917]}, "properties": {"id": "1685738604", "name": "Pankow Kirche", "street": "", "zip-code": "", "city": "", "planning-area-id": 3400723}}, {"type": "Feature", "geometry": {"type": "Point", "coordinates": [13.4103041, 52.5706409]}, "properties": {"id": "1685757439", "name": "Pankow Kirche", "street": "", "zip-code": "", "city": "", "planning-area-id": 3400723}}, {"type": "Feature", "geometry": {"type": "Point", "coordinates": [13.5264686, 52.4324964]}, "properties": {"id": "1704693343", "name": "Karl-Ziegler-Straße", "street": "", "zip-code": "", "city": "", "planning-area-id": 9200715}}, {"type": "Feature", "geometry": {"type": "Point", "coordinates": [13.5261436, 52.4327476]}, "properties": {"id": "1704693369", "name": "Karl-Ziegler-Straße", "street": "", "zip-code": "", "city": "", "planning-area-id": 9200715}}, {"type": "Feature", "geometry": {"type": "Point", "coordinates": [13.5301687, 52.429759]}, "properties": {"id": "1704693381", "name": "Magnusstraße", "street": "", "zip-code": "", "city": "", "planning-area-id": 9200715}}, {"type": "Feature", "geometry": {"type": "Point", "coordinates": [13.5306579, 52.4299521]}, "properties": {"id": "1704693389", "name": "Magnusstraße", "street": "", "zip-code": "", "city": "", "planning-area-id": 9200715}}, {"type": "Feature", "geometry": {"type": "Point", "coordinates": [13.5410593, 52.4343094]}, "properties": {"id": "1704693428", "name": "S Adlershof", "street": "", "zip-code": "", "city": "", "planning-area-id": 9200715}}, {"type": "Feature", "geometry": {"type": "Point", "coordinates": [13.5404481, 52.4351347]}, "properties": {"id": "1704693444", "name": "S Adlershof", "street": "", "zip-code": "", "city": "", "planning-area-id": 9200715}}, {"type": "Feature", "geometry": {"type": "Point", "coordinates": [13.5346118, 52.4319162]}, "properties": {"id": "1704693451", "name": "Walther-Nernst-Straße", "street": "", "zip-code": "", "city": "", "planning-area-id": 9200715}}, {"type": "Feature", "geometry": {"type": "Point", "coordinates": [13.5350435, 52.4321529]}, "properties": {"id": "1704693457", "name": "Walther-Nernst-Straße", "street": "", "zip-code": "", "city": "", "planning-area-id": 9200715}}, {"type": "Feature", "geometry": {"type": "Point", "coordinates": [13.634025, 52.3866019]}, "properties": {"id": "1707193581", "name": "Adlergestell/Vetschauer Allee", "street": "", "zip-code": "", "city": "", "planning-area-id": 9301227}}, {"type": "Feature", "geometry": {"type": "Point", "coordinates": [13.5686302, 52.4447245]}, "properties": {"id": "1716251820", "name": "Köllnischer Platz", "street": "", "zip-code": "", "city": "", "planning-area-id": 9200819}}, {"type": "Feature", "geometry": {"type": "Point", "coordinates": [13.5624076, 52.4457149]}, "properties": {"id": "1716251972", "name": "S Spindlersfeld", "street": "", "zip-code": "", "city": "", "planning-area-id": 9200819}}, {"type": "Feature", "geometry": {"type": "Point", "coordinates": [13.4484558, 52.5048497]}, "properties": {"id": "1783286753", "name": "S+U Warschauer Straße", "street": "", "zip-code": "", "city": "", "planning-area-id": 2400625}}, {"type": "Feature", "geometry": {"type": "Point", "coordinates": [13.4457082, 52.5257994]}, "properties": {"id": "1787945074", "name": "Landsberger Allee/Petersburger Straße", "street": "", "zip-code": "", "city": "", "planning-area-id": 2400522}}, {"type": "Feature", "geometry": {"type": "Point", "coordinates": [13.4143847, 52.5219449]}, "properties": {"id": "1789092673", "name": "U Alexanderplatz", "street": "", "zip-code": "", "city": "", "planning-area-id": 1100310}}, {"type": "Feature", "geometry": {"type": "Point", "coordinates": [13.424138, 52.5285131]}, "properties": {"id": "1789130798", "name": "Am Friedrichshain", "street": "", "zip-code": "", "city": "", "planning-area-id": 3701660}}, {"type": "Feature", "geometry": {"type": "Point", "coordinates": [13.4524061, 52.5485959]}, "properties": {"id": "1789155577", "name": "Antonplatz", "street": "", "zip-code": "", "city": "", "planning-area-id": 3500936}}, {"type": "Feature", "geometry": {"type": "Point", "coordinates": [13.4385364, 52.5408786]}, "properties": {"id": "1789155580", "name": "S Greifswalder Straße", "street": "", "zip-code": "", "city": "", "planning-area-id": 3601449}}, {"type": "Feature", "geometry": {"type": "Point", "coordinates": [13.4410608, 52.5430358]}, "properties": {"id": "1789155581", "name": "Thomas-Mann-Straße", "street": "", "zip-code": "", "city": "", "planning-area-id": 3601449}}, {"type": "Feature", "geometry": {"type": "Point", "coordinates": [13.4753656, 52.5533884]}, "properties": {"id": "1789168567", "name": "Sulzfelder Straße", "street": "", "zip-code": "", "city": "", "planning-area-id": 3501038}}, {"type": "Feature", "geometry": {"type": "Point", "coordinates": [13.4742417, 52.5352266]}, "properties": {"id": "1795862367", "name": "Hohenschönhauser Straße", "street": "", "zip-code": "", "city": "", "planning-area-id": 11200514}}, {"type": "Feature", "geometry": {"type": "Point", "coordinates": [13.5609668, 52.5474117]}, "properties": {"id": "1797065720", "name": "Jan-Petersen-Straße", "street": "", "zip-code": "", "city": "", "planning-area-id": 10100210}}, {"type": "Feature", "geometry": {"type": "Point", "coordinates": [13.4267728, 52.5231328]}, "properties": {"id": "1797119853", "name": "Büschingstraße", "street": "", "zip-code": "", "city": "", "planning-area-id": 2400520}}, {"type": "Feature", "geometry": {"type": "Point", "coordinates": [13.5569071, 52.5459306]}, "properties": {"id": "1797183046", "name": "Freizeitforum Marzahn", "street": "", "zip-code": "", "city": "", "planning-area-id": 10100210}}, {"type": "Feature", "geometry": {"type": "Point", "coordinates": [13.5192567, 52.5290091]}, "properties": {"id": "1797326623", "name": "Meeraner Straße", "street": "", "zip-code": "", "city": "", "planning-area-id": 10100311}}, {"type": "Feature", "geometry": {"type": "Point", "coordinates": [13.5434041, 52.5259347]}, "properties": {"id": "1797361151", "name": "Helene-Weigel-Platz", "street": "", "zip-code": "", "city": "", "planning-area-id": 10100312}}, {"type": "Feature", "geometry": {"type": "Point", "coordinates": [13.5297264, 52.5255039]}, "properties": {"id": "1797381752", "name": "Beilsteiner Straße", "street": "", "zip-code": "", "city": "", "planning-area-id": 10100311}}, {"type": "Feature", "geometry": {"type": "Point", "coordinates": [13.5360958, 52.525709]}, "properties": {"id": "1797381754", "name": "S Springpfuhl", "street": "", "zip-code": "", "city": "", "planning-area-id": 10100311}}, {"type": "Feature", "geometry": {"type": "Point", "coordinates": [13.5203097, 52.5259142]}, "properties": {"id": "1797381789", "name": "Allee der Kosmonauten/Rhinstraße", "street": "", "zip-code": "", "city": "", "planning-area-id": 10100311}}, {"type": "Feature", "geometry": {"type": "Point", "coordinates": [13.5170344, 52.5358377]}, "properties": {"id": "1797405922", "name": "Landsberger Allee/Rhinstraße", "street": "", "zip-code": "", "city": "", "planning-area-id": 11200515}}, {"type": "Feature", "geometry": {"type": "Point", "coordinates": [13.5486679, 52.527324]}, "properties": {"id": "1797506132", "name": "Boschpoler Straße", "street": "", "zip-code": "", "city": "", "planning-area-id": 10100312}},