{"type": "FeatureCollection", "features": [{"type": "Feature", "geometry": {"type": "Point", "coordinates": [13.3475136, 52.5312448]}, "properties": {"id": "29071031", "name": "Bruno-Lösche-Bibliothek", "street": "Perleberger Straße 33", "zip-code": 10559.0, "city": "Berlin", "planning-area-id": 1200623}}, {"type": "Feature", "geometry": {"type": "Point", "coordinates": [13.4708382, 52.5307772]}, "properties": {"id": "60848456", "name": "Anton-Saefkow-Bibliothek", "street": "Anton-Saefkow-Platz 14", "zip-code": 10369.0, "city": "Berlin", "planning-area-id": 11300617}}, {"type": "Feature", "geometry": {"type": "Point", "coordinates": [13.4041356, 52.5155636]}, "properties": {"id": "89275152", "name": "Berliner Stadtbibliothek", "street": "Breite Straße 30-36", "zip-code": 10178.0, "city": "Berlin", "planning-area-id": 1100207}}, {"type": "Feature", "geometry": {"type": "Point", "coordinates": [13.538715, 52.5281578]}, "properties": {"id": "203557001", "name": "Stadtteilbibliothek Erich Weinert", "street": "Helene-Weigel-Platz 4", "zip-code": 12681.0, "city": "Berlin", "planning-area-id": 10100312}}, {"type": "Feature", "geometry": {"type": "Point", "coordinates": [13.2871861, 52.5375039]}, "properties": {"id": "256922190", "name": "Stadtteilbibliothek Halemweg", "street": "Halemweg 18", "zip-code": 13627.0, "city": "Berlin", "planning-area-id": 4100101}}, {"type": "Feature", "geometry": {"type": "Point", "coordinates": [13.2013864, 52.5361334]}, "properties": {"id": "257708789", "name": "Bezirkszentralbibliothek Spandau", "street": "Carl-Schurz-Straße 13", "zip-code": 13597.0, "city": "Berlin", "planning-area-id": 5100316}}, {"type": "Feature", "geometry": {"type": "Point", "coordinates": [13.556704, 52.54722]}, "properties": {"id": "263679066", "name": "Bezirkszentralbibliothek Mark Twain", "street": "Marzahner Promenade 52-54", "zip-code": 12679.0, "city": "Berlin", "planning-area-id": 10100210}}, {"type": "Feature", "geometry": {"type": "Point", "coordinates": [13.369701, 52.5068092]}, "properties": {"id": "264776935", "name": "Ibero-Amerikanisches Institut", "street": "Potsdamer Straße 37", "zip-code": 10785.0, "city": "", "planning-area-id": 1100102}}, {"type": "Feature", "geometry": {"type": "Point", "coordinates": [13.3986959, 52.5316059]}, "properties": {"id": "266540876", "name": "Bezirkszentralbibliothek Philipp Schaeffer", "street": "Brunnenstraße 181", "zip-code": 10119.0, "city": "Berlin", "planning-area-id": 1100415}}, {"type": "Feature", "geometry": {"type": "Point", "coordinates": [13.6127893, 52.5055546]}, "properties": {"id": "266629485", "name": "Stadtteilbibliothek Mahlsdorf", "street": "Alt-Mahlsdorf 24-26", "zip-code": 12623.0, "city": "Berlin", "planning-area-id": 10400939}}, {"type": "Feature", "geometry": {"type": "Point", "coordinates": [13.2883334, 52.4518573]}, "properties": {"id": "271685475", "name": "Philologische Bibliothek", "street": "Habelschwerdter Allee 45", "zip-code": 14195.0, "city": "Berlin", "planning-area-id": 6400843}}, {"type": "Feature", "geometry": {"type": "Point", "coordinates": [13.2911582, 52.4538456]}, "properties": {"id": "271875991", "name": "Campusbibliothek Natur-, Kultur- und Bildungswissenschaften, Mathematik, Informatik und Psychologie", "street": "Arnimallee 3", "zip-code": 14195.0, "city": "Berlin", "planning-area-id": 6400843}}, {"type": "Feature", "geometry": {"type": "Point", "coordinates": [13.4528367, 52.5477387]}, "properties": {"id": "281375131", "name": "Wolfdietrich-Schnurre-Bibliothek", "street": "Bizetstraße 41", "zip-code": 13088.0, "city": "Berlin", "planning-area-id": 3500936}}, {"type": "Feature", "geometry": {"type": "Point", "coordinates": [13.4917041, 52.616548]}, "properties": {"id": "293137702", "name": "Stadtteilbibliothek Karow", "street": "", "zip-code": "", "city": "", "planning-area-id": 3300411}}, {"type": "Feature", "geometry": {"type": "Point", "coordinates": [13.414088, 52.5492616]}, "properties": {"id": "308811018", "name": "Bettina von Arnim Bibliothek", "street": "Schönhauser Allee 75", "zip-code": 10439.0, "city": "Berlin", "planning-area-id": 3601346}}, {"type": "Feature", "geometry": {"type": "Point", "coordinates": [13.4813674, 52.5134373]}, "properties": {"id": "323991172", "name": "Egon-Erwin-Kisch-Bibliothek", "street": "Frankfurter Allee 149", "zip-code": "", "city": "Berlin", "planning-area-id": 11300722}}, {"type": "Feature", "geometry": {"type": "Point", "coordinates": [13.4327729, 52.4819616]}, "properties": {"id": "333343782", "name": "Helene-Nathan-Bibliothek", "street": "Karl-Marx-Straße 66", "zip-code": 12043.0, "city": "Berlin", "planning-area-id": 8100206}}, {"type": "Feature", "geometry": {"type": "Point", "coordinates": [13.3196239, 52.4577566]}, "properties": {"id": "345162417", "name": "Ingeborg-Drewitz-Bibliothek", "street": "Grunewaldstraße 3", "zip-code": 12165.0, "city": "Berlin", "planning-area-id": 6100102}}, {"type": "Feature", "geometry": {"type": "Point", "coordinates": [13.6214013, 52.4548013]}, "properties": {"id": "439229151", "name": "Johannes-Bobrowski-Bibliothek", "street": "Peter-Hille-Straße 1", "zip-code": 12587.0, "city": "Berlin", "planning-area-id": 9501737}}, {"type": "Feature", "geometry": {"type": "Point", "coordinates": [13.3974218, 52.3879007]}, "properties": {"id": "444731308", "name": "Stadtteilbibliothek Lichenrade", "street": "Steinstraße 41", "zip-code": 12307.0, "city": "Berlin", "planning-area-id": 7601544}}, {"type": "Feature", "geometry": {"type": "Point", "coordinates": [13.308865, 52.5171056]}, "properties": {"id": "444994924", "name": "Heinrich-Schulz-Bibliothek", "street": "Otto-Suhr-Allee 96", "zip-code": 10585.0, "city": "Berlin", "planning-area-id": 4300619}}, {"type": "Feature", "geometry": {"type": "Point", "coordinates": [13.5314264, 52.4310682]}, "properties": {"id": "482710823", "name": "Zweigbibliothek Naturwissenschaften", "street": "Rudower Chaussee 26", "zip-code": 12489.0, "city": "Berlin", "planning-area-id": 9200715}}, {"type": "Feature", "geometry": {"type": "Point", "coordinates": [13.5247238, 52.4554005]}, "properties": {"id": "486517226", "name": "Bibliothek Campus Wilhelminenhof", "street": "", "zip-code": "", "city": "", "planning-area-id": 9200511}}, {"type": "Feature", "geometry": {"type": "Point", "coordinates": [13.5120545, 52.5280812]}, "properties": {"id": "507660382", "name": "KEH Bibliothek", "street": "", "zip-code": "", "city": "", "planning-area-id": 11300721}}, {"type": "Feature", "geometry": {"type": "Point", "coordinates": [13.313449, 52.4713483]}, "properties": {"id": "529557633", "name": "Eberhard-Alexander-Burgh-Bibliothek", "street": "", "zip-code": "", "city": "", "planning-area-id": 4400834}}, {"type": "Feature", "geometry": {"type": "Point", "coordinates": [13.3827588, 52.4851862]}, "properties": {"id": "560823423", "name": "Friedrich-von-Raumer-Bibliothek", "street": "Dudenstraße 18-20", "zip-code": 10965.0, "city": "Berlin", "planning-area-id": 2200209}}, {"type": "Feature", "geometry": {"type": "Point", "coordinates": [13.2920178, 52.4571611]}, "properties": {"id": "586328524", "name": "Bibliothek des John-F.-Kennedy-Instituts", "street": "Lansstraße 7-9", "zip-code": 14195.0, "city": "Berlin", "planning-area-id": 6400843}}, {"type": "Feature", "geometry": {"type": "Point", "coordinates": [13.4938846, 52.6356441]}, "properties": {"id": "618048288", "name": "Stadtteilbibliothek Buch", "street": "", "zip-code": "", "city": "", "planning-area-id": 3100103}}, {"type": "Feature", "geometry": {"type": "Point", "coordinates": [13.3932385, 52.5164298]}, "properties": {"id": "639552895", "name": "HU Berlin – Zweigbibliothek Rechtswissenschaft", "street": "Bebelplatz 1", "zip-code": 10117.0, "city": "Berlin", "planning-area-id": 1100206}}, {"type": "Feature", "geometry": {"type": "Point", "coordinates": [13.3937348, 52.5261368]}, "properties": {"id": "665121783", "name": "Comicbibliothek Renate", "street": "Tucholskystraße 32", "zip-code": 10117.0, "city": "Berlin", "planning-area-id": 1100309}}, {"type": "Feature", "geometry": {"type": "Point", "coordinates": [13.440864, 52.5418164]}, "properties": {"id": "737212457", "name": "Stadtbibliothek Pankow, Hauptbibliothek Heinrich Böll", "street": "Greifswalder Straße 87", "zip-code": 10409.0, "city": "Berlin", "planning-area-id": 3601449}}, {"type": "Feature", "geometry": {"type": "Point", "coordinates": [13.2878878, 52.4775843]}, "properties": {"id": "795561505", "name": "Adolf-Reichwein-Bibliothek", "street": "Berkaer Straße 7", "zip-code": 14199.0, "city": "Berlin", "planning-area-id": 4400830}}, {"type": "Feature", "geometry": {"type": "Point", "coordinates": [13.3928706, 52.5190211]}, "properties": {"id": "1070809009", "name": "Zweigbibliothek Klassische Archäologie", "street": "Unter den Linden 6", "zip-code": 10117.0, "city": "Berlin", "planning-area-id": 1100206}}, {"type": "Feature", "geometry": {"type": "Point", "coordinates": [13.386705, 52.5183016]}, "properties": {"id": "1070809020", "name": "Zweigbibliothek Fremdsprachliche Philologien / Teilbibliothek Großbritannien-Zentrum", "street": "Dorotheenstraße 65", "zip-code": 10117.0, "city": "Berlin", "planning-area-id": 1100206}}, {"type": "Feature", "geometry": {"type": "Point", "coordinates": [13.5209225, 52.4978553]}, "properties": {"id": "1346361343", "name": "Bodo-Uhse-Bibliothek", "street": "Erich-Kurz-Straße 9", "zip-code": 10319.0, "city": "Berlin", "planning-area-id": 11401137}}, {"type": "Feature", "geometry": {"type": "Point", "coordinates": [13.4123577, 52.568454]}, "properties": {"id": "1356847676", "name": "Janusz-Korczak-Bibliothek", "street": "Berliner Straße 120", "zip-code": 13187.0, "city": "Berlin", "planning-area-id": 3400723}}, {"type": "Feature", "geometry": {"type": "Point", "coordinates": [13.2939985, 52.5145468]}, "properties": {"id": "1362209543", "name": "Ingeborg-Bachmann-Bibliothek", "street": "Nehringstraße 10", "zip-code": 14059.0, "city": "Berlin", "planning-area-id": 4300413}}, {"type": "Feature", "geometry": {"type": "Point", "coordinates": [13.2947799, 52.4613917]}, "properties": {"id": "1425169658", "name": "Bibliothek des Friedrich-Meinecke-Instituts und des Kunsthistorisches Instituts", "street": "Koserstraße 20", "zip-code": 14195.0, "city": "Berlin", "planning-area-id": 6400844}}, {"type": "Feature", "geometry": {"type": "Point", "coordinates": [13.4362136, 52.4925504]}, "properties": {"id": "1472976631", "name": "Else-Ury-Bibliothek (Familienbibliothek Glogauer Straße)", "street": "Glogauer Straße 13", "zip-code": 10999.0, "city": "Berlin", "planning-area-id": 2300418}}, {"type": "Feature", "geometry": {"type": "Point", "coordinates": [13.3262714, 52.5121417]}, "properties": {"id": "1481377095", "name": "Die Bibliothek Wirtschaft und Management", "street": "Straße des 17. Juni 135", "zip-code": 10623.0, "city": "Berlin", "planning-area-id": 4300622}}, {"type": "Feature", "geometry": {"type": "Point", "coordinates": [13.4339544, 52.4690497]}, "properties": {"id": "1670728349", "name": "Fachbibliothek Kurdologie", "street": "Emser Straße 26", "zip-code": 12051.0, "city": "Berlin", "planning-area-id": 8100208}}, {"type": "Feature", "geometry": {"type": "Point", "coordinates": [13.4254805, 52.5286995]}, "properties": {"id": "1684737379", "name": "Bibliothek der Freien", "street": "Greifswalder Straße 4", "zip-code": 10405.0, "city": "Berlin", "planning-area-id": 3701660}}, {"type": "Feature", "geometry": {"type": "Point", "coordinates": [13.3957618, 52.5127362]}, "properties": {"id": "1685672555", "name": "Archiv für Alternativkultur", "street": "Mohrenstraße 41", "zip-code": 10117.0, "city": "Berlin", "planning-area-id": 1100206}}, {"type": "Feature", "geometry": {"type": "Point", "coordinates": [13.2586101, 52.5106578]}, "properties": {"id": "1818848292", "name": "Johanna-Moosdorf-Bibliothek", "street": "Westendallee 45", "zip-code": 14052.0, "city": "Berlin", "planning-area-id": 4200309}}, {"type": "Feature", "geometry": {"type": "Point", "coordinates": [13.4321724, 52.5328818]}, "properties": {"id": "1863570970", "name": "Kurt-Tucholsky-Bibliothek", "street": "Esmarchstraße 18", "zip-code": 10407.0, "city": "Berlin", "planning-area-id": 3701660}}, {"type": "Feature", "geometry": {"type": "Point", "coordinates": [13.3118736, 52.489441]}, "properties": {"id": "1874529829", "name": "Artothek", "street": "Hohenzollerndamm 176", "zip-code": 10713.0, "city": "Berlin", "planning-area-id": 4501146}}, {"type": "Feature", "geometry": {"type": "Point", "coordinates": [13.2769658, 52.449221]}, "properties": {"id": "1933757018", "name": "Bibliothek für Sozialwissenschaften und Osteuropastudien, Stiller Lesesaal", "street": "Ihnestraße 21", "zip-code": 14195.0, "city": "Berlin", "planning-area-id": 6400843}}, {"type": "Feature", "geometry": {"type": "Point", "coordinates": [13.3669367, 52.5085131]}, "properties": {"id": "2094774970", "name": "Kunstbibliothek", "street": "Matthäikirchplatz 6", "zip-code": 10785.0, "city": "Berlin", "planning-area-id": 1100102}}, {"type": "Feature", "geometry": {"type": "Point", "coordinates": [13.3029182, 52.635613]}, "properties": {"id": "2270319509", "name": "Das Buddhistische Haus", "street": "", "zip-code": "", "city": "", "planning-area-id": 12400721}}, {"type": "Feature", "geometry": {"type": "Point", "coordinates": [13.4056371, 52.4900049]}, "properties": {"id": "2402339489", "name": "La Rayuela", "street": "Südstern 2", "zip-code": 10961.0, "city": "Berlin", "planning-area-id": 2200210}}, {"type": "Feature", "geometry": {"type": "Point", "coordinates": [13.3248746, 52.5021314]}, "properties": {"id": "2479053622", "name": "Institut Français Berlin, Mediathek", "street": "Kurfürstendamm 211", "zip-code": 10719.0, "city": "Berlin", "planning-area-id": 4501041}}, {"type": "Feature", "geometry": {"type": "Point", "coordinates": [13.5286278, 52.4033811]}, "properties": {"id": "2571245538", "name": "Stadtteilbibliothek Altglienicke im Bürgerhaus", "street": "Ortolfstraße 182", "zip-code": 12524.0, "city": "Berlin", "planning-area-id": 9300922}}, {"type": "Feature", "geometry": {"type": "Point", "coordinates": [13.389689, 52.4864803]}, "properties": {"id": "2644700001", "name": "Archiv der Jugendkulturen", "street": "Fidicinstraße 3", "zip-code": 10965.0, "city": "Berlin", "planning-area-id": 2200211}}, {"type": "Feature", "geometry": {"type": "Point", "coordinates": [13.3766679, 52.5266936]}, "properties": {"id": "2777497901", "name": "Patientenbibliothek", "street": "Bonhoefferweg 4", "zip-code": "", "city": "", "planning-area-id": 1100308}}, {"type": "Feature", "geometry": {"type": "Point", "coordinates": [13.1780019, 52.5499724]}, "properties": {"id": "2802477601", "name": "Stadtteilbibliothek", "street": "", "zip-code": "", "city": "", "planning-area-id": 5100209}}, {"type": "Feature", "geometry": {"type": "Point", "coordinates": [13.4207705, 52.5010562]}, "properties": {"id": "2807527330", "name": "Museum der Dinge", "street": "Oranienstraße 25", "zip-code": 10999.0, "city": "Berlin", "planning-area-id": 2300314}}, {"type": "Feature", "geometry": {"type": "Point", "coordinates": [13.4307312, 52.4952361]}, "properties": {"id": "3203713887", "name": "kalabal!k", "street": "Reichenberger Straße 63a", "zip-code": 10999.0, "city": "Berlin", "planning-area-id": 2300418}}, {"type": "Feature", "geometry": {"type": "Point", "coordinates": [13.3587376, 52.4260423]}, "properties": {"id": "3428467245", "name": "Universitätsarchiv", "street": "Malteserstraße 74-100", "zip-code": 12249.0, "city": "Berlin", "planning-area-id": 6200316}}, {"type": "Feature", "geometry": {"type": "Point", "coordinates": [13.3578235, 52.4943297]}, "properties": {"id": "3478842465", "name": "Schulbiblothek", "street": "", "zip-code": "", "city": "", "planning-area-id": 7100204}}, {"type": "Feature", "geometry": {"type": "Point", "coordinates": [13.1656465, 52.4327843]}, "properties": {"id": "3518345658", "name": "Joseph Wulf Bibliothek", "street": "Am Großen Wannsee 58", "zip-code": 14109.0, "city": "Berlin", "planning-area-id": 6400735}}, {"type": "Feature", "geometry": {"type": "Point", "coordinates": [13.3772992, 52.5202388]}, "properties": {"id": "3806550974", "name": "Bibliothek des Deutschen Bundestages", "street": "", "zip-code": "", "city": "", "planning-area-id": 1100308}}, {"type": "Feature", "geometry": {"type": "Point", "coordinates": [13.3634291, 52.5037597]}, "properties": {"id": "3837620248", "name": "Bibliothek Tiergarten-Süd", "street": "Lützowstraße 27", "zip-code": 10785.0, "city": "Berlin", "planning-area-id": 1100103}}, {"type": "Feature", "geometry": {"type": "Point", "coordinates": [13.2826514, 52.4921781]}, "properties": {"id": "3952396497", "name": "Umweltbibliothek", "street": "Bismarckplatz 1", "zip-code": 14193.0, "city": "Berlin", "planning-area-id": 4400726}}, {"type": "Feature", "geometry": {"type": "Point", "coordinates": [13.5061185, 52.5649762]}, "properties": {"id": "3981795844", "name": "Anna-Seghers-Bibliothek", "street": "Prerower Platz 2", "zip-code": 13051.0, "city": "Berlin", "planning-area-id": 11100307}}, {"type": "Feature", "geometry": {"type": "Point", "coordinates": [13.383896, 52.5067416]}, "properties": {"id": "4114649179", "name": "Bibliothek der Stiftung Topographie des Terrors", "street": "Niederkirchnerstraße 8", "zip-code": 10963.0, "city": "Berlin", "planning-area-id": 2100101}}, {"type": "Feature", "geometry": {"type": "Point", "coordinates": [13.3859469, 52.5305537]}, "properties": {"id": "4221527005", "name": "Zweigbibliothek Asien-/Afrikawissenschaften und Islamische Theologie", "street": "Invalidenstraße 118", "zip-code": 10115.0, "city": "Berlin", "planning-area-id": 1100415}}, {"type": "Feature", "geometry": {"type": "Point", "coordinates": [13.1429895, 52.453258]}, "properties": {"id": "4271022996", "name": "Stadtteilbibliothek Kladow", "street": "Sakrower Landstraße 2", "zip-code": 14089.0, "city": "Berlin", "planning-area-id": 5400943}}, {"type": "Feature", "geometry": {"type": "Point", "coordinates": [13.419505, 52.5331584]}, "properties": {"id": "4432723694", "name": "Bibliothek Am Wasserturm", "street": "Prenzlauer Allee 227-228", "zip-code": 10405.0, "city": "Berlin", "planning-area-id": 3701556}}, {"type": "Feature", "geometry": {"type": "Point", "coordinates": [13.5189284, 52.4525785]}, "properties": {"id": "4706616647", "name": "Bibliothek", "street": "Britzer Straße 5", "zip-code": 12439.0, "city": "Berlin", "planning-area-id": 9200613}}, {"type": "Feature", "geometry": {"type": "Point", "coordinates": [13.4894854, 52.418094]}, "properties": {"id": "4740208623", "name": "Stadtteilbibliothek Rudow", "street": "", "zip-code": "", "city": "", "planning-area-id": 8401242}}, {"type": "Feature", "geometry": {"type": "Point", "coordinates": [13.3308065, 52.5222118]}, "properties": {"id": "4805428213", "name": "Medienforum Berlin", "street": "Levetzowstraße 1-2", "zip-code": 10555.0, "city": "Berlin", "planning-area-id": 1200522}}, {"type": "Feature", "geometry": {"type": "Point", "coordinates": [13.3427522, 52.5170943]}, "properties": {"id": "4806499594", "name": "Hansabibliothek", "street": "Altonaer Straße 15", "zip-code": 10557.0, "city": "Berlin", "planning-area-id": 1200629}}, {"type": "Feature", "geometry": {"type": "Point", "coordinates": [13.3638336, 52.521758]}, "properties": {"id": "5062614778", "name": "", "street": "", "zip-code": "", "city": "", "planning-area-id": 1200628}}, {"type": "Feature", "geometry": {"type": "Point", "coordinates": [13.395109, 52.5203781]}, "properties": {"id": "5245440325", "name": "Zweigbibliothek Musikwissenschaft", "street": "Am Kupfergraben 5", "zip-code": 10117.0, "city": "Berlin", "planning-area-id": 1100206}}, {"type": "Feature", "geometry": {"type": "Point", "coordinates": [13.6068282, 52.5416071]}, "properties": {"id": "5275440213", "name": "Peter-Weiss-Bibliothek", "street": "Hellersdorfer Promenade 24", "zip-code": 12627.0, "city": "Berlin", "planning-area-id": 10200422}}, {"type": "Feature", "geometry": {"type": "Point", "coordinates": [13.3523189, 52.5976675]}, "properties": {"id": "5318467222", "name": "Bibliothek im Märkischen Viertel", "street": "Wilhelmsruher Damm 142c", "zip-code": 13439.0, "city": "Berlin", "planning-area-id": 12601134}}, {"type": "Feature", "geometry": {"type": "Point", "coordinates": [13.3801597, 52.5261622]}, "properties": {"id": "5533888846", "name": "Charité Medizinische Bibliothek Campus Mitte", "street": "Philippstraße 11/12", "zip-code": 10115.0, "city": "Berlin", "planning-area-id": 1100308}}, {"type": "Feature", "geometry": {"type": "Point", "coordinates": [13.295141, 52.63544]}, "properties": {"id": "5643477411", "name": "Stadtteilbibliothek Frohnau", "street": "Fuchssteinerweg 17", "zip-code": 13465.0, "city": "Berlin", "planning-area-id": 12400721}}, {"type": "Feature", "geometry": {"type": "Point", "coordinates": [13.3262022, 52.531583]}, "properties": {"id": "5735063971", "name": "Kurt-Tucholsky-Bibliothek", "street": "Rostocker Straße 32b", "zip-code": 10553.0, "city": "Berlin", "planning-area-id": 1200518}}, {"type": "Feature", "geometry": {"type": "Point", "coordinates": [13.2390484, 52.5429259]}, "properties": {"id": "5798364681", "name": "Stadtteilbibliothek Haselhorst", "street": "Gartenfelder Straße 104", "zip-code": 13599.0, "city": "Berlin", "planning-area-id": 5300737}}, {"type": "Feature", "geometry": {"type": "Point", "coordinates": [13.347826, 52.4602755]}, "properties": {"id": "5838369566", "name": "Patientenbibliothek", "street": "", "zip-code": "", "city": "", "planning-area-id": 7300619}}, {"type": "Feature", "geometry": {"type": "Point", "coordinates": [13.4273818, 52.4769397]}, "properties": {"id": "5977960159", "name": "Bücherstube", "street": "Briesestraße 79", "zip-code": 12053.0, "city": "Berlin", "planning-area-id": 8100207}}, {"type": "Feature", "geometry": {"type": "Point", "coordinates": [13.3927337, 52.520016]}, "properties": {"id": "6046124564", "name": "Zweigbibliothek Germanistik", "street": "Dorotheenstraße 24", "zip-code": 10117.0, "city": "Berlin", "planning-area-id": 1100206}}, {"type": "Feature", "geometry": {"type": "Point", "coordinates": [13.3251316, 52.5140827]}, "properties": {"id": "6275993185", "name": "Mathematische Fachbibliothek", "street": "Straße des 17. Juni 136", "zip-code": 10623.0, "city": "Berlin", "planning-area-id": 4300622}}, {"type": "Feature", "geometry": {"type": "Point", "coordinates": [13.2890223, 52.5242453]}, "properties": {"id": "6508696687", "name": "ESCP Bibliothek am Campus Berlin", "street": "Heubnerweg 8-10", "zip-code": 14059.0, "city": "", "planning-area-id": 4300412}}, {"type": "Feature", "geometry": {"type": "Point", "coordinates": [13.2813366, 52.4478314]}, "properties": {"id": "6720863485", "name": "Bibliothek Rechtswissenschaft", "street": "Vant-Hoff-Straße 8", "zip-code": 14195.0, "city": "Berlin", "planning-area-id": 6400843}}, {"type": "Feature", "geometry": {"type": "Point", "coordinates": [13.4107782, 52.5321836]}, "properties": {"id": "6880841994", "name": "ICI Berlin", "street": "Christinenstraße 18-19", "zip-code": 10119.0, "city": "Berlin", "planning-area-id": 3701554}}, {"type": "Feature", "geometry": {"type": "Point", "coordinates": [13.4103123, 52.5128877]}, "properties": {"id": "6976235391", "name": "Bildagentur für Kunst, Kultur und Geschichte", "street": "Märkisches Ufer 16;18", "zip-code": 10179.0, "city": "Berlin", "planning-area-id": 1100312}}, {"type": "Feature", "geometry": {"type": "Point", "coordinates": [13.3920937, 52.5246239]}, "properties": {"id": "7232178641", "name": "Teilbibliothek Japanologie", "street": "Johannisstraße 10", "zip-code": 10117.0, "city": "Berlin", "planning-area-id": 1100309}}, {"type": "Feature", "geometry": {"type": "Point", "coordinates": [13.3283687, 52.5043465]}, "properties": {"id": "7798570856", "name": "Bibliothek der Jüdischen Gemeinde", "street": "", "zip-code": "", "city": "", "planning-area-id": 4501042}}, {"type": "Feature", "geometry": {"type": "Point", "coordinates": [13.3980521, 52.3859756]}, "properties": {"id": "8097837782", "name": "Katholische öffentliche Bücherei", "street": "", "zip-code": "", "city": "", "planning-area-id": 7601544}}, {"type": "Feature", "geometry": {"type": "Point", "coordinates": [13.5928919, 52.5293637]}, "properties": {"id": "8151138614", "name": "Stadtteilbibliothek Kaulsdorf", "street": "Neue Grottkauer Straße 5", "zip-code": 12619.0, "city": "Berlin", "planning-area-id": 10200628}}, {"type": "Feature", "geometry": {"type": "Point", "coordinates": [13.1654101, 52.5224043]}, "properties": {"id": "8435515108", "name": "Stadtteilbibliothek Heerstraße", "street": "Obstallee 22F", "zip-code": 13593.0, "city": "Berlin", "planning-area-id": 5200527}}, {"type": "Feature", "geometry": {"type": "Point", "coordinates": [13.4620726, 52.425675]}, "properties": {"id": "9077951933", "name": "Gertrud-Junge-Bibliothek", "street": "Bat-Yam-Platz 1", "zip-code": 12353.0, "city": "Berlin", "planning-area-id": 8300935}}, {"type": "Feature", "geometry": {"type": "Point", "coordinates": [13.4943156, 52.4189356]}, "properties": {"id": "9347421347", "name": "Gertrud-Haß-Bibliothek", "street": "Alt-Rudow 45", "zip-code": 12357.0, "city": "Berlin", "planning-area-id": 8401243}}, {"type": "Feature", "geometry": {"type": "Point", "coordinates": [13.4230798, 52.5037159]}, "properties": {"id": "9780942686", "name": "Kollektivbibliothek", "street": "Mariannenplatz 2B", "zip-code": 10997.0, "city": "Berlin", "planning-area-id": 2300314}}, {"type": "Feature", "geometry": {"type": "Point", "coordinates": [13.3240024, 52.5133684]}, "properties": {"id": "10197004045", "name": "Bereichsbibliothek Architektur und Kunstwissenschaft", "street": "Straße des 17. Juni 152", "zip-code": 10623.0, "city": "", "planning-area-id": 4300622}}, {"type": "Feature", "geometry": {"type": "Point", "coordinates": [13.3240187, 52.5109671]}, "properties": {"id": "11309948213", "name": "Bereichsbibliothek Physik", "street": "", "zip-code": "", "city": "", "planning-area-id": 4300622}}, {"type": "Feature", "geometry": {"type": "Point", "coordinates": [13.3212359, 52.5104545]}, "properties": {"id": "11446515471", "name": "BIbliothek des Schiller-Gymnasiums", "street": "Schillerstraße 125", "zip-code": 10625.0, "city": "", "planning-area-id": 4300624}}, {"type": "Feature", "geometry": {"type": "Point", "coordinates": [13.1967881, 52.5698457]}, "properties": {"id": "11585204402", "name": "WiKo Bibliothek", "street": "", "zip-code": "", "city": "", "planning-area-id": 5100101}}]}